time,.header.seq,.header.stamp.secs,.header.stamp.nsecs,.header.frame_id,.pose.position.x,.pose.position.y,.pose.position.z,.pose.orientation.x,.pose.orientation.y,.pose.orientation.z,.pose.orientation.w
2021/03/16/15:01:58.275057,1006169,1615903318,278171062,mocap,-2.81749731445,10.4127753906,1.92916833496,0.161073804387,0.201654399579,0.963939335528,-0.0648976507503
2021/03/16/15:01:58.283237,1006170,1615903318,288170099,mocap,-2.81766601562,10.412859375,1.9293359375,0.160062190498,0.200728849422,0.96438202254,-0.0636815511168
2021/03/16/15:01:58.295194,1006171,1615903318,298171043,mocap,-2.81772021484,10.4127392578,1.92906945801,0.161560930991,0.201516169919,0.964046032671,-0.0624862848082
2021/03/16/15:01:58.303635,1006172,1615903318,308171034,mocap,-2.81788037109,10.4128603516,1.92933374023,0.16073551004,0.200413299913,0.964499083823,-0.0611566319626
2021/03/16/15:01:58.315151,1006173,1615903318,318171024,mocap,-2.81803295898,10.4129042969,1.92929040527,0.161484221115,0.200344041336,0.964475793213,-0.0597624707221
2021/03/16/15:01:58.323839,1006174,1615903318,328171015,mocap,-2.81816333008,10.4129121094,1.92929846191,0.162124263086,0.20022391194,0.96451314289,-0.0577970730545
2021/03/16/15:01:58.334625,1006175,1615903318,338171005,mocap,-2.81827172852,10.4129248047,1.92932556152,0.162540959875,0.199916369711,0.964630195984,-0.0556997548795
2021/03/16/15:01:58.343263,1006176,1615903318,348170996,mocap,-2.81836499023,10.4129394531,1.92925817871,0.163014442849,0.199793274795,0.964697699362,-0.0535469984493
2021/03/16/15:01:58.354956,1006177,1615903318,358170033,mocap,-2.81846728516,10.4129560547,1.92926025391,0.163737405445,0.199385493569,0.964767962734,-0.0515583088588
2021/03/16/15:01:58.363355,1006178,1615903318,368170977,mocap,-2.81858056641,10.4129384766,1.92925744629,0.164619354656,0.1990927904,0.964792281102,-0.0493799244801
2021/03/16/15:01:58.374875,1006179,1615903318,378170013,mocap,-2.81867944336,10.4129199219,1.92920568848,0.165352729678,0.198914488853,0.964821147268,-0.0470280911258
2021/03/16/15:01:58.383740,1006180,1615903318,388171196,mocap,-2.8187722168,10.4129375,1.92917199707,0.166242642735,0.198801324386,0.964798636675,-0.0447774618966
2021/03/16/15:01:58.394003,1006181,1615903318,398171186,mocap,-2.81884033203,10.4129394531,1.92916564941,0.166663020558,0.198446625794,0.964898505568,-0.042582312039
2021/03/16/15:01:58.404684,1006182,1615903318,408171177,mocap,-2.81894775391,10.4129433594,1.92913745117,0.167433715274,0.198044331837,0.964950748642,-0.0401801925354
2021/03/16/15:01:58.413582,1006183,1615903318,418171167,mocap,-2.8190480957,10.4129658203,1.92908935547,0.168186285642,0.197807229411,0.96496709429,-0.0377383500563
2021/03/16/15:01:58.423822,1006184,1615903318,428170204,mocap,-2.81913818359,10.4129912109,1.92908703613,0.16880701734,0.19756781323,0.965003529342,-0.0352043582452
2021/03/16/15:01:58.433822,1006185,1615903318,438171148,mocap,-2.81921166992,10.4130009766,1.92903991699,0.169274455015,0.197371934841,0.965043591641,-0.0328838589573
2021/03/16/15:01:58.443445,1006186,1615903318,448170185,mocap,-2.8193203125,10.4130039062,1.92896569824,0.169871972875,0.196978316011,0.965090299295,-0.0307210857068
2021/03/16/15:01:58.453804,1006187,1615903318,458171129,mocap,-2.81945678711,10.4130273438,1.92896459961,0.170397997455,0.196651396097,0.965130257636,-0.0285717517476
2021/03/16/15:01:58.463460,1006188,1615903318,468171120,mocap,-2.81955322266,10.4130664062,1.9289453125,0.170868842596,0.196468282619,0.965143419748,-0.0264999949991
2021/03/16/15:01:58.475666,1006189,1615903318,478171110,mocap,-2.81965380859,10.4130849609,1.92888879395,0.171515707573,0.196310022736,0.965106866458,-0.0247687003564
2021/03/16/15:01:58.484972,1006190,1615903318,488171101,mocap,-2.81973950195,10.4131337891,1.92885949707,0.17182088482,0.196196879388,0.965122738553,-0.0228576189432
2021/03/16/15:01:58.493516,1006191,1615903318,498171091,mocap,-2.81988183594,10.4131904297,1.92884130859,0.172415164793,0.196120965694,0.965074210501,-0.021008377008
2021/03/16/15:01:58.505669,1006192,1615903318,508171082,mocap,-2.82000097656,10.4132529297,1.92878881836,0.172839876383,0.195940220044,0.965070636034,-0.0192995445954
2021/03/16/15:01:58.513571,1006193,1615903318,518170118,mocap,-2.82011425781,10.4133007812,1.92875695801,0.173296780845,0.195759877621,0.965053496941,-0.0178338241693
2021/03/16/15:01:58.524548,1006194,1615903318,528171062,mocap,-2.82023925781,10.4133544922,1.92877282715,0.173726406635,0.195664079191,0.965021835139,-0.0163574577521
2021/03/16/15:01:58.533422,1006195,1615903318,538170099,mocap,-2.8203449707,10.4134257812,1.92874365234,0.174168430171,0.195658328768,0.964963604359,-0.0151129638355
2021/03/16/15:01:58.544504,1006196,1615903318,548171043,mocap,-2.82042553711,10.4134873047,1.92871887207,0.174556649729,0.195669626617,0.964910705652,-0.0138094523618
2021/03/16/15:01:58.555473,1006197,1615903318,558171034,mocap,-2.82054980469,10.4135244141,1.92870922852,0.174771979046,0.195654947018,0.964893231687,-0.0124478394583
2021/03/16/15:01:58.563574,1006198,1615903318,568171024,mocap,-2.82064282227,10.4135957031,1.92868261719,0.175202979059,0.195598274627,0.964839309806,-0.0114165041896
2021/03/16/15:01:58.575257,1006199,1615903318,578171015,mocap,-2.82075976563,10.4136669922,1.92868078613,0.175438050337,0.195496711568,0.964826552821,-0.0105951215018
2021/03/16/15:01:58.583691,1006200,1615903318,588171005,mocap,-2.82086694336,10.4137226563,1.92867712402,0.17578925375,0.195422585517,0.964786257556,-0.00977824441913
2021/03/16/15:01:58.595155,1006201,1615903318,598170996,mocap,-2.82095043945,10.4138046875,1.92865869141,0.17593129127,0.195606119589,0.9647315574,-0.00891349361195
2021/03/16/15:01:58.603649,1006202,1615903318,608170033,mocap,-2.82106518555,10.4138896484,1.92867199707,0.176094871234,0.195605004409,0.964708032986,-0.00822750755053
2021/03/16/15:01:58.615264,1006203,1615903318,618170977,mocap,-2.82116650391,10.4139550781,1.92867285156,0.176183172097,0.195578831905,0.964701931681,-0.00765417128785
2021/03/16/15:01:58.623351,1006204,1615903318,628170013,mocap,-2.82128637695,10.4140263672,1.92865966797,0.176426859883,0.19569354568,0.964638344526,-0.00710348628435
2021/03/16/15:01:58.635328,1006205,1615903318,638171196,mocap,-2.82139941406,10.4141210937,1.92866162109,0.176743122052,0.195642580653,0.964593198422,-0.00676829019307
2021/03/16/15:01:58.643391,1006206,1615903318,648171186,mocap,-2.82149169922,10.4141845703,1.92867346191,0.176868669709,0.195636210894,0.964573648616,-0.00645066737848
2021/03/16/15:01:58.654181,1006207,1615903318,658171177,mocap,-2.82160644531,10.4142490234,1.92868908691,0.176801288879,0.195761812216,0.964563421692,-0.00600188904926
2021/03/16/15:01:58.665201,1006208,1615903318,668171167,mocap,-2.82169506836,10.4143310547,1.92865319824,0.177124279091,0.19579853426,0.964498272716,-0.00574612380446
2021/03/16/15:01:58.673454,1006209,1615903318,678170204,mocap,-2.82181469727,10.4144052734,1.92867626953,0.177022022005,0.195807326121,0.964515885157,-0.00563955728064
2021/03/16/15:01:58.684979,1006210,1615903318,688171148,mocap,-2.82191894531,10.4144902344,1.92872021484,0.176884083897,0.195941709569,0.96451532898,-0.00538948339404
2021/03/16/15:01:58.693369,1006211,1615903318,698170185,mocap,-2.82201586914,10.4145683594,1.92874499512,0.177042817117,0.196068299562,0.964460543932,-0.00537932488657
2021/03/16/15:01:58.705267,1006212,1615903318,708171129,mocap,-2.82211254883,10.4146796875,1.9287635498,0.176852187075,0.19618158727,0.964472703206,-0.00533864079184
2021/03/16/15:01:58.713769,1006213,1615903318,718171120,mocap,-2.82222265625,10.4147597656,1.92876940918,0.176809304766,0.196405080025,0.964435413765,-0.00527564339665
2021/03/16/15:01:58.724804,1006214,1615903318,728171110,mocap,-2.82233544922,10.4148652344,1.92881555176,0.176679895,0.196502402391,0.964439477279,-0.00524439648711
2021/03/16/15:01:58.733660,1006215,1615903318,738171101,mocap,-2.82245043945,10.414953125,1.92882043457,0.176849605564,0.196715701459,0.964364353574,-0.00534238697834
2021/03/16/15:01:58.743940,1006216,1615903318,748171091,mocap,-2.82256445313,10.4150361328,1.92884033203,0.176664947333,0.19682508249,0.964376212754,-0.00528210733911
2021/03/16/15:01:58.754881,1006217,1615903318,758171082,mocap,-2.8226418457,10.4151005859,1.92885681152,0.176423391217,0.196994693074,0.964386016748,-0.00524300589832
2021/03/16/15:01:58.763965,1006218,1615903318,768170118,mocap,-2.82272900391,10.4151884766,1.92888049316,0.176536913375,0.197065116895,0.964350647733,-0.0052809127004
2021/03/16/15:01:58.775127,1006219,1615903318,778171062,mocap,-2.82278979492,10.4152275391,1.92885632324,0.17648660501,0.197053189948,0.96436194309,-0.00534386535903
2021/03/16/15:01:58.784054,1006220,1615903318,788170099,mocap,-2.82283886719,10.4152666016,1.92886462402,0.176477103445,0.19705919265,0.96436202035,-0.00542329894302
2021/03/16/15:01:58.793547,1006221,1615903318,798171043,mocap,-2.82291894531,10.4153330078,1.92889489746,0.176588794321,0.196960647348,0.964360853735,-0.00557199867561
2021/03/16/15:01:58.803865,1006222,1615903318,808171034,mocap,-2.82297412109,10.4153583984,1.92884094238,0.176571308828,0.196937798433,0.964368247418,-0.00565290275919
2021/03/16/15:01:58.813563,1006223,1615903318,818171024,mocap,-2.82302319336,10.415390625,1.92887036133,0.176436316531,0.196970803166,0.964386480292,-0.0056065429602
2021/03/16/15:01:58.823545,1006224,1615903318,828171015,mocap,-2.82307202148,10.4154228516,1.92884936523,0.176510191865,0.196883228081,0.964390057294,-0.00574252428218
2021/03/16/15:01:58.833623,1006225,1615903318,838171005,mocap,-2.82313232422,10.4154619141,1.92883581543,0.1765495967,0.196791300963,0.964400502373,-0.00592359283807
2021/03/16/15:01:58.843522,1006226,1615903318,848170996,mocap,-2.82316625977,10.4154775391,1.9288067627,0.176484396509,0.196663494073,0.96443771591,-0.00605238661013
2021/03/16/15:01:58.853588,1006227,1615903318,858170033,mocap,-2.82321337891,10.4155009766,1.92881945801,0.176408454735,0.196695498913,0.964444653214,-0.00612004527592
2021/03/16/15:01:58.863658,1006228,1615903318,868170977,mocap,-2.8232331543,10.4155332031,1.92875415039,0.176510659575,0.196561175441,0.964451914926,-0.00634079496948
2021/03/16/15:01:58.874839,1006229,1615903318,878170013,mocap,-2.82324584961,10.4155703125,1.92874243164,0.176661616385,0.196582793507,0.964417676247,-0.00666578535274
2021/03/16/15:01:58.883466,1006230,1615903318,888171196,mocap,-2.82325390625,10.4156132812,1.92873400879,0.17663608131,0.196552478809,0.964425787957,-0.00705061962781
2021/03/16/15:01:58.894680,1006231,1615903318,898171186,mocap,-2.82326342773,10.4156503906,1.92869006348,0.176670425486,0.196644905895,0.964398771835,-0.00730421658355
2021/03/16/15:01:58.905214,1006232,1615903318,908171177,mocap,-2.82327392578,10.4156816406,1.92866577148,0.176633366366,0.196787337148,0.964373585977,-0.00768013830696
2021/03/16/15:01:58.913285,1006233,1615903318,918171167,mocap,-2.82329052734,10.4157128906,1.92868994141,0.176536421828,0.196675128779,0.964410097531,-0.00818269369975
2021/03/16/15:01:58.923475,1006234,1615903318,928170204,mocap,-2.82328930664,10.4157568359,1.92867163086,0.176456686779,0.196717032842,0.964413010052,-0.0085433343374
2021/03/16/15:01:58.934812,1006235,1615903318,938171148,mocap,-2.82328198242,10.4157851562,1.92865124512,0.176588157234,0.196760168753,0.964373910462,-0.00922066837327
2021/03/16/15:01:58.944255,1006236,1615903318,948170185,mocap,-2.82327075195,10.4157939453,1.92863793945,0.176318707024,0.196771543573,0.964416571504,-0.00966229409382
2021/03/16/15:01:58.955392,1006237,1615903318,958171129,mocap,-2.82324829102,10.415828125,1.92862036133,0.176339410696,0.196784745512,0.964404195206,-0.01023347163
2021/03/16/15:01:58.963471,1006238,1615903318,968171120,mocap,-2.82324243164,10.4158632812,1.92861096191,0.176301615296,0.196798591426,0.964401120421,-0.0108868749556
2021/03/16/15:01:58.975432,1006239,1615903318,978171110,mocap,-2.8232265625,10.4158740234,1.9286171875,0.176191284448,0.196797857447,0.964414068446,-0.0115206813647
2021/03/16/15:01:58.984059,1006240,1615903318,988171101,mocap,-2.82320898437,10.4159345703,1.92863293457,0.176401305203,0.19677595849,0.96437092829,-0.0122683081823
2021/03/16/15:01:58.994245,1006241,1615903318,998171091,mocap,-2.82320483398,10.4159648438,1.92858654785,0.176549978956,0.196930301007,0.964302660305,-0.0129977349446
2021/03/16/15:01:59.003654,1006242,1615903319,8171082,mocap,-2.82316748047,10.4159599609,1.92857702637,0.176371004467,0.1970209508,0.964307520193,-0.0136752764188
2021/03/16/15:01:59.015753,1006243,1615903319,18170118,mocap,-2.82315844727,10.4159912109,1.92858178711,0.176354109722,0.196964634728,0.96431084252,-0.0144486742023
2021/03/16/15:01:59.023865,1006244,1615903319,28171062,mocap,-2.82311938477,10.4160458984,1.92854785156,0.176286871932,0.197239858774,0.964257143054,-0.0150844405559
2021/03/16/15:01:59.034637,1006245,1615903319,38170099,mocap,-2.8231105957,10.4160849609,1.92857019043,0.176427985144,0.197197673244,0.96422471331,-0.0160295467228
2021/03/16/15:01:59.044059,1006246,1615903319,48171043,mocap,-2.8230847168,10.4161035156,1.9285579834,0.176331866276,0.197359471329,0.964197220192,-0.0167341482762
2021/03/16/15:01:59.053568,1006247,1615903319,58171034,mocap,-2.82303955078,10.4161611328,1.92857446289,0.176286929457,0.197418803565,0.964180753309,-0.0174415250537
2021/03/16/15:01:59.065185,1006248,1615903319,68171024,mocap,-2.82300268555,10.41621875,1.92857043457,0.176409214665,0.197521516501,0.964122471729,-0.0182453711809
2021/03/16/15:01:59.073445,1006249,1615903319,78171015,mocap,-2.82295922852,10.4162841797,1.92858947754,0.17604221839,0.197753457155,0.964131451433,-0.01879498531
2021/03/16/15:01:59.085129,1006250,1615903319,88171005,mocap,-2.82290991211,10.4163466797,1.92858410645,0.175989506991,0.197854003137,0.964106559983,-0.0194943354443
2021/03/16/15:01:59.093617,1006251,1615903319,98170996,mocap,-2.82287426758,10.4164199219,1.92860900879,0.175895275473,0.197987237745,0.964081211929,-0.0202317456258
2021/03/16/15:01:59.104130,1006252,1615903319,108170033,mocap,-2.82280981445,10.4164697266,1.92859204102,0.17580170816,0.198231699516,0.964033419759,-0.0209165992323
2021/03/16/15:01:59.113630,1006253,1615903319,118170977,mocap,-2.82274975586,10.4164990234,1.92858422852,0.17544260236,0.198540216505,0.964021819136,-0.0215312891713
2021/03/16/15:01:59.123906,1006254,1615903319,128170013,mocap,-2.82269873047,10.4165527344,1.92858679199,0.175612094697,0.198599005577,0.96396113192,-0.0223105419876
2021/03/16/15:01:59.133604,1006255,1615903319,138171196,mocap,-2.82265454102,10.4166103516,1.92860009766,0.175339127784,0.198818606018,0.963952660757,-0.0228608646571
2021/03/16/15:01:59.143635,1006256,1615903319,148171186,mocap,-2.82259521484,10.4166337891,1.92860205078,0.175252450079,0.199075041566,0.963900170346,-0.0234984934143
2021/03/16/15:01:59.153978,1006257,1615903319,158171177,mocap,-2.82254174805,10.4166523438,1.9285892334,0.175186481971,0.199272938207,0.963857532828,-0.0240552639134
2021/03/16/15:01:59.164196,1006258,1615903319,168171167,mocap,-2.82248706055,10.4166679687,1.92854833984,0.175164359625,0.199467605463,0.963806529199,-0.0246392473141
2021/03/16/15:01:59.174936,1006259,1615903319,178170204,mocap,-2.822421875,10.4166914062,1.92856677246,0.17503417609,0.199605037192,0.963790248904,-0.025084335412
2021/03/16/15:01:59.183439,1006260,1615903319,188171148,mocap,-2.82237402344,10.416703125,1.92857788086,0.175131098853,0.199737036348,0.96373380687,-0.02552182106
2021/03/16/15:01:59.194931,1006261,1615903319,198170185,mocap,-2.82230639648,10.4166855469,1.92852209473,0.175177725056,0.199838119023,0.963688803943,-0.0261034016579
2021/03/16/15:01:59.205160,1006262,1615903319,208171129,mocap,-2.82223022461,10.4166894531,1.92851904297,0.175055008241,0.199998067686,0.963664573701,-0.0265914919018
2021/03/16/15:01:59.213621,1006263,1615903319,218171120,mocap,-2.82215380859,10.4166777344,1.92852722168,0.174851538506,0.200136678871,0.963663676845,-0.0269178242925
2021/03/16/15:01:59.224712,1006264,1615903319,228171110,mocap,-2.8220456543,10.4166308594,1.92844628906,0.174712837285,0.200422492106,0.963621361332,-0.02720516422
2021/03/16/15:01:59.233593,1006265,1615903319,238171101,mocap,-2.82195410156,10.4165888672,1.92843005371,0.17476034117,0.200399219061,0.963601583044,-0.0277663931559
2021/03/16/15:01:59.243731,1006266,1615903319,248171091,mocap,-2.82185522461,10.4165527344,1.92841894531,0.17473629755,0.200423760287,0.96358574775,-0.0282851176976
2021/03/16/15:01:59.253808,1006267,1615903319,258171082,mocap,-2.8217734375,10.416515625,1.92838647461,0.174673540366,0.200372240967,0.963595490198,-0.0287026789042
2021/03/16/15:01:59.263546,1006268,1615903319,268170118,mocap,-2.8216652832,10.4164248047,1.92835290527,0.174773292901,0.200359121106,0.963567816749,-0.0291132205689
2021/03/16/15:01:59.273561,1006269,1615903319,278171062,mocap,-2.82155639648,10.4163496094,1.92837658691,0.17490166474,0.200424842482,0.963512776775,-0.0297056864038
2021/03/16/15:01:59.283854,1006270,1615903319,288170099,mocap,-2.82142944336,10.4162763672,1.92832397461,0.17499135068,0.200469361663,0.96347534192,-0.0300888098198
2021/03/16/15:01:59.293655,1006271,1615903319,298171043,mocap,-2.82130493164,10.4161699219,1.92829553223,0.1750304565,0.200585212145,0.963427156225,-0.0306272028334
2021/03/16/15:01:59.304670,1006272,1615903319,308171034,mocap,-2.82118164062,10.4160664062,1.92830224609,0.175128442179,0.200736943061,0.96336264193,-0.0310986307597
2021/03/16/15:01:59.313674,1006273,1615903319,318171024,mocap,-2.82106079102,10.4159658203,1.92827197266,0.175160674057,0.200867337701,0.96331786916,-0.0314599432795
2021/03/16/15:01:59.323685,1006274,1615903319,328171015,mocap,-2.82095214844,10.4158769531,1.92824719238,0.175344336657,0.201024307802,0.963234946259,-0.0319692692681
2021/03/16/15:01:59.334017,1006275,1615903319,338171005,mocap,-2.82086401367,10.4157578125,1.92823657227,0.17539011366,0.201184630971,0.963180096119,-0.0323597292272
2021/03/16/15:01:59.344488,1006276,1615903319,348170996,mocap,-2.82079589844,10.4156484375,1.92821899414,0.175453611668,0.201344906294,0.963120825682,-0.032779902127
2021/03/16/15:01:59.353490,1006277,1615903319,358170033,mocap,-2.82069873047,10.4155400391,1.92818579102,0.175371660858,0.201387543436,0.963109593129,-0.0332829145144
2021/03/16/15:01:59.365568,1006278,1615903319,368170977,mocap,-2.82063525391,10.4154111328,1.92819543457,0.175282203662,0.201409046115,0.963105206828,-0.0337477075818
2021/03/16/15:01:59.375582,1006279,1615903319,378170013,mocap,-2.82054785156,10.4152539062,1.92818151855,0.175024530283,0.201377925144,0.963144087172,-0.0341587000005
2021/03/16/15:01:59.383305,1006280,1615903319,388171196,mocap,-2.82047875977,10.4150927734,1.92815063477,0.17477300294,0.201378552573,0.963173126501,-0.0346208292974
2021/03/16/15:01:59.395382,1006281,1615903319,398171186,mocap,-2.82040600586,10.4149443359,1.92814697266,0.17477173445,0.201282182789,0.963173466861,-0.0351738307592
2021/03/16/15:01:59.403532,1006282,1615903319,408171177,mocap,-2.82032421875,10.4147832031,1.92817163086,0.174552260617,0.201141917981,0.963218091641,-0.0358376534914
2021/03/16/15:01:59.415352,1006283,1615903319,418171167,mocap,-2.82023071289,10.4146396484,1.92815136719,0.174195476667,0.201073382337,0.963277131789,-0.0363677163105
2021/03/16/15:01:59.425542,1006284,1615903319,428170204,mocap,-2.82015844727,10.4144931641,1.9281348877,0.174105991187,0.201090870637,0.96326649663,-0.036975981217
2021/03/16/15:01:59.433601,1006285,1615903319,438171148,mocap,-2.82007348633,10.4143457031,1.9281394043,0.173829827516,0.201129883432,0.963283319463,-0.0376192892747
2021/03/16/15:01:59.444286,1006286,1615903319,448170185,mocap,-2.82000292969,10.4141943359,1.92810449219,0.173738005869,0.201264560813,0.96325165362,-0.0381303615981
2021/03/16/15:01:59.453686,1006287,1615903319,458171129,mocap,-2.81992480469,10.4140517578,1.92804821777,0.173523381384,0.201174706564,0.963282646556,-0.0387932296874
2021/03/16/15:01:59.464215,1006288,1615903319,468171120,mocap,-2.81984399414,10.4139267578,1.92804223633,0.173292766522,0.2013129461,0.963273063371,-0.0393409215568
2021/03/16/15:01:59.475194,1006289,1615903319,478171110,mocap,-2.81978735352,10.4137929688,1.92802587891,0.173239202822,0.201232465708,0.963275994799,-0.0399127920102
2021/03/16/15:01:59.483596,1006290,1615903319,488171101,mocap,-2.81969433594,10.4136347656,1.92793164062,0.173280417538,0.201373296284,0.963217062873,-0.0404423463691
2021/03/16/15:01:59.495122,1006291,1615903319,498171091,mocap,-2.81957592773,10.4134775391,1.92792407227,0.17303219694,0.201304781198,0.963247770732,-0.0411093936487
2021/03/16/15:01:59.503525,1006292,1615903319,508171082,mocap,-2.81949536133,10.4133378906,1.92791430664,0.17281758263,0.201342041669,0.963257013837,-0.0416100717275
2021/03/16/15:01:59.515348,1006293,1615903319,518170118,mocap,-2.81938427734,10.4132109375,1.92790332031,0.172671601955,0.201385643537,0.963250942016,-0.0421420210331
2021/03/16/15:01:59.523401,1006294,1615903319,528171062,mocap,-2.81921337891,10.4129677734,1.92763415527,0.174195468153,0.202168748858,0.962782314004,-0.0428247598663
2021/03/16/15:01:59.535074,1006295,1615903319,538170099,mocap,-2.8191394043,10.4129326172,1.9278795166,0.17262989935,0.201383816426,0.963211733374,-0.0432045057162
2021/03/16/15:01:59.543349,1006296,1615903319,548171043,mocap,-2.8190168457,10.4128105469,1.92787866211,0.172553203999,0.201373477286,0.963203580499,-0.0437375916023
2021/03/16/15:01:59.555152,1006297,1615903319,558171034,mocap,-2.81889208984,10.4126699219,1.9278717041,0.172384364385,0.201385116231,0.963213063818,-0.0441390871662
2021/03/16/15:01:59.563764,1006298,1615903319,568171024,mocap,-2.81875048828,10.4125214844,1.92785375977,0.172214347223,0.20132461162,0.963241265698,-0.0444620416313
2021/03/16/15:01:59.574812,1006299,1615903319,578171015,mocap,-2.81860180664,10.41240625,1.92786682129,0.172163788235,0.201174712024,0.963258769631,-0.044954472907
2021/03/16/15:01:59.583714,1006300,1615903319,588171005,mocap,-2.81841333008,10.4121708984,1.9276307373,0.17362465472,0.202023410013,0.962794153979,-0.0454801759301
2021/03/16/15:01:59.595046,1006301,1615903319,598170996,mocap,-2.81833178711,10.4121425781,1.92785241699,0.172084996578,0.201182059992,0.963235549585,-0.0457143350653
2021/03/16/15:01:59.603349,1006302,1615903319,608170033,mocap,-2.81812573242,10.4119257812,1.92763879395,0.173444030318,0.201884407957,0.962825169379,-0.0461252531659
2021/03/16/15:01:59.614870,1006303,1615903319,618170977,mocap,-2.81804345703,10.4119101563,1.92783276367,0.172234438132,0.201334523751,0.963147289741,-0.0463357187063
2021/03/16/15:01:59.623487,1006304,1615903319,628170013,mocap,-2.81791894531,10.41178125,1.92784777832,0.172191546879,0.201386751438,0.963138316333,-0.0464547300054
2021/03/16/15:01:59.634726,1006305,1615903319,638171196,mocap,-2.81775708008,10.4116357422,1.92781555176,0.172241014657,0.201422101855,0.963113283176,-0.0466366237244
2021/03/16/15:01:59.643876,1006306,1615903319,648171186,mocap,-2.81758251953,10.4114306641,1.92756896973,0.173606016462,0.20225155117,0.962680275247,-0.0469249117184
2021/03/16/15:01:59.654755,1006307,1615903319,658171177,mocap,-2.81743505859,10.4113583984,1.92772949219,0.172034484676,0.201678913257,0.963090740402,-0.0467544194617
2021/03/16/15:01:59.663212,1006308,1615903319,668171167,mocap,-2.81729077148,10.4112255859,1.92776806641,0.172036806308,0.201878821656,0.963038852881,-0.0469516220745
2021/03/16/15:01:59.674592,1006309,1615903319,678170204,mocap,-2.81713842773,10.4110693359,1.92772387695,0.171878013652,0.201962539165,0.963049475081,-0.0469551885697
2021/03/16/15:01:59.683816,1006310,1615903319,688171148,mocap,-2.81697900391,10.4109082031,1.92768359375,0.172157646746,0.202074897619,0.962961971897,-0.0472411634878
2021/03/16/15:01:59.694453,1006311,1615903319,698170185,mocap,-2.81684570312,10.4107636719,1.92772900391,0.171881565332,0.202074288287,0.963008161571,-0.0473074164575
2021/03/16/15:01:59.703571,1006312,1615903319,708171129,mocap,-2.8166965332,10.4105966797,1.92770385742,0.172144815117,0.202136060245,0.962941475971,-0.0474434798894
2021/03/16/15:01:59.714425,1006313,1615903319,718171120,mocap,-2.81657128906,10.4104199219,1.9277121582,0.172005564274,0.202080117878,0.962972416992,-0.0475587576197
2021/03/16/15:01:59.723368,1006314,1615903319,728171110,mocap,-2.81643041992,10.410234375,1.92775219727,0.172017124944,0.202001650459,0.962984579582,-0.0476040555418
2021/03/16/15:01:59.734025,1006315,1615903319,738171101,mocap,-2.81628369141,10.4100419922,1.92777258301,0.171936217439,0.202093668549,0.962980734302,-0.0475836371667
2021/03/16/15:01:59.745583,1006316,1615903319,748171091,mocap,-2.81614160156,10.4098564453,1.92774499512,0.171989698936,0.202180158092,0.962953770484,-0.0475683669503
2021/03/16/15:01:59.753506,1006317,1615903319,758171082,mocap,-2.81598828125,10.4096533203,1.92772680664,0.171976857432,0.202138528814,0.962964068662,-0.0475833175166
2021/03/16/15:01:59.765406,1006318,1615903319,768170118,mocap,-2.81583544922,10.4094404297,1.92773217773,0.171976758813,0.202069791188,0.962977531179,-0.0476032898427
2021/03/16/15:01:59.773674,1006319,1615903319,778171062,mocap,-2.81570922852,10.4092382812,1.92771813965,0.172164159237,0.202036727013,0.962947789598,-0.0476677385385
2021/03/16/15:01:59.785234,1006320,1615903319,788170099,mocap,-2.81558398437,10.4090068359,1.9277277832,0.172075433023,0.20205894518,0.962954257928,-0.0477632809437
2021/03/16/15:01:59.793365,1006321,1615903319,798171043,mocap,-2.81545654297,10.4087734375,1.92774145508,0.172032627256,0.202116444099,0.962949816759,-0.0477636032652
2021/03/16/15:01:59.805320,1006322,1615903319,808171034,mocap,-2.81529931641,10.4085224609,1.92771240234,0.171976994495,0.202224238253,0.962938953603,-0.0477267572333
2021/03/16/15:01:59.813436,1006323,1615903319,818171024,mocap,-2.81517749023,10.4082587891,1.9276661377,0.171978256965,0.20231344143,0.962922310453,-0.0476797525004
2021/03/16/15:01:59.825348,1006324,1615903319,828171015,mocap,-2.81505297852,10.4080058594,1.92769421387,0.171879157455,0.202363614962,0.962930318699,-0.047662610294
2021/03/16/15:01:59.833647,1006325,1615903319,838171005,mocap,-2.81491113281,10.4077382812,1.92767102051,0.171988014182,0.202418664404,0.962895840211,-0.0477327209523
2021/03/16/15:01:59.845238,1006326,1615903319,848170996,mocap,-2.81476391602,10.4074550781,1.92760241699,0.171964641078,0.202498569067,0.962885255006,-0.047691608287
2021/03/16/15:01:59.853328,1006327,1615903319,858170033,mocap,-2.81464428711,10.40715625,1.9276048584,0.172082664565,0.202601155726,0.96284668147,-0.0476088406598
2021/03/16/15:01:59.865211,1006328,1615903319,868170977,mocap,-2.81450366211,10.4068759766,1.92762548828,0.17212692499,0.202705566927,0.962817601342,-0.0475924708122
2021/03/16/15:01:59.873810,1006329,1615903319,878170013,mocap,-2.81436987305,10.4065693359,1.92758850098,0.17219321829,0.202751411525,0.962796274325,-0.0475888393886
2021/03/16/15:01:59.885131,1006330,1615903319,888171196,mocap,-2.81422509766,10.4062519531,1.9276105957,0.172102784386,0.202646680484,0.962840313013,-0.0474707992967
2021/03/16/15:01:59.893581,1006331,1615903319,898171186,mocap,-2.8140703125,10.4058876953,1.9275871582,0.172321611889,0.202774505124,0.962778003598,-0.0473949607417
2021/03/16/15:01:59.905253,1006332,1615903319,908171177,mocap,-2.81387207031,10.4055224609,1.92750537109,0.172154672459,0.202842734079,0.962799392928,-0.0472749261655
2021/03/16/15:01:59.913377,1006333,1615903319,918171167,mocap,-2.81371850586,10.4051396484,1.92749499512,0.172333915224,0.202922921202,0.962745671069,-0.0473717938019
2021/03/16/15:01:59.925264,1006334,1615903319,928170204,mocap,-2.81349438477,10.4046503906,1.92728564453,0.173461976762,0.203532154907,0.962410844042,-0.0474443188614
2021/03/16/15:01:59.933514,1006335,1615903319,938171148,mocap,-2.81331835938,10.4042675781,1.92724487305,0.173389915022,0.203543289044,0.962419584247,-0.0474828181134
2021/03/16/15:01:59.945225,1006336,1615903319,948170185,mocap,-2.81315454102,10.4038525391,1.92721166992,0.173481007798,0.20369970478,0.962378406275,-0.0473135112407
2021/03/16/15:01:59.953746,1006337,1615903319,958171129,mocap,-2.81305322266,10.4035292969,1.92747912598,0.17203760478,0.202908846603,0.962812083912,-0.0471588530749
2021/03/16/15:01:59.964964,1006338,1615903319,968171120,mocap,-2.81290820313,10.4030634766,1.92743530273,0.172067817407,0.203132363638,0.962765784228,-0.0470313681574
2021/03/16/15:01:59.973363,1006339,1615903319,978171110,mocap,-2.81272583008,10.4025693359,1.92738110352,0.172055112648,0.203359648832,0.962717098671,-0.0470922552747
2021/03/16/15:01:59.984903,1006340,1615903319,988171101,mocap,-2.81254003906,10.4020703125,1.92738354492,0.172028570762,0.203340332727,0.962726695129,-0.0470765075428
2021/03/16/15:01:59.993478,1006341,1615903319,998171091,mocap,-2.81234716797,10.4015625,1.92738879395,0.17171316883,0.20314625342,0.962831770083,-0.0469165809669
2021/03/16/15:02:00.004727,1006342,1615903320,8171082,mocap,-2.8121628418,10.4010302734,1.92732971191,0.171760000545,0.202898434872,0.962874453024,-0.0469415769309
2021/03/16/15:02:00.013327,1006343,1615903320,18170118,mocap,-2.81197924805,10.4004794922,1.92732312012,0.171807249979,0.202699052895,0.96290661874,-0.0469703852
2021/03/16/15:02:00.025067,1006344,1615903320,28171062,mocap,-2.81175219727,10.3999033203,1.9272947998,0.171447714416,0.202573016381,0.963000401551,-0.0469049993724
2021/03/16/15:02:00.033605,1006345,1615903320,38170099,mocap,-2.81153466797,10.3993183594,1.92723583984,0.171554655106,0.202461116669,0.963002691653,-0.0469500442746
2021/03/16/15:02:00.044720,1006346,1615903320,48171043,mocap,-2.81129858398,10.3987177734,1.92719274902,0.171837296308,0.202482600187,0.962947542006,-0.0469549861786
2021/03/16/15:02:00.053208,1006347,1615903320,58171034,mocap,-2.81108105469,10.3981523438,1.92722851562,0.171853520546,0.202520626954,0.962942474083,-0.04683543369
2021/03/16/15:02:00.064361,1006348,1615903320,68171024,mocap,-2.81082592773,10.3975585938,1.92714916992,0.17187631395,0.202363574745,0.962970567832,-0.0468530821529
2021/03/16/15:02:00.072987,1006349,1615903320,78171015,mocap,-2.81056811523,10.3969267578,1.9270760498,0.171805926502,0.202531866369,0.962962389703,-0.046551068874
2021/03/16/15:02:00.084305,1006350,1615903320,88171005,mocap,-2.8103359375,10.3963007812,1.92711242676,0.171532426713,0.202319994671,0.963059377681,-0.0464745994037
2021/03/16/15:02:00.093187,1006351,1615903320,98170996,mocap,-2.8100456543,10.3956630859,1.92705358887,0.171887207653,0.202183485553,0.963021499684,-0.0465427224147
2021/03/16/15:02:00.103450,1006352,1615903320,108170033,mocap,-2.80968603516,10.3948857422,1.9267088623,0.173617131756,0.203016331725,0.962533501562,-0.0465909986984
2021/03/16/15:02:00.113204,1006353,1615903320,118170977,mocap,-2.80942553711,10.3942666016,1.92692260742,0.172126014798,0.202223921297,0.962969863757,-0.0465526360383
2021/03/16/15:02:00.123832,1006354,1615903320,128170013,mocap,-2.80911499023,10.3935917969,1.92688513184,0.172005273945,0.202135799727,0.963014629496,-0.0464556918229
2021/03/16/15:02:00.135427,1006355,1615903320,138171196,mocap,-2.80880932617,10.392890625,1.92684228516,0.17214470697,0.201998906884,0.96301565848,-0.0465134470736
2021/03/16/15:02:00.143374,1006356,1615903320,148171186,mocap,-2.80850610352,10.3921689453,1.92681591797,0.172068831796,0.201877695972,0.963057103187,-0.0464620132734
2021/03/16/15:02:00.155699,1006357,1615903320,158171177,mocap,-2.80817211914,10.3914306641,1.9267956543,0.171961027283,0.201883608222,0.963079275411,-0.0463758230965
2021/03/16/15:02:00.163579,1006358,1615903320,168171167,mocap,-2.80782739258,10.3906884766,1.92674987793,0.172346763009,0.201702538454,0.963035263124,-0.0466450424641
2021/03/16/15:02:00.174406,1006359,1615903320,178170204,mocap,-2.80749975586,10.3899296875,1.92672546387,0.172515044184,0.201651373128,0.963017840232,-0.0466038369142
2021/03/16/15:02:00.183378,1006360,1615903320,188171148,mocap,-2.80715478516,10.3891660156,1.92671569824,0.172114402825,0.201554828115,0.963123703423,-0.0463143377648
2021/03/16/15:02:00.195280,1006361,1615903320,198170185,mocap,-2.80682299805,10.3883476562,1.92663513184,0.172124634829,0.201615221242,0.963116315658,-0.0461668143498
2021/03/16/15:02:00.203538,1006362,1615903320,208171129,mocap,-2.80645849609,10.3875673828,1.92659545898,0.172234591995,0.201583331511,0.963104425492,-0.0461440704085
2021/03/16/15:02:00.215305,1006363,1615903320,218171120,mocap,-2.80608447266,10.3867666016,1.92663452148,0.172465522769,0.201435926285,0.963091274193,-0.0461995746859
2021/03/16/15:02:00.225285,1006364,1615903320,228171110,mocap,-2.80568237305,10.3859228516,1.92654882813,0.17240697957,0.201518284318,0.963087321033,-0.0461413835221
2021/03/16/15:02:00.233368,1006365,1615903320,238171101,mocap,-2.8052824707,10.3850761719,1.92648498535,0.172400693478,0.201499853132,0.963097285132,-0.0460373894152
2021/03/16/15:02:00.245223,1006366,1615903320,248171091,mocap,-2.80487963867,10.3842695313,1.92646704102,0.172269488729,0.201565357183,0.963115975278,-0.04585012774
2021/03/16/15:02:00.253542,1006367,1615903320,258171082,mocap,-2.80452709961,10.3834492188,1.92651538086,0.172201006166,0.201601220026,0.963122705498,-0.0458086061629
2021/03/16/15:02:00.265185,1006368,1615903320,268170118,mocap,-2.80405859375,10.3825654297,1.92644470215,0.172321405083,0.201791183026,0.963063439265,-0.0457652813429
2021/03/16/15:02:00.273545,1006369,1615903320,278171062,mocap,-2.80363769531,10.3817001953,1.92647180176,0.171974864138,0.201727609126,0.963145232053,-0.0456276241885
2021/03/16/15:02:00.284040,1006370,1615903320,288170099,mocap,-2.80323339844,10.38090625,1.92662255859,0.172486728549,0.20254919689,0.962902030336,-0.0451867808921
2021/03/16/15:02:00.293707,1006371,1615903320,298171043,mocap,-2.80277832031,10.3799482422,1.92639855957,0.172012060958,0.20274941193,0.962952246251,-0.0450277978669
2021/03/16/15:02:00.304960,1006372,1615903320,308171034,mocap,-2.80232080078,10.3790263672,1.92642004395,0.172239234711,0.203002421643,0.962855084984,-0.0450971875615
2021/03/16/15:02:00.313637,1006373,1615903320,318171024,mocap,-2.80183349609,10.3781005859,1.92644592285,0.172110131326,0.203271255137,0.96284258802,-0.0446436039444
2021/03/16/15:02:00.324986,1006374,1615903320,328171015,mocap,-2.80134985352,10.3771367188,1.92640185547,0.17169613272,0.203827166016,0.962802720458,-0.0445629062318
2021/03/16/15:02:00.333279,1006375,1615903320,338171005,mocap,-2.800859375,10.3761337891,1.92629406738,0.171678687591,0.204343600868,0.962703787298,-0.0444020168107
2021/03/16/15:02:00.344208,1006376,1615903320,348170996,mocap,-2.80038256836,10.3751162109,1.9263125,0.17160763449,0.204776130506,0.962625416722,-0.0443831830062
2021/03/16/15:02:00.354874,1006377,1615903320,358170033,mocap,-2.79989282227,10.3742119141,1.92647009277,0.1717729532,0.20568935353,0.962417981753,-0.0440178787332
2021/03/16/15:02:00.363572,1006378,1615903320,368170977,mocap,-2.79937548828,10.3731259766,1.92643835449,0.171684081809,0.206337150916,0.962312172546,-0.0436444163293
2021/03/16/15:02:00.375094,1006379,1615903320,378170013,mocap,-2.79885400391,10.3719814453,1.92644421387,0.171908673336,0.207194973865,0.962105088219,-0.043260264554
2021/03/16/15:02:00.383636,1006380,1615903320,388171196,mocap,-2.79830004883,10.3708154297,1.9264197998,0.171658286844,0.208081178022,0.961967273151,-0.0430653649363
2021/03/16/15:02:00.393590,1006381,1615903320,398171186,mocap,-2.79774707031,10.3695517578,1.92642871094,0.171581155759,0.208523654352,0.961887184968,-0.0430213771633
2021/03/16/15:02:00.404974,1006382,1615903320,408171177,mocap,-2.79715844727,10.3682373047,1.92630029297,0.171098709051,0.20921991099,0.961854481667,-0.0422874773261
2021/03/16/15:02:00.413439,1006383,1615903320,418171167,mocap,-2.79660058594,10.3668691406,1.92631921387,0.170955197486,0.209563365027,0.961809855592,-0.0421819450101
2021/03/16/15:02:00.424912,1006384,1615903320,428170204,mocap,-2.79599169922,10.3654716797,1.92618908691,0.170820402004,0.209969671298,0.961759827927,-0.0418468878926
2021/03/16/15:02:00.433551,1006385,1615903320,438171148,mocap,-2.79538623047,10.3639794922,1.92605334473,0.170558820512,0.210336151194,0.961752065582,-0.0412476918339
2021/03/16/15:02:00.443860,1006386,1615903320,448170185,mocap,-2.7947668457,10.3624580078,1.92595727539,0.170547281484,0.210516596474,0.961722774172,-0.0410571168734
2021/03/16/15:02:00.453589,1006387,1615903320,458171129,mocap,-2.79414526367,10.3609101563,1.92578039551,0.170319181911,0.211009256351,0.961666962308,-0.0407814447836
2021/03/16/15:02:00.463575,1006388,1615903320,468171120,mocap,-2.79354345703,10.3592919922,1.9256015625,0.170227770918,0.211271734566,0.961638016957,-0.0404856033126
2021/03/16/15:02:00.473509,1006389,1615903320,478171110,mocap,-2.79292651367,10.3576035156,1.92544799805,0.169710333735,0.211457012008,0.961704661237,-0.0401058819306
2021/03/16/15:02:00.484717,1006390,1615903320,488171101,mocap,-2.79225073242,10.3557890625,1.92502807617,0.168653733137,0.211178844387,0.961970371205,-0.0396538366414
2021/03/16/15:02:00.493595,1006391,1615903320,498171091,mocap,-2.79165820312,10.3541357422,1.92486767578,0.169070753809,0.211878035608,0.961766381715,-0.0390922867992
2021/03/16/15:02:00.504637,1006392,1615903320,508171082,mocap,-2.79101342773,10.3523017578,1.92467199707,0.16888252351,0.211795119302,0.961838509163,-0.0385773563912
2021/03/16/15:02:00.513635,1006393,1615903320,518170118,mocap,-2.79038696289,10.3504638672,1.92433862305,0.168483878914,0.212085422217,0.961863420577,-0.0381014319888
2021/03/16/15:02:00.523539,1006394,1615903320,528171062,mocap,-2.78974365234,10.3485400391,1.92402075195,0.168573965929,0.212011187383,0.961862529788,-0.0381385865886
2021/03/16/15:02:00.533465,1006395,1615903320,538170099,mocap,-2.7891003418,10.3465693359,1.92358642578,0.168112461526,0.212320249289,0.961902583485,-0.0374395794453
2021/03/16/15:02:00.544446,1006396,1615903320,548171043,mocap,-2.78843530273,10.3445966797,1.92309680176,0.167266779923,0.212519902951,0.962037201566,-0.0366269992454
2021/03/16/15:02:00.553373,1006397,1615903320,558171034,mocap,-2.78778979492,10.3425039063,1.9226505127,0.166991437436,0.21261552865,0.962085650481,-0.0360513310902
2021/03/16/15:02:00.564276,1006398,1615903320,568171024,mocap,-2.78720922852,10.3404414062,1.92207763672,0.166503147108,0.213019127397,0.962109564263,-0.0352807066693
2021/03/16/15:02:00.573415,1006399,1615903320,578171015,mocap,-2.78659423828,10.3382597656,1.9215345459,0.166020941468,0.213137613327,0.962195650508,-0.0344808225109
2021/03/16/15:02:00.583457,1006400,1615903320,588171005,mocap,-2.78600024414,10.3359921875,1.92094189453,0.165528568328,0.213404282303,0.962251594307,-0.0336268776
2021/03/16/15:02:00.594372,1006401,1615903320,598170996,mocap,-2.78536962891,10.3336542969,1.92026049805,0.16539890753,0.213254500698,0.962332805752,-0.0328830397622
2021/03/16/15:02:00.604322,1006402,1615903320,608170033,mocap,-2.78473583984,10.3312402344,1.9196348877,0.164644944632,0.21321821298,0.962501617529,-0.0319479357621
2021/03/16/15:02:00.613491,1006403,1615903320,618170977,mocap,-2.78401977539,10.3285898438,1.91871569824,0.163679937026,0.212846217792,0.96276860112,-0.0313368095742
2021/03/16/15:02:00.625486,1006404,1615903320,628170013,mocap,-2.78342724609,10.3261220703,1.91818713379,0.164027174658,0.212897730323,0.96271658015,-0.0307638731052
2021/03/16/15:02:00.633476,1006405,1615903320,638171196,mocap,-2.7827434082,10.3233935547,1.91727478027,0.162860534055,0.212168921087,0.963099807085,-0.0299928777098
2021/03/16/15:02:00.643425,1006406,1615903320,648171186,mocap,-2.78217016602,10.3208339844,1.91666809082,0.163789512233,0.212406640647,0.962907415712,-0.0294232201934
2021/03/16/15:02:00.654247,1006407,1615903320,658171177,mocap,-2.78156713867,10.3180986328,1.9159564209,0.163572279839,0.212038702433,0.963038868354,-0.0289798618358
2021/03/16/15:02:00.663347,1006408,1615903320,668171167,mocap,-2.78096069336,10.3152958984,1.91524328613,0.163062285602,0.212436157885,0.963078084034,-0.0276075541896
2021/03/16/15:02:00.673591,1006409,1615903320,678170204,mocap,-2.78039306641,10.3123896484,1.91472033691,0.163171080116,0.211797335859,0.963212692531,-0.0271733261669
2021/03/16/15:02:00.684039,1006410,1615903320,688171148,mocap,-2.77979052734,10.309375,1.91407128906,0.163181971509,0.211962113214,0.963208353111,-0.0259494004389
2021/03/16/15:02:00.693334,1006411,1615903320,698170185,mocap,-2.77921191406,10.3062324219,1.91359765625,0.163093821757,0.211819626133,0.963273906448,-0.0252234886348
2021/03/16/15:02:00.704104,1006412,1615903320,708171129,mocap,-2.77862451172,10.3030087891,1.91327001953,0.16348494547,0.211225590225,0.963351118303,-0.0247193026186
2021/03/16/15:02:00.713416,1006413,1615903320,718171120,mocap,-2.77804101562,10.2996816406,1.91299926758,0.16383229627,0.210445074375,0.963477360238,-0.0241499208269
2021/03/16/15:02:00.725244,1006414,1615903320,728171110,mocap,-2.77749291992,10.2962294922,1.91277185059,0.164438115144,0.209937124173,0.963497481321,-0.0236456682588
2021/03/16/15:02:00.733449,1006415,1615903320,738171101,mocap,-2.77693286133,10.2926611328,1.91265515137,0.164713706286,0.209135405791,0.963637025943,-0.0231398329706
2021/03/16/15:02:00.743769,1006416,1615903320,748171091,mocap,-2.77635131836,10.2889580078,1.91245117187,0.164871919009,0.208133027555,0.963837589324,-0.022693562744
2021/03/16/15:02:00.753339,1006417,1615903320,758171082,mocap,-2.77582617187,10.2851816406,1.91235961914,0.165173057212,0.207299200063,0.963971086988,-0.0224643979215
2021/03/16/15:02:00.764889,1006418,1615903320,768170118,mocap,-2.77537207031,10.2813710937,1.91241247559,0.165620378157,0.206092487829,0.964161094681,-0.0221168879853
2021/03/16/15:02:00.773686,1006419,1615903320,778171062,mocap,-2.77490356445,10.2774521484,1.91236914063,0.166027314856,0.205430142949,0.964245251502,-0.0215519830888
2021/03/16/15:02:00.784830,1006420,1615903320,788170099,mocap,-2.77451489258,10.2735332031,1.91228466797,0.166849221172,0.204599308336,0.964282308773,-0.02144956127
2021/03/16/15:02:00.793899,1006421,1615903320,798171043,mocap,-2.77413842773,10.2694863281,1.91215979004,0.167178607683,0.204151789605,0.964333495843,-0.0208393161308
2021/03/16/15:02:00.804802,1006422,1615903320,808171034,mocap,-2.7737980957,10.2654228516,1.9120423584,0.167670560685,0.203238798522,0.964446993963,-0.0205566674774
2021/03/16/15:02:00.813765,1006423,1615903320,818171024,mocap,-2.77350488281,10.2613007813,1.91176525879,0.167975132951,0.203265516494,0.964402256084,-0.0198938621634
2021/03/16/15:02:00.823908,1006424,1615903320,828171015,mocap,-2.77325683594,10.2570839844,1.91152575684,0.168017111432,0.202692344376,0.964524305026,-0.0194661713077
2021/03/16/15:02:00.833393,1006425,1615903320,838171005,mocap,-2.77303320312,10.2529042969,1.91124841309,0.168207076458,0.202710404435,0.964500157572,-0.0188232235036
2021/03/16/15:02:00.844436,1006426,1615903320,848170996,mocap,-2.77283569336,10.2486103516,1.91081542969,0.168069938764,0.203244872872,0.964430376838,-0.01783445676
2021/03/16/15:02:00.853607,1006427,1615903320,858170033,mocap,-2.77270141602,10.2441992187,1.91031848145,0.16822579331,0.203551055283,0.96435360679,-0.0170055891579
2021/03/16/15:02:00.864579,1006428,1615903320,868170977,mocap,-2.77261230469,10.2397529297,1.90987670898,0.168168957832,0.203960736128,0.964292662302,-0.0160897953296
2021/03/16/15:02:00.873344,1006429,1615903320,878170013,mocap,-2.7724831543,10.2351347656,1.90917321777,0.167495862265,0.204735449911,0.964258255706,-0.0153151448127
2021/03/16/15:02:00.884804,1006430,1615903320,888171196,mocap,-2.77245532227,10.2305898437,1.90874194336,0.168496426477,0.205399254969,0.963951887836,-0.0147261457353
2021/03/16/15:02:00.893320,1006431,1615903320,898171186,mocap,-2.77239282227,10.2257509766,1.90796447754,0.167578656829,0.205904295309,0.964016555916,-0.0138886194702
2021/03/16/15:02:00.904571,1006432,1615903320,908171177,mocap,-2.77243383789,10.2209902344,1.90751452637,0.168254701659,0.206686995805,0.963735847839,-0.0135672107553
2021/03/16/15:02:00.913332,1006433,1615903320,918171167,mocap,-2.77242944336,10.2159716797,1.90673950195,0.168486527396,0.207506492592,0.963527623495,-0.0129560238869
2021/03/16/15:02:00.924575,1006434,1615903320,928170204,mocap,-2.77251000977,10.2108466797,1.90601733398,0.168470812691,0.208342501033,0.963358519735,-0.0123025816844
2021/03/16/15:02:00.933381,1006435,1615903320,938171148,mocap,-2.77261108398,10.2056386719,1.9052980957,0.168375672429,0.208637504606,0.963319562968,-0.0116375533446
2021/03/16/15:02:00.943397,1006436,1615903320,948170185,mocap,-2.77272924805,10.2002392578,1.90449414062,0.168445475502,0.209227465048,0.963187746397,-0.0109243555288
2021/03/16/15:02:00.953630,1006437,1615903320,958171129,mocap,-2.77290600586,10.1947460938,1.90368493652,0.16822753011,0.209851199727,0.96309470902,-0.0105146142051
2021/03/16/15:02:00.963269,1006438,1615903320,968171120,mocap,-2.7730847168,10.1891201172,1.90289208984,0.167938480443,0.210286159148,0.963052732119,-0.0102871991537
2021/03/16/15:02:00.974543,1006439,1615903320,978171110,mocap,-2.77332568359,10.1833945313,1.90206726074,0.168406903031,0.210750775381,0.962873787568,-0.00986409654824
2021/03/16/15:02:00.983250,1006440,1615903320,988171101,mocap,-2.77362548828,10.1774814453,1.90123364258,0.16821672536,0.211215348564,0.962811139832,-0.00926955198349
2021/03/16/15:02:00.995694,1006441,1615903320,998171091,mocap,-2.77387304687,10.1714091797,1.90029736328,0.167641708239,0.211227122791,0.962911330923,-0.00900728343972
2021/03/16/15:02:01.003572,1006442,1615903321,8171082,mocap,-2.77416894531,10.1652792969,1.8994486084,0.167432624525,0.211733863427,0.962837504069,-0.0088891925224
2021/03/16/15:02:01.013898,1006443,1615903321,18170118,mocap,-2.77457958984,10.1591552734,1.89879626465,0.16816388586,0.211801009481,0.962695026456,-0.00891765659004
2021/03/16/15:02:01.023691,1006444,1615903321,28171062,mocap,-2.77496435547,10.1526777344,1.89778369141,0.167744837378,0.211922301411,0.962744309023,-0.00860264869456
2021/03/16/15:02:01.035294,1006445,1615903321,38170099,mocap,-2.77542700195,10.1463144531,1.89716418457,0.168437664653,0.212540846262,0.962486104741,-0.00869717377457
2021/03/16/15:02:01.043480,1006446,1615903321,48171043,mocap,-2.77582275391,10.1398095703,1.89636877441,0.168261342754,0.212827077527,0.962451687752,-0.0089162322303
2021/03/16/15:02:01.054150,1006447,1615903321,58171034,mocap,-2.77640356445,10.1331357422,1.89566674805,0.168419090664,0.213093921478,0.962365663121,-0.00884985239704
2021/03/16/15:02:01.063437,1006448,1615903321,68171024,mocap,-2.77691259766,10.1263828125,1.89491638184,0.168512253183,0.213730172379,0.962208992141,-0.00876854852109
2021/03/16/15:02:01.074066,1006449,1615903321,78171015,mocap,-2.77747607422,10.1196005859,1.89426855469,0.168476764277,0.214366199006,0.962071114514,-0.00904982987726
2021/03/16/15:02:01.085176,1006450,1615903321,88171005,mocap,-2.77810473633,10.1126748047,1.89367712402,0.169077769757,0.215097731558,0.961800327451,-0.00926332547005
2021/03/16/15:02:01.093520,1006451,1615903321,98170996,mocap,-2.77877392578,10.1056455078,1.8931809082,0.169229034591,0.215596716077,0.961660152172,-0.00945146995716
2021/03/16/15:02:01.105072,1006452,1615903321,108170033,mocap,-2.77943725586,10.0985810547,1.89278149414,0.169398413938,0.216460484938,0.961429942729,-0.0100747220174
2021/03/16/15:02:01.113492,1006453,1615903321,118170977,mocap,-2.78018774414,10.0914042969,1.89249182129,0.169671630105,0.217161564964,0.961222544316,-0.0101785676332
2021/03/16/15:02:01.125081,1006454,1615903321,128170013,mocap,-2.78097412109,10.0841269531,1.89229125977,0.170015940274,0.21780945942,0.961009542354,-0.0106899797217
2021/03/16/15:02:01.133376,1006455,1615903321,138171196,mocap,-2.7817722168,10.0767294922,1.8921652832,0.170422949627,0.218571266445,0.960755237879,-0.0114887229518
2021/03/16/15:02:01.145092,1006456,1615903321,148171186,mocap,-2.78262036133,10.0692460937,1.89223181152,0.171242805377,0.219129686082,0.960476314936,-0.0119720653705
2021/03/16/15:02:01.153627,1006457,1615903321,158171177,mocap,-2.78352441406,10.0616464844,1.89250683594,0.171366969279,0.219830186422,0.960286260917,-0.0125839346554
2021/03/16/15:02:01.165121,1006458,1615903321,168171167,mocap,-2.78445751953,10.0540019531,1.89312121582,0.171594811137,0.221008517136,0.959967953723,-0.0131142396067
2021/03/16/15:02:01.173507,1006459,1615903321,178170204,mocap,-2.7855078125,10.0462246094,1.89401794434,0.172231378636,0.22202282488,0.959611396368,-0.0137176663781
2021/03/16/15:02:01.184118,1006460,1615903321,188171148,mocap,-2.78655834961,10.0382861328,1.89522973633,0.17229226517,0.222571629663,0.959462421547,-0.0144604475803
2021/03/16/15:02:01.193959,1006461,1615903321,198170185,mocap,-2.78762182617,10.0302304688,1.89660131836,0.173060708684,0.222761574988,0.959261122043,-0.0156642504881
2021/03/16/15:02:01.203891,1006462,1615903321,208171129,mocap,-2.78873828125,10.0219833984,1.89795751953,0.173685294131,0.222346841902,0.959226534971,-0.0167256285823
2021/03/16/15:02:01.214050,1006463,1615903321,218171120,mocap,-2.78985302734,10.0137333984,1.89954309082,0.173845981895,0.222097736811,0.959232073025,-0.0180000051233
2021/03/16/15:02:01.223923,1006464,1615903321,228171110,mocap,-2.79109838867,10.0054150391,1.90123498535,0.174182255305,0.221652056209,0.959250815179,-0.0192037182741
2021/03/16/15:02:01.234991,1006465,1615903321,238171101,mocap,-2.79235473633,9.99717285156,1.90317773438,0.174259931154,0.221524274791,0.959242193678,-0.0203688162032
2021/03/16/15:02:01.243402,1006466,1615903321,248171091,mocap,-2.79366650391,9.98886132812,1.90511230469,0.174279022734,0.220818000318,0.959371857529,-0.0217222238356
2021/03/16/15:02:01.254849,1006467,1615903321,258171082,mocap,-2.79495629883,9.980484375,1.90700463867,0.174157393447,0.220044483437,0.9595423627,-0.0229800032811
2021/03/16/15:02:01.263899,1006468,1615903321,268170118,mocap,-2.79625,9.97223046875,1.90881689453,0.174004778551,0.218804126275,0.959814896831,-0.0245452528111
2021/03/16/15:02:01.278892,1006469,1615903321,278171062,mocap,-2.79755688477,9.96397949219,1.91041003418,0.173769612196,0.217614038946,0.960095269088,-0.0257936441675
2021/03/16/15:02:01.283391,1006470,1615903321,288170099,mocap,-2.79885375977,9.95590429687,1.91190246582,0.173886982115,0.216601662604,0.960262394835,-0.0272609869446
2021/03/16/15:02:01.294893,1006471,1615903321,298171043,mocap,-2.80010791016,9.94792871094,1.91302209473,0.173365849927,0.216338779429,0.960376785254,-0.0286049367649
2021/03/16/15:02:01.304742,1006472,1615903321,308171034,mocap,-2.80136474609,9.94019921875,1.91400341797,0.173606634912,0.216409908505,0.960279060809,-0.0298598488414
2021/03/16/15:02:01.313351,1006473,1615903321,318171024,mocap,-2.80262402344,9.93261621094,1.91479174805,0.172555704964,0.216891365154,0.960329995758,-0.0308051475483
2021/03/16/15:02:01.324660,1006474,1615903321,328171015,mocap,-2.80385888672,9.92514746094,1.91534106445,0.172284955165,0.218065314249,0.960081153087,-0.031774031999
2021/03/16/15:02:01.333576,1006475,1615903321,338171005,mocap,-2.80503735352,9.91782128906,1.91580004883,0.171595562153,0.219338453891,0.959890330018,-0.0324986612665
2021/03/16/15:02:01.344446,1006476,1615903321,348170996,mocap,-2.80616503906,9.91053027344,1.91610583496,0.170837959411,0.221157365416,0.959589547761,-0.0330410680431
2021/03/16/15:02:01.353751,1006477,1615903321,358170033,mocap,-2.80728564453,9.90332128906,1.91640136719,0.170154315505,0.222944033666,0.959279017043,-0.0335743049638
2021/03/16/15:02:01.363492,1006478,1615903321,368170977,mocap,-2.80838061523,9.89611425781,1.91655895996,0.169947565326,0.224979283342,0.958820119181,-0.0341486845841
2021/03/16/15:02:01.374557,1006479,1615903321,378170013,mocap,-2.80932861328,9.88886816406,1.91673999023,0.169020321186,0.226645252165,0.958575586957,-0.0345964861821
2021/03/16/15:02:01.383407,1006480,1615903321,388171196,mocap,-2.81025634766,9.88158886719,1.91687402344,0.168661797648,0.228642288361,0.958145893812,-0.0351050030838
2021/03/16/15:02:01.395417,1006481,1615903321,398171186,mocap,-2.81118652344,9.87442773438,1.91729370117,0.167547206218,0.230850281035,0.957795643619,-0.0355470072382
2021/03/16/15:02:01.403426,1006482,1615903321,408171177,mocap,-2.81200268555,9.86706347656,1.91750036621,0.167356696487,0.232355921378,0.957432573213,-0.0364049227686
2021/03/16/15:02:01.415172,1006483,1615903321,418171167,mocap,-2.81276733398,9.85953320313,1.91781604004,0.166581913641,0.233378016286,0.95728882418,-0.0371924653325
2021/03/16/15:02:01.423384,1006484,1615903321,428170204,mocap,-2.81346240234,9.85200390625,1.91821362305,0.166127976983,0.234550710294,0.957050370006,-0.0379743557934
2021/03/16/15:02:01.435467,1006485,1615903321,438171148,mocap,-2.81410327148,9.84434277344,1.91870495605,0.165540094905,0.235098751844,0.956979360925,-0.038930117242
2021/03/16/15:02:01.443277,1006486,1615903321,448170185,mocap,-2.81474389648,9.83654882813,1.91934057617,0.164956230111,0.235250367198,0.957008750807,-0.0397611125081
2021/03/16/15:02:01.454432,1006487,1615903321,458171129,mocap,-2.81533129883,9.82867285156,1.92010131836,0.164337384623,0.235070521524,0.957118882819,-0.0407249058129
2021/03/16/15:02:01.465273,1006488,1615903321,468171120,mocap,-2.81582348633,9.82070019531,1.92088293457,0.163652119612,0.234294273493,0.957380013269,-0.0418052897732
2021/03/16/15:02:01.475452,1006489,1615903321,478171110,mocap,-2.81627880859,9.81263964844,1.9217467041,0.1630333128,0.233543624736,0.957613678252,-0.0430528929635
2021/03/16/15:02:01.485287,1006490,1615903321,488171101,mocap,-2.81665673828,9.80451757812,1.92267651367,0.162534708912,0.232387388573,0.957928824401,-0.0441693653304
2021/03/16/15:02:01.495401,1006491,1615903321,498171091,mocap,-2.81696728516,9.79637890625,1.9235291748,0.161865558949,0.231290803152,0.958258593105,-0.0452168287251
2021/03/16/15:02:01.503652,1006492,1615903321,508171082,mocap,-2.81715283203,9.78826953125,1.92436877441,0.162023441182,0.230138934121,0.958448046405,-0.046495267303
2021/03/16/15:02:01.515317,1006493,1615903321,518170118,mocap,-2.81720751953,9.78026953125,1.92520385742,0.161311911422,0.229225994116,0.958680355261,-0.0486404017955
2021/03/16/15:02:01.523428,1006494,1615903321,528171062,mocap,-2.81727636719,9.77216601563,1.92589367676,0.161250964987,0.228567524522,0.958790419596,-0.0497588744087
2021/03/16/15:02:01.535228,1006495,1615903321,538170099,mocap,-2.8173059082,9.76423144531,1.92659631348,0.161161468542,0.228117691811,0.958836095344,-0.0512117204514
2021/03/16/15:02:01.543843,1006496,1615903321,548171043,mocap,-2.81722509766,9.75613671875,1.92710705566,0.161275456794,0.227939065692,0.958795789212,-0.0523893580168
2021/03/16/15:02:01.554873,1006497,1615903321,558171034,mocap,-2.81708178711,9.74811425781,1.92751953125,0.161006482894,0.227930262515,0.958780682718,-0.0535192663025
2021/03/16/15:02:01.563581,1006498,1615903321,568171024,mocap,-2.81687915039,9.74005078125,1.92778173828,0.161583722476,0.228354501408,0.958513878664,-0.0547362760775
2021/03/16/15:02:01.574913,1006499,1615903321,578171015,mocap,-2.8166184082,9.73202539062,1.92797802734,0.162028202643,0.228392679612,0.958345204086,-0.056197137649
2021/03/16/15:02:01.583432,1006500,1615903321,588171005,mocap,-2.81634838867,9.72393652344,1.92796875,0.162390722998,0.22901782538,0.958085021039,-0.0570367707492
2021/03/16/15:02:01.593984,1006501,1615903321,598170996,mocap,-2.81598657227,9.71581054687,1.92779345703,0.163152588314,0.229907641246,0.957673577382,-0.0581810132993
2021/03/16/15:02:01.603258,1006502,1615903321,608170033,mocap,-2.81565161133,9.70762988281,1.92743896484,0.163675713851,0.230484710569,0.957385211804,-0.059166062738
2021/03/16/15:02:01.614903,1006503,1615903321,618170977,mocap,-2.8152878418,9.69935449219,1.92699316406,0.163613391643,0.23109588861,0.957197245001,-0.059989780966
2021/03/16/15:02:01.623453,1006504,1615903321,628170013,mocap,-2.81490527344,9.69104003906,1.92633190918,0.164161890343,0.231470506839,0.956977842748,-0.0605449316311
2021/03/16/15:02:01.634979,1006505,1615903321,638171196,mocap,-2.81449145508,9.68263085937,1.92547509766,0.164815432269,0.232472036967,0.956575144859,-0.0612913616145
2021/03/16/15:02:01.643641,1006506,1615903321,648171186,mocap,-2.81408837891,9.67416699219,1.92456982422,0.164958021508,0.23335828747,0.956308800629,-0.0616947174846
2021/03/16/15:02:01.654911,1006507,1615903321,658171177,mocap,-2.81361645508,9.66566210938,1.9234420166,0.165010274596,0.233727666547,0.956187121188,-0.0620416486378
2021/03/16/15:02:01.663569,1006508,1615903321,668171167,mocap,-2.81318017578,9.65697753906,1.92203979492,0.165402828373,0.234555488645,0.955900622103,-0.0622867518737
2021/03/16/15:02:01.675222,1006509,1615903321,678170204,mocap,-2.81268212891,9.64827832031,1.92062866211,0.165800686255,0.235222469955,0.955676400428,-0.0621540489395
2021/03/16/15:02:01.683538,1006510,1615903321,688171148,mocap,-2.81217016602,9.63950976563,1.91909777832,0.166120904862,0.235929793967,0.955445599217,-0.0621666545046
2021/03/16/15:02:01.694780,1006511,1615903321,698170185,mocap,-2.81160864258,9.63064355469,1.9173092041,0.166623051124,0.236779573504,0.955149759052,-0.0621380265377
2021/03/16/15:02:01.703596,1006512,1615903321,708171129,mocap,-2.81104931641,9.62166210938,1.9155423584,0.166488699042,0.23745878351,0.955022829792,-0.0618564956681
2021/03/16/15:02:01.713894,1006513,1615903321,718171120,mocap,-2.81049194336,9.61264257812,1.91360180664,0.166941587491,0.237972961159,0.954821741371,-0.0617642403301
2021/03/16/15:02:01.723397,1006514,1615903321,728171110,mocap,-2.80981958008,9.60355859375,1.91166125488,0.167396313607,0.238548178393,0.954617715024,-0.061467562905
2021/03/16/15:02:01.734522,1006515,1615903321,738171101,mocap,-2.80918310547,9.59437402344,1.90959716797,0.167284292746,0.239296979134,0.954478748618,-0.0610184327886
2021/03/16/15:02:01.743716,1006516,1615903321,748171091,mocap,-2.8085078125,9.58517773437,1.90758337402,0.167381541787,0.240146210906,0.954275398466,-0.0605944676852
2021/03/16/15:02:01.755843,1006517,1615903321,758171082,mocap,-2.80781420898,9.57591308594,1.90560791016,0.167913358129,0.241050554276,0.953992245834,-0.0599877897665
2021/03/16/15:02:01.763862,1006518,1615903321,768170118,mocap,-2.80714306641,9.56660058594,1.90377307129,0.167766810955,0.242148409907,0.953773715523,-0.0594485948355
2021/03/16/15:02:01.775465,1006519,1615903321,778171062,mocap,-2.80634790039,9.55716015625,1.90208520508,0.167614852515,0.243020199432,0.953639595071,-0.0584634390814
2021/03/16/15:02:01.783573,1006520,1615903321,788170099,mocap,-2.80560400391,9.54766503906,1.90050012207,0.167562855797,0.244092615406,0.95341844419,-0.057747344283
2021/03/16/15:02:01.795310,1006521,1615903321,798171043,mocap,-2.8048659668,9.53786425781,1.89926306152,0.167728426603,0.244392798061,0.953404479404,-0.056206952282
2021/03/16/15:02:01.803458,1006522,1615903321,808171034,mocap,-2.80397387695,9.52826367187,1.89817907715,0.167612536484,0.244717597847,0.953343569599,-0.0561726635481
2021/03/16/15:02:01.815293,1006523,1615903321,818171024,mocap,-2.80312719727,9.51845117188,1.8972845459,0.167532042992,0.244861755683,0.953365209671,-0.0554122918805
2021/03/16/15:02:01.823481,1006524,1615903321,828171015,mocap,-2.80222851562,9.50853320312,1.8966192627,0.167120391524,0.244684663841,0.95353303055,-0.0545429657374
2021/03/16/15:02:01.835374,1006525,1615903321,838171005,mocap,-2.80127001953,9.49854199219,1.89609533691,0.166982736088,0.244487808991,0.953655923651,-0.0536923836667
2021/03/16/15:02:01.843194,1006526,1615903321,848170996,mocap,-2.80031347656,9.4885078125,1.89583398438,0.166728100525,0.244354546904,0.953779113383,-0.0528962288646
2021/03/16/15:02:01.855391,1006527,1615903321,858170033,mocap,-2.799375,9.4784921875,1.89578735352,0.166529979864,0.244286032912,0.953888110801,-0.051861032014
