time,.header.seq,.header.stamp.secs,.header.stamp.nsecs,.header.frame_id,.pose.position.x,.pose.position.y,.pose.position.z,.pose.orientation.x,.pose.orientation.y,.pose.orientation.z,.pose.orientation.w
2021/03/16/12:45:41.368991,380253,1615895141,368170977,mocap,-2.78019458008,10.3938974609,1.92969372559,0.128167095688,0.225718810938,0.964888938432,-0.0401690102503
2021/03/16/12:45:41.378304,380254,1615895141,378171206,mocap,-2.78021801758,10.3940126953,1.92969824219,0.128202597595,0.225676383653,0.964895262482,-0.040142199955
2021/03/16/12:45:41.390408,380255,1615895141,388171196,mocap,-2.78025683594,10.3941074219,1.92970800781,0.128128839275,0.225656509959,0.964908296534,-0.0401760538057
2021/03/16/12:45:41.398588,380256,1615895141,398171186,mocap,-2.78029248047,10.3942128906,1.92970117187,0.127908412097,0.225587444185,0.96495993683,-0.0400258496597
2021/03/16/12:45:41.410234,380257,1615895141,408171177,mocap,-2.78032373047,10.3942802734,1.92969030762,0.128119355334,0.225620926805,0.964923430639,-0.0400426186012
2021/03/16/12:45:41.418737,380258,1615895141,418171167,mocap,-2.78035302734,10.3944072266,1.92972875977,0.127947958554,0.225615863997,0.964952084409,-0.0399283165015
2021/03/16/12:45:41.430056,380259,1615895141,428171158,mocap,-2.78037524414,10.3945068359,1.92973803711,0.127999841047,0.225689053908,0.964929005489,-0.0399061860271
2021/03/16/12:45:41.438619,380260,1615895141,438171148,mocap,-2.78038256836,10.3945927734,1.92968164062,0.127890289928,0.225639384619,0.964955543497,-0.0398965981498
2021/03/16/12:45:41.449932,380261,1615895141,448171139,mocap,-2.78040795898,10.3946884766,1.92972131348,0.127821568611,0.225615424406,0.964971070634,-0.0398766067727
2021/03/16/12:45:41.458626,380262,1615895141,458171129,mocap,-2.78041552734,10.3947763672,1.92969311523,0.127919407784,0.225692507845,0.964940185978,-0.0398743457808
2021/03/16/12:45:41.469824,380263,1615895141,468171120,mocap,-2.78043701172,10.3948974609,1.92970861816,0.127931087234,0.225820090641,0.964904536136,-0.0399769368545
2021/03/16/12:45:41.478421,380264,1615895141,478171110,mocap,-2.78041723633,10.3949941406,1.9296895752,0.12793397162,0.225758251185,0.964921917239,-0.0398973847741
2021/03/16/12:45:41.490116,380265,1615895141,488171101,mocap,-2.78043530273,10.3950996094,1.92968786621,0.127907899713,0.225780661273,0.96491929967,-0.0399176349021
2021/03/16/12:45:41.498651,380266,1615895141,498171091,mocap,-2.78042382812,10.3952021484,1.92968591309,0.127849867062,0.225765394493,0.96492884334,-0.0399591319502
2021/03/16/12:45:41.510084,380267,1615895141,508171082,mocap,-2.78042163086,10.3953085938,1.9296730957,0.127959142812,0.22583428209,0.964901339399,-0.0398840467208
2021/03/16/12:45:41.518963,380268,1615895141,518171072,mocap,-2.7803918457,10.3953955078,1.92964794922,0.127955028032,0.225755230298,0.964919878779,-0.0398962794743
2021/03/16/12:45:41.528831,380269,1615895141,528171062,mocap,-2.78038061523,10.3954912109,1.92965136719,0.127983651883,0.225920153763,0.964883432846,-0.0397522060427
2021/03/16/12:45:41.538551,380270,1615895141,538171053,mocap,-2.78036010742,10.3956015625,1.92967053223,0.128103115948,0.225726589606,0.964902821945,-0.039995421446
2021/03/16/12:45:41.549847,380271,1615895141,548171043,mocap,-2.78031274414,10.3956601563,1.92963037109,0.128223858412,0.225771365878,0.964881409748,-0.0398721059785
2021/03/16/12:45:41.558584,380272,1615895141,558171034,mocap,-2.78028515625,10.3957529297,1.92963049316,0.128266233095,0.225788129493,0.96487233664,-0.0398606322468
2021/03/16/12:45:41.569834,380273,1615895141,568171024,mocap,-2.78025854492,10.3958476562,1.92963049316,0.128434075114,0.225763496659,0.96485171141,-0.0399588162234
2021/03/16/12:45:41.578512,380274,1615895141,578171015,mocap,-2.7802109375,10.3959345703,1.92960351562,0.128505698832,0.225811300692,0.964838591651,-0.0397747309118
2021/03/16/12:45:41.589548,380275,1615895141,588171005,mocap,-2.78019116211,10.396015625,1.92961022949,0.128464605558,0.225606822338,0.964885309228,-0.0399343754822
2021/03/16/12:45:41.598331,380276,1615895141,598170996,mocap,-2.78014135742,10.3960839844,1.92956872559,0.128665929337,0.225686726409,0.964838267322,-0.0399712640844
2021/03/16/12:45:41.609913,380277,1615895141,608170986,mocap,-2.78010986328,10.3962041016,1.92959069824,0.128727499314,0.225653677248,0.964837039507,-0.0399892616234
2021/03/16/12:45:41.618700,380278,1615895141,618170977,mocap,-2.78008764648,10.3963095703,1.9295970459,0.128864900379,0.225566052055,0.964840583951,-0.0399555714311
2021/03/16/12:45:41.629678,380279,1615895141,628171206,mocap,-2.78004614258,10.3963671875,1.92957519531,0.128882956883,0.225682468482,0.964812760879,-0.0399118768449
2021/03/16/12:45:41.638722,380280,1615895141,638171196,mocap,-2.78002197266,10.3964638672,1.9296036377,0.129074133551,0.225637853257,0.964791840921,-0.0400516599367
2021/03/16/12:45:41.648749,380281,1615895141,648171186,mocap,-2.77999487305,10.3965771484,1.92963232422,0.12915799391,0.225605854799,0.964789547344,-0.0400168586526
2021/03/16/12:45:41.658584,380282,1615895141,658171177,mocap,-2.77997338867,10.3966152344,1.92960290527,0.129382426251,0.225576412109,0.964761954481,-0.040122842383
2021/03/16/12:45:41.669610,380283,1615895141,668171167,mocap,-2.77995629883,10.3966669922,1.92958618164,0.129311267705,0.225556253213,0.964773229578,-0.0401943266089
2021/03/16/12:45:41.680816,380284,1615895141,678171158,mocap,-2.77997094727,10.3967695312,1.92962390137,0.129039970805,0.225502422549,0.964828753644,-0.0400353497897
2021/03/16/12:45:41.688449,380285,1615895141,688171148,mocap,-2.78000146484,10.3968398437,1.9296529541,0.129262965275,0.225488122817,0.964796265889,-0.0401789495828
2021/03/16/12:45:41.699755,380286,1615895141,698171139,mocap,-2.78000830078,10.3968818359,1.92963476562,0.129092183333,0.22545332527,0.964827000708,-0.0401852345254
2021/03/16/12:45:41.710315,380287,1615895141,708171129,mocap,-2.78002734375,10.3969287109,1.92963891602,0.12904013582,0.225469668963,0.964833726715,-0.0400992777331
2021/03/16/12:45:41.718832,380288,1615895141,718171120,mocap,-2.78004248047,10.3969863281,1.92965466309,0.128841813245,0.225352323296,0.964885038967,-0.0401619160938
2021/03/16/12:45:41.730599,380289,1615895141,728171110,mocap,-2.78007226562,10.3970625,1.92966503906,0.128997015889,0.22539641584,0.964852869709,-0.0401889408758
2021/03/16/12:45:41.738817,380290,1615895141,738171101,mocap,-2.78007617187,10.3970927734,1.92964819336,0.12894438765,0.225375713961,0.964863147618,-0.0402272178539
2021/03/16/12:45:41.750223,380291,1615895141,748171091,mocap,-2.78008666992,10.3971074219,1.92960302734,0.128896415122,0.225294866,0.964886096844,-0.0402835446565
2021/03/16/12:45:41.758641,380292,1615895141,758171082,mocap,-2.78011328125,10.3971708984,1.92962243652,0.129018362735,0.225360097137,0.964852383224,-0.0403357387975
2021/03/16/12:45:41.770347,380293,1615895141,768171072,mocap,-2.78012695312,10.3972470703,1.92965112305,0.128904255465,0.225259554756,0.964895092606,-0.0402402840214
2021/03/16/12:45:41.778557,380294,1615895141,778171062,mocap,-2.78014648437,10.397234375,1.92959814453,0.128909299775,0.225138059962,0.964921345853,-0.040274479046
2021/03/16/12:45:41.789160,380295,1615895141,788171053,mocap,-2.78016992187,10.3972402344,1.92958862305,0.128829591958,0.224901402188,0.964993083069,-0.0401328101313
2021/03/16/12:45:41.798400,380296,1615895141,798171043,mocap,-2.78020532227,10.39728125,1.92957458496,0.128840069217,0.224790844087,0.965020175202,-0.0400672507727
2021/03/16/12:45:41.810297,380297,1615895141,808171034,mocap,-2.78024584961,10.3973007812,1.92957995605,0.12872543536,0.224742698832,0.965047621713,-0.0400445736557
2021/03/16/12:45:41.818765,380298,1615895141,818171024,mocap,-2.7802253418,10.3973076172,1.92955102539,0.12880903986,0.224613221991,0.965068011148,-0.0400108214344
2021/03/16/12:45:41.828403,380299,1615895141,828171015,mocap,-2.78024389648,10.3973193359,1.92955236816,0.128788976227,0.22444553613,0.965112633247,-0.0399400752116
2021/03/16/12:45:41.840234,380300,1615895141,838171005,mocap,-2.78027001953,10.3973496094,1.92955664062,0.128829800107,0.224320991654,0.965136510626,-0.0399311623264
2021/03/16/12:45:41.850338,380301,1615895141,848170996,mocap,-2.78028637695,10.3973876953,1.9295489502,0.128966619115,0.224322670209,0.965114076869,-0.0400221030565
2021/03/16/12:45:41.858614,380302,1615895141,858170986,mocap,-2.78028955078,10.3973896484,1.92953051758,0.128817385864,0.224271700189,0.965149039646,-0.039945326191
2021/03/16/12:45:41.868915,380303,1615895141,868170977,mocap,-2.78033911133,10.3973935547,1.9294720459,0.128887019452,0.224166402911,0.965166130726,-0.0398986083297
2021/03/16/12:45:41.878527,380304,1615895141,878171206,mocap,-2.78036547852,10.3974648438,1.92950073242,0.129075063397,0.224304965304,0.965101933395,-0.0400646313871
2021/03/16/12:45:41.890113,380305,1615895141,888171196,mocap,-2.78039868164,10.3974648438,1.92946594238,0.129052967469,0.224140896673,0.96514293341,-0.0400664269017
2021/03/16/12:45:41.898457,380306,1615895141,898171186,mocap,-2.7804465332,10.3974511719,1.92942651367,0.128813872141,0.224097585807,0.9651869345,-0.0400179129739
2021/03/16/12:45:41.909031,380307,1615895141,908171177,mocap,-2.78049804688,10.3974697266,1.9294128418,0.128835721747,0.224253182263,0.965150761119,-0.0399483702855
2021/03/16/12:45:41.918785,380308,1615895141,918171167,mocap,-2.78056542969,10.3974599609,1.92939245605,0.128916965469,0.224143652222,0.965164640865,-0.0399656355455
2021/03/16/12:45:41.928828,380309,1615895141,928171158,mocap,-2.7806340332,10.3974443359,1.92936669922,0.128772622803,0.224110136887,0.965191890286,-0.0399608960577
2021/03/16/12:45:41.939060,380310,1615895141,938171148,mocap,-2.78070263672,10.3974013672,1.92930187988,0.12874412095,0.224233520366,0.965163753123,-0.0400400414759
2021/03/16/12:45:41.950092,380311,1615895141,948171139,mocap,-2.78081640625,10.3973623047,1.92928271484,0.128804670733,0.224473459346,0.965097131547,-0.0401067852421
2021/03/16/12:45:41.958529,380312,1615895141,958171129,mocap,-2.78089819336,10.3973066406,1.92922802734,0.128570324542,0.224468830366,0.965126227909,-0.0401843914028
2021/03/16/12:45:41.969663,380313,1615895141,968171120,mocap,-2.78103637695,10.3972548828,1.92919262695,0.128616369664,0.224543267776,0.965097579309,-0.0403089633423
2021/03/16/12:45:41.978551,380314,1615895141,978171110,mocap,-2.78115966797,10.3971416016,1.92909387207,0.128517896392,0.224682858137,0.965074712314,-0.0403925686129
2021/03/16/12:45:41.989891,380315,1615895141,988171101,mocap,-2.78128759766,10.3970302734,1.92901269531,0.128490467843,0.224960618135,0.965012338713,-0.040424007072
2021/03/16/12:45:41.998613,380316,1615895141,998171091,mocap,-2.78145019531,10.3969033203,1.92894311523,0.128389798097,0.225287505362,0.964944641151,-0.0405394729973
2021/03/16/12:45:42.009769,380317,1615895142,8171082,mocap,-2.78160351563,10.3967265625,1.92890966797,0.128385470883,0.225560982298,0.964876506419,-0.0406539103504
2021/03/16/12:45:42.018860,380318,1615895142,18171072,mocap,-2.78174291992,10.3964970703,1.92884277344,0.128393159059,0.225836769733,0.964812027259,-0.0406287410458
2021/03/16/12:45:42.028616,380319,1615895142,28171062,mocap,-2.78189599609,10.3962294922,1.92884716797,0.128504490873,0.225775537211,0.964812004092,-0.0406178159133
2021/03/16/12:45:42.038870,380320,1615895142,38171053,mocap,-2.78206054687,10.3959101563,1.92886022949,0.12868200427,0.225676733944,0.964810436461,-0.0406421473879
2021/03/16/12:45:42.049448,380321,1615895142,48171043,mocap,-2.7822331543,10.3955546875,1.92884558105,0.128913569979,0.225626685217,0.96479977187,-0.0404387027748
2021/03/16/12:45:42.058401,380322,1615895142,58171034,mocap,-2.78241650391,10.3951328125,1.92883654785,0.129026552885,0.225363692151,0.964853819513,-0.0402550265474
2021/03/16/12:45:42.069587,380323,1615895142,68171024,mocap,-2.78262670898,10.3946787109,1.92882507324,0.128948747521,0.225071603764,0.964936001032,-0.0401684201832
2021/03/16/12:45:42.078393,380324,1615895142,78171015,mocap,-2.78284057617,10.3942353516,1.92881958008,0.129169034278,0.224845372055,0.964959813292,-0.040155542269
2021/03/16/12:45:42.090723,380325,1615895142,88171005,mocap,-2.78306591797,10.3937363281,1.92876916504,0.128930252706,0.224671218922,0.96504356076,-0.0398843027952
2021/03/16/12:45:42.098713,380326,1615895142,98170996,mocap,-2.78333764648,10.3932382812,1.92874890137,0.129282899461,0.224347311101,0.965075723662,-0.0397876387202
2021/03/16/12:45:42.108523,380327,1615895142,108170986,mocap,-2.78359277344,10.3926953125,1.92861547852,0.129300622462,0.224034240312,0.965153215949,-0.0396141564309
2021/03/16/12:45:42.120536,380328,1615895142,118170977,mocap,-2.78388305664,10.3921259766,1.92848132324,0.129635836475,0.224018076189,0.965114200387,-0.0395605717126
2021/03/16/12:45:42.128986,380329,1615895142,128171206,mocap,-2.78421337891,10.3915683594,1.92842321777,0.129931121325,0.223630247329,0.965157531187,-0.0397284028088
2021/03/16/12:45:42.140347,380330,1615895142,138171196,mocap,-2.78454467773,10.3909511719,1.92827148437,0.130323560323,0.223316535274,0.965179539369,-0.0396729966965
2021/03/16/12:45:42.148671,380331,1615895142,148171186,mocap,-2.78489941406,10.3903535156,1.92815368652,0.130580972282,0.223220697367,0.965170368711,-0.039588963923
2021/03/16/12:45:42.160144,380332,1615895142,158171177,mocap,-2.7853046875,10.389765625,1.9281105957,0.130596224362,0.22307108291,0.965212369303,-0.0393571413154
2021/03/16/12:45:42.168421,380333,1615895142,168171167,mocap,-2.7857121582,10.3890986328,1.92801623535,0.130598131019,0.222877794382,0.965262287497,-0.0392215225861
2021/03/16/12:45:42.178880,380334,1615895142,178171158,mocap,-2.78612304687,10.3884394531,1.92787841797,0.130548014389,0.222885312753,0.965277261681,-0.0389764576819
2021/03/16/12:45:42.188922,380335,1615895142,188171148,mocap,-2.78658666992,10.3878349609,1.92782006836,0.130757817783,0.222902627712,0.965244295014,-0.0389904391105
2021/03/16/12:45:42.200285,380336,1615895142,198171139,mocap,-2.78710400391,10.3871845703,1.92777148438,0.131055845217,0.222539799849,0.965284015424,-0.0390790904455
2021/03/16/12:45:42.208417,380337,1615895142,208171129,mocap,-2.78762329102,10.3865478516,1.92772949219,0.13121543672,0.222483972139,0.965273062758,-0.0391318343011
2021/03/16/12:45:42.220109,380338,1615895142,218171120,mocap,-2.78816894531,10.3859355469,1.92771398926,0.131298086054,0.222609151653,0.965232871042,-0.0391341642215
2021/03/16/12:45:42.228609,380339,1615895142,228171110,mocap,-2.78875927734,10.3852861328,1.9276619873,0.131260194795,0.222478721666,0.965270893822,-0.0390649755515
2021/03/16/12:45:42.239296,380340,1615895142,238171101,mocap,-2.78934643555,10.384640625,1.9276027832,0.131253436629,0.222973301535,0.965163498379,-0.0389212879216
2021/03/16/12:45:42.248995,380341,1615895142,248171091,mocap,-2.78997241211,10.3840351563,1.92757019043,0.131428541475,0.223364996719,0.965045984981,-0.0389982602853
2021/03/16/12:45:42.258605,380342,1615895142,258171082,mocap,-2.79063330078,10.3833701172,1.92746398926,0.131682786519,0.223643778474,0.964936394819,-0.039253852782
2021/03/16/12:45:42.268603,380343,1615895142,268171072,mocap,-2.79132739258,10.3827490234,1.92737731934,0.131329727283,0.224274070848,0.964848985542,-0.0389880548353
2021/03/16/12:45:42.280167,380344,1615895142,278171062,mocap,-2.7920300293,10.3821210937,1.9272668457,0.131266336662,0.224786791698,0.964742083734,-0.038894040674
2021/03/16/12:45:42.288607,380345,1615895142,288171053,mocap,-2.79277050781,10.3814296875,1.92713586426,0.131368599089,0.225314316812,0.964598906489,-0.0390475815212
2021/03/16/12:45:42.298617,380346,1615895142,298171043,mocap,-2.79351123047,10.3807695312,1.92693981934,0.131525622944,0.226248931521,0.964353436818,-0.0391776531332
2021/03/16/12:45:42.309955,380347,1615895142,308171034,mocap,-2.7943425293,10.3801103516,1.9267755127,0.131565500507,0.227091714417,0.964151296128,-0.0391425204345
2021/03/16/12:45:42.318630,380348,1615895142,318171024,mocap,-2.795109375,10.3793242187,1.92650927734,0.131460359588,0.22788293845,0.963976729177,-0.0391970803163
2021/03/16/12:45:42.328772,380349,1615895142,328171015,mocap,-2.79593554688,10.3785957031,1.92631091309,0.131719330228,0.228569035339,0.963770845153,-0.039395059175
2021/03/16/12:45:42.338757,380350,1615895142,338171005,mocap,-2.79677514648,10.3777753906,1.92606652832,0.132093349119,0.229296103868,0.963542253477,-0.0395091699001
2021/03/16/12:45:42.349885,380351,1615895142,348170996,mocap,-2.79762084961,10.3768798828,1.92580297852,0.132149439412,0.230329576508,0.963288834195,-0.0394897554879
2021/03/16/12:45:42.358784,380352,1615895142,358170986,mocap,-2.79850244141,10.3759199219,1.92550720215,0.132179451889,0.231267196124,0.963059091436,-0.0395128263143
2021/03/16/12:45:42.368724,380353,1615895142,368170977,mocap,-2.79937084961,10.3749248047,1.92523205566,0.132622418446,0.231762425004,0.962874336956,-0.0396292798007
2021/03/16/12:45:42.379841,380354,1615895142,378171206,mocap,-2.80031347656,10.3738232422,1.92486730957,0.132294266222,0.232222742218,0.962811580919,-0.0395561485663
2021/03/16/12:45:42.389197,380355,1615895142,388171196,mocap,-2.80122387695,10.3726542969,1.92444152832,0.13264250894,0.23243016376,0.962700018288,-0.0398856515992
2021/03/16/12:45:42.399483,380356,1615895142,398171186,mocap,-2.80213549805,10.3714042969,1.92397814941,0.132994376143,0.232720226091,0.962573898872,-0.0400659212982
2021/03/16/12:45:42.408688,380357,1615895142,408171177,mocap,-2.80309423828,10.3701044922,1.92355053711,0.133066328052,0.233013992207,0.962488047724,-0.0401819823255
2021/03/16/12:45:42.418974,380358,1615895142,418171167,mocap,-2.8040480957,10.3687363281,1.92301794434,0.133901378876,0.233078965114,0.962336932339,-0.040647965318
2021/03/16/12:45:42.429981,380359,1615895142,428171158,mocap,-2.80497021484,10.3673085937,1.92239453125,0.134301523001,0.233224784626,0.96224028192,-0.0407791632065
2021/03/16/12:45:42.438941,380360,1615895142,438171148,mocap,-2.80594091797,10.3657851563,1.9217791748,0.134236142566,0.233002464086,0.962302688092,-0.0407927235903
2021/03/16/12:45:42.449734,380361,1615895142,448171139,mocap,-2.8068503418,10.3642685547,1.92096984863,0.134520728425,0.233004091096,0.962243975301,-0.0412285762543
2021/03/16/12:45:42.458667,380362,1615895142,458171129,mocap,-2.80779882813,10.3626875,1.92021337891,0.135075774685,0.233211391926,0.962110307688,-0.0413610995985
2021/03/16/12:45:42.468591,380363,1615895142,468171120,mocap,-2.80877587891,10.3610146484,1.91943823242,0.135323673684,0.233252678565,0.962069248132,-0.0412729565538
2021/03/16/12:45:42.478713,380364,1615895142,478171110,mocap,-2.809671875,10.3592890625,1.91861572266,0.135613453413,0.233657488116,0.961923310676,-0.0414332738975
2021/03/16/12:45:42.490373,380365,1615895142,488171101,mocap,-2.81056811523,10.3575214844,1.91789685059,0.135919826587,0.234112892431,0.961762756221,-0.0415854527953
2021/03/16/12:45:42.498603,380366,1615895142,498171091,mocap,-2.81147485352,10.3556015625,1.91719702148,0.136186133922,0.234342796855,0.961670766357,-0.0415466609076
2021/03/16/12:45:42.510643,380367,1615895142,508171082,mocap,-2.81234204102,10.3536572266,1.91660742187,0.136374737054,0.234581060868,0.961587662676,-0.0415068450854
2021/03/16/12:45:42.518887,380368,1615895142,518171072,mocap,-2.81318334961,10.3515605469,1.9160456543,0.136757787956,0.234772605735,0.961484675737,-0.0415493072761
2021/03/16/12:45:42.530482,380369,1615895142,528171062,mocap,-2.81405200195,10.3493417969,1.91551550293,0.137138618651,0.235073593923,0.96135808688,-0.0415214228474
2021/03/16/12:45:42.538407,380370,1615895142,538171053,mocap,-2.8148371582,10.34703125,1.91494091797,0.137403412275,0.23487204448,0.961371796634,-0.0414690678607
2021/03/16/12:45:42.550253,380371,1615895142,548171043,mocap,-2.81565527344,10.3445917969,1.91449487305,0.137409482942,0.235077274114,0.961332387345,-0.0411989319248
2021/03/16/12:45:42.558625,380372,1615895142,558171034,mocap,-2.81646362305,10.3420478516,1.91408203125,0.137312286075,0.235028286797,0.961367851903,-0.0409743095907
2021/03/16/12:45:42.570199,380373,1615895142,568171024,mocap,-2.81721044922,10.3394189453,1.91377758789,0.137094834512,0.234812143433,0.961451509285,-0.0409787631877
2021/03/16/12:45:42.578949,380374,1615895142,578171015,mocap,-2.81794042969,10.3367021484,1.91352490234,0.13703527721,0.234298306054,0.96158591158,-0.0409655088542
2021/03/16/12:45:42.590182,380375,1615895142,588171005,mocap,-2.81869506836,10.3337734375,1.9133347168,0.136847961069,0.233890653362,0.961723920745,-0.0406803488643
2021/03/16/12:45:42.598817,380376,1615895142,598170996,mocap,-2.81937524414,10.3307568359,1.9131965332,0.136307325579,0.23334531676,0.961942039122,-0.0404697503435
2021/03/16/12:45:42.610121,380377,1615895142,608170986,mocap,-2.81997021484,10.3276611328,1.91309436035,0.136054767108,0.232494716414,0.9621740774,-0.0406983302731
2021/03/16/12:45:42.618797,380378,1615895142,618170977,mocap,-2.82059960937,10.3244082031,1.91305444336,0.136026804077,0.231868266798,0.962322795025,-0.040849247182
2021/03/16/12:45:42.630033,380379,1615895142,628171206,mocap,-2.82116113281,10.3210595703,1.91304821777,0.135816085703,0.231073772417,0.962549772152,-0.040704339366
2021/03/16/12:45:42.638490,380380,1615895142,638171196,mocap,-2.82162695313,10.3176669922,1.91302636719,0.135411620903,0.230384690971,0.962763741202,-0.0408970161843
2021/03/16/12:45:42.650224,380381,1615895142,648171186,mocap,-2.82207202148,10.3140869141,1.9129263916,0.135483295976,0.229570593986,0.962923695459,-0.0414678146233
2021/03/16/12:45:42.658555,380382,1615895142,658171177,mocap,-2.82246875,10.3105107422,1.91283093262,0.135558156381,0.22856442431,0.963138896513,-0.0417822410425
2021/03/16/12:45:42.669894,380383,1615895142,668171167,mocap,-2.82277514648,10.3067978516,1.91256872559,0.135079308026,0.227782300967,0.963371404434,-0.0422414007782
2021/03/16/12:45:42.678857,380384,1615895142,678171158,mocap,-2.82306811523,10.3030322266,1.91234838867,0.134927820962,0.227134055997,0.963524692833,-0.0427173740601
2021/03/16/12:45:42.688995,380385,1615895142,688171148,mocap,-2.82333984375,10.29925,1.91210058594,0.135008559256,0.226675825401,0.963596062371,-0.0432825062737
2021/03/16/12:45:42.698402,380386,1615895142,698171139,mocap,-2.82354199219,10.2953603516,1.91172888184,0.135299842558,0.226211932663,0.963625211788,-0.0441424675831
2021/03/16/12:45:42.708884,380387,1615895142,708171129,mocap,-2.82371337891,10.2913583984,1.91130859375,0.135257856036,0.22599790396,0.96365068008,-0.0448065483495
2021/03/16/12:45:42.718841,380388,1615895142,718171120,mocap,-2.82388598633,10.2873652344,1.91092114258,0.135418949402,0.225972793205,0.963598018579,-0.0455727382401
2021/03/16/12:45:42.728638,380389,1615895142,728171110,mocap,-2.82397290039,10.2832011719,1.91033447266,0.135449852518,0.22601860464,0.963553256747,-0.0461958681607
2021/03/16/12:45:42.738990,380390,1615895142,738171101,mocap,-2.82406323242,10.2789941406,1.90978894043,0.13561666812,0.226195045524,0.963438485609,-0.0472250302603
2021/03/16/12:45:42.748603,380391,1615895142,748171091,mocap,-2.82411621094,10.2746679688,1.90913793945,0.135833902573,0.226582724057,0.963274471077,-0.0480803849422
2021/03/16/12:45:42.758873,380392,1615895142,758171082,mocap,-2.82411865234,10.2702792969,1.9084473877,0.135765387484,0.226662033856,0.963232006971,-0.0487461068975
2021/03/16/12:45:42.769097,380393,1615895142,768171072,mocap,-2.82413745117,10.2657988281,1.90778271484,0.13625055103,0.227152388857,0.962999341604,-0.0496974780992
2021/03/16/12:45:42.778467,380394,1615895142,778171062,mocap,-2.82411547852,10.2611904297,1.9069954834,0.136519178646,0.227630449832,0.962805405689,-0.050523761903
2021/03/16/12:45:42.789891,380395,1615895142,788171053,mocap,-2.82405419922,10.2564541016,1.90615039062,0.136699919235,0.228046210367,0.962640517059,-0.0512961641571
2021/03/16/12:45:42.798833,380396,1615895142,798171043,mocap,-2.8239753418,10.2515927734,1.90529370117,0.136998639963,0.228414024746,0.962463075066,-0.0521845186722
2021/03/16/12:45:42.808542,380397,1615895142,808171034,mocap,-2.82390161133,10.246703125,1.90448913574,0.137228561733,0.228796113045,0.962295270796,-0.0529951309268
2021/03/16/12:45:42.820035,380398,1615895142,818171024,mocap,-2.82381787109,10.2416503906,1.90362548828,0.137756828238,0.229294520441,0.962061387607,-0.0537118721645
2021/03/16/12:45:42.828428,380399,1615895142,828171015,mocap,-2.8237355957,10.2365146484,1.90286828613,0.137611352504,0.229804964817,0.961928476913,-0.0542808028057
2021/03/16/12:45:42.838613,380400,1615895142,838171005,mocap,-2.82366186523,10.2313222656,1.90228527832,0.137493229938,0.230918027451,0.961651412813,-0.0547634485658
2021/03/16/12:45:42.848409,380401,1615895142,848170996,mocap,-2.8234934082,10.2258720703,1.90128369141,0.138198284216,0.230475457711,0.961607699331,-0.0556141001642
2021/03/16/12:45:42.860684,380402,1615895142,858170986,mocap,-2.82336376953,10.2203642578,1.90052331543,0.138118408141,0.230958464088,0.961477786818,-0.0560531945164
2021/03/16/12:45:42.868392,380403,1615895142,868170977,mocap,-2.82326196289,10.2146962891,1.89971679687,0.138520565891,0.231278986326,0.961307772189,-0.0566521412247
2021/03/16/12:45:42.880632,380404,1615895142,878171206,mocap,-2.82312841797,10.209171875,1.89918664551,0.137657286639,0.232181479661,0.961218505959,-0.0565793179342
2021/03/16/12:45:42.888521,380405,1615895142,888171196,mocap,-2.82293432617,10.2033730469,1.89848327637,0.13759209642,0.232563773924,0.961111254606,-0.0569882449489
2021/03/16/12:45:42.900323,380406,1615895142,898171186,mocap,-2.82270092773,10.1974628906,1.89782519531,0.137663108433,0.232825433559,0.961026017059,-0.057185526623
2021/03/16/12:45:42.909048,380407,1615895142,908171177,mocap,-2.82244824219,10.1915400391,1.89719287109,0.137377108292,0.23320640375,0.960963171329,-0.0573767544248
2021/03/16/12:45:42.920527,380408,1615895142,918171167,mocap,-2.82217993164,10.1855419922,1.89664282227,0.13730629814,0.233434907549,0.960919380017,-0.0573504599333
2021/03/16/12:45:42.928942,380409,1615895142,928171158,mocap,-2.82182617188,10.1793984375,1.89616479492,0.137224397201,0.233641709458,0.960891931896,-0.0571639905532
2021/03/16/12:45:42.940400,380410,1615895142,938171148,mocap,-2.82142382812,10.17321875,1.89566674805,0.137337179569,0.233746559194,0.960849432282,-0.0571787521478
2021/03/16/12:45:42.948419,380411,1615895142,948171139,mocap,-2.82102319336,10.1669150391,1.89530126953,0.137399449759,0.233480886251,0.960915774588,-0.0569993864736
2021/03/16/12:45:42.960317,380412,1615895142,958171129,mocap,-2.82052734375,10.1605693359,1.89497485352,0.137452034312,0.23364810709,0.960883255335,-0.0567351187378
2021/03/16/12:45:42.968561,380413,1615895142,968171120,mocap,-2.82000097656,10.1541777344,1.89471264648,0.137750919036,0.233422529813,0.96090308182,-0.0566028170733
2021/03/16/12:45:42.980494,380414,1615895142,978171110,mocap,-2.81940185547,10.147734375,1.89447619629,0.138112342349,0.233585154732,0.960820795741,-0.0564478815065
2021/03/16/12:45:42.988781,380415,1615895142,988171101,mocap,-2.81876293945,10.1411855469,1.89431555176,0.137923841858,0.233629715041,0.960872539402,-0.0558402266024
2021/03/16/12:45:43.000667,380416,1615895142,998171091,mocap,-2.8180534668,10.1347109375,1.89427636719,0.137927803858,0.23385384911,0.960846423663,-0.0553393526504
2021/03/16/12:45:43.008626,380417,1615895143,8171082,mocap,-2.81729296875,10.1281523437,1.8943515625,0.138037536409,0.234031499005,0.960821330794,-0.054747313936
2021/03/16/12:45:43.019674,380418,1615895143,18171072,mocap,-2.81649121094,10.1215253906,1.89449353027,0.138634660403,0.234232034121,0.960706124712,-0.0544014920656
2021/03/16/12:45:43.028861,380419,1615895143,28171062,mocap,-2.81563793945,10.1148339844,1.89465429687,0.1388948487,0.23423645285,0.960686697446,-0.05406083075
2021/03/16/12:45:43.039222,380420,1615895143,38171053,mocap,-2.81478100586,10.1081513672,1.894984375,0.139269538588,0.234057353088,0.960696034991,-0.0537054502577
2021/03/16/12:45:43.048572,380421,1615895143,48171043,mocap,-2.81386865234,10.1014023437,1.89543676758,0.13939947286,0.234156578175,0.960673210582,-0.0533429166925
2021/03/16/12:45:43.058900,380422,1615895143,58171034,mocap,-2.81294165039,10.0946601563,1.89622509766,0.139146132092,0.234599382281,0.960646282822,-0.0525376885095
2021/03/16/12:45:43.070153,380423,1615895143,68171024,mocap,-2.81205859375,10.0879384766,1.89731616211,0.139205201777,0.235576042506,0.960445215928,-0.0516800951906
2021/03/16/12:45:43.078501,380424,1615895143,78171015,mocap,-2.81113598633,10.0811455078,1.89858557129,0.139566362822,0.235741571642,0.960382285644,-0.0511174492902
2021/03/16/12:45:43.089418,380425,1615895143,88171005,mocap,-2.81012451172,10.0741552734,1.89960461426,0.140182465263,0.234758567777,0.960550858473,-0.0507872322526
2021/03/16/12:45:43.099902,380426,1615895143,98170996,mocap,-2.80901171875,10.0672060547,1.9007442627,0.140514491936,0.234816627913,0.960505000532,-0.0504674981679
2021/03/16/12:45:43.109173,380427,1615895143,108170986,mocap,-2.80794604492,10.0603925781,1.90215283203,0.139961161879,0.2359136176,0.960360501123,-0.0496320093584
2021/03/16/12:45:43.119290,380428,1615895143,118170977,mocap,-2.80699609375,10.0537138672,1.9036550293,0.140156834065,0.236902998572,0.960130236144,-0.04881548486
2021/03/16/12:45:43.130120,380429,1615895143,128171206,mocap,-2.80603198242,10.0469628906,1.90515979004,0.140171290626,0.237910313998,0.959909571596,-0.0482110244865
2021/03/16/12:45:43.138686,380430,1615895143,138171196,mocap,-2.80496704102,10.0402050781,1.90669287109,0.140444197765,0.239003207425,0.959640076763,-0.0473688428198
2021/03/16/12:45:43.149990,380431,1615895143,148171186,mocap,-2.80395800781,10.0333828125,1.90818896484,0.140487150578,0.239553757934,0.959515348848,-0.04698570255
2021/03/16/12:45:43.158259,380432,1615895143,158171177,mocap,-2.80297924805,10.0265048828,1.90952685547,0.141178945812,0.239195051383,0.959516397115,-0.0467174523716
2021/03/16/12:45:43.168944,380433,1615895143,168171167,mocap,-2.80206689453,10.0196132813,1.9107755127,0.141631941623,0.239816723665,0.959324879222,-0.0460880114397
2021/03/16/12:45:43.179689,380434,1615895143,178171158,mocap,-2.80115478516,10.0128574219,1.91201477051,0.141770724341,0.24037277553,0.959199830692,-0.0453617095464
2021/03/16/12:45:43.188938,380435,1615895143,188171148,mocap,-2.80034179688,10.0062519531,1.91321936035,0.141408709248,0.241511040908,0.95901241378,-0.0443980789313
2021/03/16/12:45:43.198485,380436,1615895143,198171139,mocap,-2.79952246094,9.99945605469,1.91387072754,0.142462499464,0.241582521178,0.958840578878,-0.0443516164939
2021/03/16/12:45:43.208778,380437,1615895143,208171129,mocap,-2.79880102539,9.99279492187,1.9145715332,0.142052367366,0.242463292476,0.95871623655,-0.0435413928881
2021/03/16/12:45:43.218738,380438,1615895143,218171120,mocap,-2.79817333984,9.98622265625,1.91523205566,0.141572240784,0.244051617431,0.958424002394,-0.0426561035942
2021/03/16/12:45:43.228642,380439,1615895143,228171110,mocap,-2.79751757812,9.97954394531,1.91549450684,0.141968164515,0.244362484685,0.958321002003,-0.0418673996876
2021/03/16/12:45:43.240872,380440,1615895143,238171101,mocap,-2.79699267578,9.97290429688,1.91573266602,0.142274438754,0.245415210808,0.958043656763,-0.0410086327794
2021/03/16/12:45:43.248473,380441,1615895143,248171091,mocap,-2.79658105469,9.96631445312,1.91597058105,0.141460100974,0.246977304244,0.95782364719,-0.0395615741435
2021/03/16/12:45:43.258870,380442,1615895143,258171082,mocap,-2.79619213867,9.95980566406,1.91619287109,0.140549478898,0.248443802278,0.957632903332,-0.0382196250931
2021/03/16/12:45:43.268379,380443,1615895143,268171072,mocap,-2.79584008789,9.95318066406,1.91620141602,0.140474635048,0.249786585594,0.957344626676,-0.0369431506196
2021/03/16/12:45:43.280834,380444,1615895143,278171062,mocap,-2.79547290039,9.94648730469,1.91607531738,0.141110609967,0.250777170729,0.957013780084,-0.0363761731625
2021/03/16/12:45:43.288596,380445,1615895143,288171053,mocap,-2.79519189453,9.93968066406,1.91586962891,0.141249535535,0.251106328482,0.956945485534,-0.035348628033
2021/03/16/12:45:43.300767,380446,1615895143,298171043,mocap,-2.79506298828,9.93289257812,1.91601953125,0.140318039571,0.252096977465,0.956880199423,-0.0337380096084
2021/03/16/12:45:43.308515,380447,1615895143,308171034,mocap,-2.79490649414,9.92597363281,1.91605432129,0.140538115986,0.252538385261,0.956770592829,-0.0326101598767
2021/03/16/12:45:43.319373,380448,1615895143,318171024,mocap,-2.7947421875,9.91895898437,1.91615075684,0.140048252391,0.252478887987,0.956899236799,-0.031380657175
2021/03/16/12:45:43.330490,380449,1615895143,328171015,mocap,-2.79463354492,9.91189355469,1.91640234375,0.140166246326,0.252308925696,0.956955778299,-0.030483882112
2021/03/16/12:45:43.338607,380450,1615895143,338171005,mocap,-2.79456958008,9.90476660156,1.91684741211,0.13949788019,0.252347011813,0.957081945205,-0.0292486024335
2021/03/16/12:45:43.349302,380451,1615895143,348170996,mocap,-2.79451782227,9.89746679687,1.91717785645,0.139590302356,0.251213927586,0.957393476484,-0.0283521202543
2021/03/16/12:45:43.358461,380452,1615895143,358170986,mocap,-2.79442773438,9.88998925781,1.91745422363,0.140696486678,0.249064109744,0.957806378418,-0.0279017790869
2021/03/16/12:45:43.370255,380453,1615895143,368170977,mocap,-2.79437890625,9.88251855469,1.91785705566,0.141562728289,0.247327367439,0.958139198619,-0.0275399802085
2021/03/16/12:45:43.378525,380454,1615895143,378171206,mocap,-2.79437548828,9.87504394531,1.91834362793,0.141503175493,0.245572752619,0.958620208151,-0.0267987978652
2021/03/16/12:45:43.390408,380455,1615895143,388171196,mocap,-2.79441796875,9.867515625,1.918859375,0.141582308589,0.243833959485,0.959068426734,-0.0262145181716
2021/03/16/12:45:43.399101,380456,1615895143,398171186,mocap,-2.79457446289,9.85996777344,1.91934118652,0.142120095843,0.242233969132,0.959415470972,-0.0254270580553
2021/03/16/12:45:43.410419,380457,1615895143,408171177,mocap,-2.79471459961,9.85244628906,1.91981420898,0.142358972316,0.240310376655,0.959879944529,-0.0248060427953
2021/03/16/12:45:43.418589,380458,1615895143,418171167,mocap,-2.79484912109,9.84490722656,1.9202199707,0.142377520033,0.238686281177,0.960297192875,-0.0242239707605
2021/03/16/12:45:43.430280,380459,1615895143,428171158,mocap,-2.79509350586,9.83727441406,1.92053955078,0.142444161869,0.237217166746,0.960668487421,-0.0235316667356
2021/03/16/12:45:43.438646,380460,1615895143,438171148,mocap,-2.79540209961,9.82972558594,1.92083068848,0.142375343033,0.235545414044,0.961110649946,-0.0226702221912
2021/03/16/12:45:43.450140,380461,1615895143,448171139,mocap,-2.79574902344,9.822140625,1.92105090332,0.142396322692,0.234171865523,0.961456120111,-0.0221123045551
2021/03/16/12:45:43.458876,380462,1615895143,458171129,mocap,-2.79611743164,9.81457128906,1.92122949219,0.141981380523,0.232970329984,0.961823659609,-0.0214793849018
2021/03/16/12:45:43.468909,380463,1615895143,468171120,mocap,-2.79653979492,9.80692578125,1.92129760742,0.14194761361,0.231678194628,0.962155337984,-0.0208135986051
2021/03/16/12:45:43.480356,380464,1615895143,478171110,mocap,-2.79703369141,9.79930566406,1.92133886719,0.141892870557,0.23075173043,0.962402150209,-0.0200538675583
2021/03/16/12:45:43.489964,380465,1615895143,488171101,mocap,-2.79752368164,9.7917265625,1.92129492187,0.141229676939,0.229944768084,0.962704894006,-0.019464617349
2021/03/16/12:45:43.498847,380466,1615895143,498171091,mocap,-2.79807397461,9.78409375,1.92115539551,0.141005306752,0.229487296621,0.96286105097,-0.018753244724
2021/03/16/12:45:43.508905,380467,1615895143,508171082,mocap,-2.79864086914,9.77643164063,1.92093554688,0.140646483194,0.229132444464,0.963008045519,-0.0182314179202
2021/03/16/12:45:43.520211,380468,1615895143,518171072,mocap,-2.79924487305,9.76881542969,1.92068920898,0.14001881385,0.22905286,0.96312808964,-0.0177145199917
2021/03/16/12:45:43.528861,380469,1615895143,528171062,mocap,-2.79987231445,9.7611640625,1.92033850098,0.140013909076,0.228935343675,0.963163797499,-0.0173267605059
2021/03/16/12:45:43.539986,380470,1615895143,538171053,mocap,-2.80051757813,9.75343652344,1.91981811523,0.139614402557,0.229421912051,0.963115750936,-0.0167767499613
2021/03/16/12:45:43.548287,380471,1615895143,548171043,mocap,-2.80122900391,9.74570507813,1.9193449707,0.138912593341,0.229593127154,0.963178982221,-0.0166295625469
2021/03/16/12:45:43.559033,380472,1615895143,558171034,mocap,-2.80196630859,9.73791015625,1.91871728516,0.138983809388,0.22994867071,0.963090717193,-0.0162291432118
2021/03/16/12:45:43.568565,380473,1615895143,568171024,mocap,-2.80272753906,9.73006835938,1.91805700684,0.138201676813,0.230026796888,0.963187081157,-0.0160813902397
2021/03/16/12:45:43.580065,380474,1615895143,578171015,mocap,-2.80354223633,9.72207910156,1.9172265625,0.137843676181,0.230663179433,0.963086771766,-0.0160464770756
2021/03/16/12:45:43.588436,380475,1615895143,588171005,mocap,-2.80437915039,9.71411914062,1.91640405273,0.137399906065,0.23144641481,0.962969221579,-0.015623807877
2021/03/16/12:45:43.599715,380476,1615895143,598170996,mocap,-2.80522558594,9.70611425781,1.91548193359,0.136532975706,0.231928451552,0.962978150141,-0.0155247548945
2021/03/16/12:45:43.609936,380477,1615895143,608170986,mocap,-2.8061940918,9.69798925781,1.91448083496,0.136464397185,0.232662518146,0.962812648812,-0.0154088168532
2021/03/16/12:45:43.618796,380478,1615895143,618170977,mocap,-2.80709887695,9.68982617187,1.91337182617,0.135483351864,0.233254897308,0.962808748676,-0.0153535904759
2021/03/16/12:45:43.629648,380479,1615895143,628171206,mocap,-2.80809887695,9.68160644531,1.91219580078,0.135218104236,0.234288319336,0.962599085377,-0.0151010654632
2021/03/16/12:45:43.638534,380480,1615895143,638171196,mocap,-2.80910058594,9.6733515625,1.91098522949,0.134560698597,0.234941337314,0.962529840255,-0.0152410979628
2021/03/16/12:45:43.648736,380481,1615895143,648171186,mocap,-2.81013964844,9.66497558594,1.90964282227,0.13399882616,0.23555159088,0.962461588762,-0.0150815155776
2021/03/16/12:45:43.658782,380482,1615895143,658171177,mocap,-2.81121899414,9.65651855469,1.90832800293,0.133199761099,0.236342388987,0.962377392094,-0.0151606725514
2021/03/16/12:45:43.668817,380483,1615895143,668171167,mocap,-2.81227539062,9.64805371094,1.90693994141,0.133007682849,0.236954438422,0.962253057706,-0.0151856703369
2021/03/16/12:45:43.678822,380484,1615895143,678171158,mocap,-2.81344018555,9.63951074219,1.90556066895,0.132316854681,0.237561462656,0.962194690337,-0.0154331397602
2021/03/16/12:45:43.689475,380485,1615895143,688171148,mocap,-2.81458300781,9.63092871094,1.90424291992,0.131714249084,0.23850472019,0.962040725347,-0.0156367068198
2021/03/16/12:45:43.698449,380486,1615895143,698171139,mocap,-2.81579345703,9.6221953125,1.90300134277,0.131416660942,0.238934048514,0.961964043418,-0.0162902684446
2021/03/16/12:45:43.709694,380487,1615895143,708171129,mocap,-2.81696801758,9.61345507812,1.90187536621,0.130902999881,0.239448217211,0.961895039172,-0.0169376595696
2021/03/16/12:45:43.719037,380488,1615895143,718171120,mocap,-2.81816674805,9.6046796875,1.90093615723,0.130541794595,0.239850669949,0.9618345586,-0.0174578921536
2021/03/16/12:45:43.730631,380489,1615895143,728171110,mocap,-2.81937646484,9.59573046875,1.90003588867,0.130467076483,0.240424089057,0.961682782713,-0.0184612299009
2021/03/16/12:45:43.738530,380490,1615895143,738171101,mocap,-2.82061523437,9.58674902344,1.89935205078,0.130537560975,0.240819990418,0.961554174341,-0.0194742584022
2021/03/16/12:45:43.750567,380491,1615895143,748171091,mocap,-2.82178198242,9.57778027344,1.89875524902,0.130597264919,0.241439535431,0.961363527405,-0.0207716194196
2021/03/16/12:45:43.758512,380492,1615895143,758171082,mocap,-2.82304199219,9.56876464844,1.89826623535,0.130995983695,0.241794120913,0.961192329857,-0.0220219641368
2021/03/16/12:45:43.770521,380493,1615895143,768171072,mocap,-2.82420410156,9.55968652344,1.89784594727,0.131598534901,0.242899073757,0.960790692722,-0.0237298531364
2021/03/16/12:45:43.778799,380494,1615895143,778171062,mocap,-2.82548925781,9.55056445313,1.89748339844,0.132121069987,0.243658479953,0.960492853086,-0.0250609696481
2021/03/16/12:45:43.790498,380495,1615895143,788171053,mocap,-2.82671948242,9.54147851563,1.8973001709,0.132834531977,0.244327629936,0.960174963562,-0.0268894203089
2021/03/16/12:45:43.798360,380496,1615895143,798171043,mocap,-2.82800170898,9.53231640625,1.89732067871,0.133202744789,0.245193519793,0.959864948243,-0.0282215424291
2021/03/16/12:45:43.809685,380497,1615895143,808171034,mocap,-2.82935791016,9.52314453125,1.89771960449,0.133221958629,0.246391888823,0.959513182427,-0.0296209141741
2021/03/16/12:45:43.818650,380498,1615895143,818171024,mocap,-2.83073852539,9.51390820313,1.89853259277,0.13413691705,0.247597021655,0.959025294719,-0.0312007536964
2021/03/16/12:45:43.830362,380499,1615895143,828171015,mocap,-2.83212768555,9.50465332031,1.89966088867,0.134544766254,0.248430097675,0.958696325981,-0.0328868995114
2021/03/16/12:45:43.838471,380500,1615895143,838171005,mocap,-2.83348022461,9.49534277344,1.90103942871,0.134886628663,0.249511731375,0.958315567529,-0.0343622344592
2021/03/16/12:45:43.850279,380501,1615895143,848170996,mocap,-2.83476147461,9.4858828125,1.90238842773,0.135615035135,0.249489799485,0.95815534943,-0.0360794214266
2021/03/16/12:45:43.858589,380502,1615895143,858170986,mocap,-2.83607543945,9.47640625,1.9038223877,0.136662098305,0.249422772423,0.957946363183,-0.038085709456
2021/03/16/12:45:43.870289,380503,1615895143,868170977,mocap,-2.83737182617,9.46692871094,1.90529345703,0.13754203296,0.249144528121,0.957826828655,-0.0397108597696
2021/03/16/12:45:43.878673,380504,1615895143,878171206,mocap,-2.83872827148,9.45755175781,1.90681115723,0.138258143832,0.249038693451,0.957671881368,-0.0415810624167
2021/03/16/12:45:43.890162,380505,1615895143,888171196,mocap,-2.8400456543,9.44815917969,1.90825830078,0.138814805084,0.248318437868,0.957704470767,-0.0432498143257
2021/03/16/12:45:43.898648,380506,1615895143,898171186,mocap,-2.84134448242,9.43870605469,1.90959521484,0.139588281342,0.247806335429,0.95764395116,-0.0450022267383
2021/03/16/12:45:43.910035,380507,1615895143,908171177,mocap,-2.84257006836,9.42952734375,1.91076147461,0.139615309659,0.246839033044,0.957786301135,-0.0471534551699
2021/03/16/12:45:43.918683,380508,1615895143,918171167,mocap,-2.84386791992,9.42020898437,1.91196362305,0.140168927857,0.245873056017,0.957871578069,-0.0487970820424
2021/03/16/12:45:43.929949,380509,1615895143,928171158,mocap,-2.845140625,9.41097363281,1.91297790527,0.13986535047,0.245046023102,0.958053463345,-0.0502363505871
2021/03/16/12:45:43.938208,380510,1615895143,938171148,mocap,-2.84639868164,9.40173242187,1.91383129883,0.139857397742,0.244525973356,0.958138413233,-0.0511638884518
2021/03/16/12:45:43.950079,380511,1615895143,948171139,mocap,-2.84763916016,9.39266796875,1.91464794922,0.139559791501,0.244251241154,0.958175698909,-0.0525712657325
2021/03/16/12:45:43.958454,380512,1615895143,958171129,mocap,-2.84886230469,9.3836796875,1.91533154297,0.139060434695,0.244351189422,0.958181103073,-0.0533261465752
2021/03/16/12:45:43.970003,380513,1615895143,968171120,mocap,-2.85010717773,9.37478515625,1.91596520996,0.1377661586,0.244799238896,0.958215727881,-0.0540040370395
2021/03/16/12:45:43.978537,380514,1615895143,978171110,mocap,-2.8512565918,9.36592675781,1.91649890137,0.137189418297,0.245749637705,0.958015589629,-0.054702021129
2021/03/16/12:45:43.990093,380515,1615895143,988171101,mocap,-2.85243383789,9.35723046875,1.91700622559,0.13619247589,0.24674553281,0.957859513901,-0.0554383544198
2021/03/16/12:45:43.998672,380516,1615895143,998171091,mocap,-2.85349316406,9.34852539062,1.91744567871,0.135195473499,0.248166581217,0.957609803624,-0.0558480070621
2021/03/16/12:45:44.009941,380517,1615895144,8171082,mocap,-2.85454589844,9.33986035156,1.91794848633,0.13417432604,0.249713542933,0.957330228854,-0.0562070623378
2021/03/16/12:45:44.018621,380518,1615895144,18171072,mocap,-2.85550341797,9.33120410156,1.91839648438,0.133283308027,0.251300192151,0.957004554532,-0.0567984104857
2021/03/16/12:45:44.029696,380519,1615895144,28171062,mocap,-2.85638134766,9.32255859375,1.91892834473,0.13217353899,0.252812962486,0.956741475981,-0.0571095780119
2021/03/16/12:45:44.038394,380520,1615895144,38171053,mocap,-2.8572097168,9.31383886719,1.91948400879,0.131513729372,0.254187717887,0.956430581439,-0.0577344432921
2021/03/16/12:45:44.049584,380521,1615895144,48171043,mocap,-2.8579909668,9.30509472656,1.92020043945,0.129719830525,0.255151648444,0.956432458824,-0.0575096029497
2021/03/16/12:45:44.058459,380522,1615895144,58171034,mocap,-2.85852880859,9.29621972656,1.92072131348,0.129812540884,0.25554126511,0.956242123116,-0.0587227732741
2021/03/16/12:45:44.069753,380523,1615895144,68171024,mocap,-2.85905371094,9.28728808594,1.9214152832,0.129459952452,0.255665319903,0.956220244275,-0.0593146176315
2021/03/16/12:45:44.078449,380524,1615895144,78171015,mocap,-2.85947802734,9.2782734375,1.9221262207,0.129022102315,0.255175852511,0.956362556864,-0.0600770060071
2021/03/16/12:45:44.089777,380525,1615895144,88171005,mocap,-2.85981762695,9.26924316406,1.92284838867,0.128712554514,0.25419054994,0.956621409263,-0.0607924456641
2021/03/16/12:45:44.098405,380526,1615895144,98170996,mocap,-2.86009301758,9.260078125,1.92344763184,0.128770368142,0.253369087763,0.956803376453,-0.061233967728
2021/03/16/12:45:44.109738,380527,1615895144,108170986,mocap,-2.86028466797,9.25090332031,1.92411584473,0.12838168343,0.251832756237,0.957210018044,-0.0620273014132
2021/03/16/12:45:44.118462,380528,1615895144,118170977,mocap,-2.86038232422,9.24172363281,1.92475280762,0.128410202069,0.249988885859,0.957636163233,-0.0628438527445
2021/03/16/12:45:44.130552,380529,1615895144,128171206,mocap,-2.86038647461,9.23245507812,1.92530578613,0.128555007009,0.248407749552,0.957981813099,-0.063545606168
2021/03/16/12:45:44.138600,380530,1615895144,138171196,mocap,-2.86027197266,9.22320703125,1.92576916504,0.128432598738,0.246009615753,0.958575128376,-0.0641721172357
2021/03/16/12:45:44.149482,380531,1615895144,148171186,mocap,-2.86018676758,9.21395898437,1.92625683594,0.12904702735,0.244271495846,0.958877689619,-0.0650529531083
2021/03/16/12:45:44.160613,380532,1615895144,158171177,mocap,-2.85999584961,9.20469335937,1.9266619873,0.129200162878,0.242325605783,0.95931917084,-0.0655159843745
2021/03/16/12:45:44.168334,380533,1615895144,168171167,mocap,-2.85978466797,9.19539941406,1.92691064453,0.12983308089,0.240513488945,0.959657630853,-0.065983884984
2021/03/16/12:45:44.180321,380534,1615895144,178171158,mocap,-2.85951782227,9.1861953125,1.92710510254,0.130333994491,0.239027958251,0.95991780678,-0.0666069801589
2021/03/16/12:45:44.188708,380535,1615895144,188171148,mocap,-2.85922998047,9.1769765625,1.92709899902,0.131137882089,0.237638086957,0.960110820506,-0.0672175991371
2021/03/16/12:45:44.199008,380536,1615895144,198171139,mocap,-2.85890893555,9.16783007813,1.9270098877,0.131620870014,0.236833270527,0.960221644224,-0.0675302993755
2021/03/16/12:45:44.210413,380537,1615895144,208171129,mocap,-2.85859619141,9.15869335938,1.92673352051,0.132211556064,0.235911549406,0.960343402101,-0.0678703717458
2021/03/16/12:45:44.218729,380538,1615895144,218171120,mocap,-2.85827392578,9.14966699219,1.92634094238,0.132916478456,0.235752858741,0.960268958843,-0.0680978796568
2021/03/16/12:45:44.230263,380539,1615895144,228171110,mocap,-2.85797119141,9.14063867187,1.92573498535,0.133278564044,0.235524624072,0.960259849912,-0.068307999044
2021/03/16/12:45:44.238417,380540,1615895144,238171101,mocap,-2.85768920898,9.13164746094,1.92501672363,0.133785845908,0.235848618735,0.960110657543,-0.0682956745437
2021/03/16/12:45:44.250500,380541,1615895144,248171091,mocap,-2.85736572266,9.12265039062,1.92406347656,0.134105090153,0.236280371805,0.959949481698,-0.0684426831416
2021/03/16/12:45:44.258508,380542,1615895144,258171082,mocap,-2.85704418945,9.11368359375,1.92305236816,0.134144700737,0.237181445593,0.959733286007,-0.0682801417632
2021/03/16/12:45:44.270180,380543,1615895144,268171072,mocap,-2.85668847656,9.10468554688,1.92183703613,0.13423441252,0.237759427653,0.959589803984,-0.068110113821
2021/03/16/12:45:44.278530,380544,1615895144,278171062,mocap,-2.85637402344,9.09565820312,1.9205111084,0.134546830494,0.238317650992,0.959398479361,-0.0682378666319
2021/03/16/12:45:44.289968,380545,1615895144,288171053,mocap,-2.85597827148,9.086578125,1.91903894043,0.134351428534,0.239346303278,0.959192381635,-0.0679192072562
2021/03/16/12:45:44.298785,380546,1615895144,298171043,mocap,-2.85562841797,9.07755859375,1.91752661133,0.134801716034,0.23991753788,0.959004776809,-0.067660226663
2021/03/16/12:45:44.309971,380547,1615895144,308171034,mocap,-2.85519458008,9.06841699219,1.91589672852,0.135061125578,0.240709840965,0.958775429581,-0.0675791971796
2021/03/16/12:45:44.318706,380548,1615895144,318171024,mocap,-2.85475390625,9.05923925781,1.91415539551,0.134703644297,0.241365815597,0.958692953111,-0.0671215417936
2021/03/16/12:45:44.330030,380549,1615895144,328171015,mocap,-2.85428442383,9.05009277344,1.91238781738,0.135032021011,0.242024678304,0.958471452393,-0.0672524106738
2021/03/16/12:45:44.338489,380550,1615895144,338171005,mocap,-2.85381567383,9.040859375,1.91055957031,0.134911612593,0.242855411018,0.958312115573,-0.0667681251576
2021/03/16/12:45:44.349294,380551,1615895144,348170996,mocap,-2.85326245117,9.03166796875,1.90870532227,0.134892677711,0.243905488804,0.958054311015,-0.0666784145734
2021/03/16/12:45:44.358653,380552,1615895144,358170986,mocap,-2.85272949219,9.02238964844,1.90690185547,0.134480163609,0.244597953179,0.957970559176,-0.066176516653
2021/03/16/12:45:44.369003,380553,1615895144,368170977,mocap,-2.85213916016,9.01312304688,1.9051817627,0.134471607341,0.245974085032,0.95763602319,-0.0659346988901
2021/03/16/12:45:44.378521,380554,1615895144,378171206,mocap,-2.85150341797,9.00379882812,1.90358459473,0.134152654335,0.246663965012,0.957522285765,-0.0656583775373
2021/03/16/12:45:44.390016,380555,1615895144,388171196,mocap,-2.85083056641,8.99433007812,1.90206115723,0.133545601378,0.247573529552,0.957411056202,-0.0650920902438
2021/03/16/12:45:44.398722,380556,1615895144,398171186,mocap,-2.85010717773,8.98487597656,1.90074963379,0.133647008271,0.248117900311,0.957272580918,-0.0648474403993
2021/03/16/12:45:44.408543,380557,1615895144,408171177,mocap,-2.84932885742,8.97532617188,1.8995802002,0.133310813563,0.24844985767,0.95726004999,-0.0644522227909
2021/03/16/12:45:44.418617,380558,1615895144,418171167,mocap,-2.84850244141,8.96563085938,1.8985012207,0.132904596432,0.248535854549,0.95732111531,-0.0640513971005
2021/03/16/12:45:44.428840,380559,1615895144,428171158,mocap,-2.84756567383,8.95602148438,1.89755822754,0.132738508883,0.248724837229,0.957305230607,-0.0638995119582
2021/03/16/12:45:44.439851,380560,1615895144,438171148,mocap,-2.84659912109,8.94636621094,1.89681762695,0.132346261878,0.249138496463,0.957272425255,-0.0635922968548
2021/03/16/12:45:44.449624,380561,1615895144,448171139,mocap,-2.84564355469,8.93672558594,1.89624719238,0.132005594909,0.249643156973,0.95721436909,-0.0631939203354
2021/03/16/12:45:44.458544,380562,1615895144,458171129,mocap,-2.84461108398,8.92712597656,1.89597521973,0.131569239437,0.250494768104,0.95707089089,-0.0629064661571
2021/03/16/12:45:44.469655,380563,1615895144,468171120,mocap,-2.84359448242,8.91749609375,1.89609924316,0.130809318071,0.251770399262,0.95686894033,-0.062469362802
2021/03/16/12:45:44.478565,380564,1615895144,478171110,mocap,-2.84258691406,8.90786230469,1.89656396484,0.130341158402,0.253072782537,0.956636728985,-0.0617374574249
2021/03/16/12:45:44.488585,380565,1615895144,488171101,mocap,-2.84150952148,8.89817675781,1.89722351074,0.130181572667,0.254094176272,0.95640184375,-0.0615176987938
2021/03/16/12:45:44.499658,380566,1615895144,498171091,mocap,-2.84028564453,8.88835839844,1.89805200195,0.129513530075,0.25480344664,0.956331775946,-0.0610818549612
2021/03/16/12:45:44.508298,380567,1615895144,508171082,mocap,-2.83904101562,8.87854296875,1.8990645752,0.129708401445,0.255245955121,0.956206437284,-0.0607821979301
2021/03/16/12:45:44.519541,380568,1615895144,518171072,mocap,-2.83781469727,8.86875195313,1.90027685547,0.129798981653,0.255941304031,0.956016695633,-0.0606493819336
2021/03/16/12:45:44.530662,380569,1615895144,528171062,mocap,-2.83665673828,8.85887890625,1.90161938477,0.130014551781,0.256485200231,0.955882585912,-0.0600001932248
2021/03/16/12:45:44.538663,380570,1615895144,538171053,mocap,-2.83531689453,8.84905761719,1.9030246582,0.130265814856,0.255756761431,0.956024021362,-0.0603105399667
2021/03/16/12:45:44.550478,380571,1615895144,548171043,mocap,-2.83397998047,8.8391171875,1.9044407959,0.130710993091,0.255141164028,0.956124814572,-0.0603569703092
2021/03/16/12:45:44.558451,380572,1615895144,558171034,mocap,-2.83271728516,8.82923535156,1.90598498535,0.131351748532,0.253768273293,0.956376268116,-0.0607684411
2021/03/16/12:45:44.570376,380573,1615895144,568171024,mocap,-2.83154077148,8.81925097656,1.90741162109,0.132399945302,0.252140087528,0.956654127905,-0.0608975472269
2021/03/16/12:45:44.578595,380574,1615895144,578171015,mocap,-2.83034765625,8.80937011719,1.90885925293,0.133263806759,0.250451021157,0.956969940402,-0.0610210857193
2021/03/16/12:45:44.590295,380575,1615895144,588171005,mocap,-2.82923730469,8.79951367187,1.91013769531,0.134104350338,0.248522415445,0.95735621482,-0.0610057172752
2021/03/16/12:45:44.598766,380576,1615895144,598170996,mocap,-2.82822021484,8.78980078125,1.91130126953,0.134863284257,0.246243887475,0.957828088792,-0.0611652715317
2021/03/16/12:45:44.610418,380577,1615895144,608170986,mocap,-2.82734545898,8.78026757813,1.91245288086,0.135437027858,0.244884351419,0.958085044369,-0.0613312356496
2021/03/16/12:45:44.618637,380578,1615895144,618170977,mocap,-2.82655395508,8.77084277344,1.91353637695,0.136231206666,0.243785649056,0.958270963249,-0.0610440578298
2021/03/16/12:45:44.630068,380579,1615895144,628171206,mocap,-2.82592895508,8.7616171875,1.9145723877,0.136322751451,0.243053541159,0.958471149231,-0.0606146606949
2021/03/16/12:45:44.638629,380580,1615895144,638171196,mocap,-2.82542797852,8.752546875,1.91560766602,0.136294483462,0.24275930038,0.958583732559,-0.0600747016475
2021/03/16/12:45:44.650147,380581,1615895144,648171186,mocap,-2.82500219727,8.74355078125,1.91666699219,0.136589098515,0.242659264951,0.95858979508,-0.0597118462503
2021/03/16/12:45:44.658531,380582,1615895144,658171177,mocap,-2.82470678711,8.7347109375,1.91774060059,0.136879910393,0.242332474207,0.958668651002,-0.0591040081182
2021/03/16/12:45:44.670463,380583,1615895144,668171167,mocap,-2.82448266602,8.72589355469,1.91880505371,0.1366209647,0.242221754678,0.958781762871,-0.058316990259
2021/03/16/12:45:44.678656,380584,1615895144,678171158,mocap,-2.82432299805,8.71718554687,1.9199276123,0.13648856814,0.242477575442,0.958772593186,-0.0577115104925
2021/03/16/12:45:44.690174,380585,1615895144,688171148,mocap,-2.82429516602,8.70855175781,1.9209786377,0.136842576584,0.242635997774,0.958722158349,-0.0570412402061
2021/03/16/12:45:44.698471,380586,1615895144,698171139,mocap,-2.82433276367,8.70006445312,1.92206958008,0.136547135833,0.242867888585,0.958739977925,-0.056459903884
2021/03/16/12:45:44.710138,380587,1615895144,708171129,mocap,-2.82440258789,8.69151855469,1.92303100586,0.136817235114,0.243396823265,0.958606567857,-0.0557895794515
2021/03/16/12:45:44.718862,380588,1615895144,718171120,mocap,-2.8245847168,8.68312695313,1.92412402344,0.136516088196,0.243767598645,0.95860122827,-0.0549944760739
2021/03/16/12:45:44.730101,380589,1615895144,728171110,mocap,-2.82483154297,8.67471191406,1.92515344238,0.136541471929,0.244215139631,0.95851460933,-0.0544530053533
2021/03/16/12:45:44.738605,380590,1615895144,738171101,mocap,-2.82520800781,8.66636523438,1.92616186523,0.136457432616,0.244400660662,0.958499055334,-0.0541040368553
2021/03/16/12:45:44.749614,380591,1615895144,748171091,mocap,-2.82551831055,8.65798828125,1.9270435791,0.136557375718,0.244488677632,0.958481954197,-0.05375599012
2021/03/16/12:45:44.758385,380592,1615895144,758171082,mocap,-2.82595703125,8.64968945312,1.92794116211,0.135992223342,0.244369090577,0.958619835086,-0.0532716040841
2021/03/16/12:45:44.769860,380593,1615895144,768171072,mocap,-2.82650976563,8.64135253906,1.9286842041,0.135222071991,0.244654973301,0.958705325422,-0.0523739945607
2021/03/16/12:45:44.778581,380594,1615895144,778171062,mocap,-2.82705908203,8.63309570313,1.92939257813,0.134596876012,0.244576106862,0.958836779142,-0.0519445415067
2021/03/16/12:45:44.789525,380595,1615895144,788171053,mocap,-2.82763842773,8.62477441406,1.93012756348,0.134104861087,0.244050995182,0.959072862571,-0.0513247049955
2021/03/16/12:45:44.798901,380596,1615895144,798171043,mocap,-2.82823632813,8.61648632812,1.93079101563,0.133839096163,0.243377395158,0.959317244739,-0.0506454752212
2021/03/16/12:45:44.808519,380597,1615895144,808171034,mocap,-2.82890771484,8.60822753906,1.93138012695,0.132923288184,0.242742563261,0.959643523942,-0.049917516872
2021/03/16/12:45:44.820601,380598,1615895144,818171024,mocap,-2.82958959961,8.59992773437,1.93190759277,0.132242221276,0.242095670169,0.959926336835,-0.0494277880855
2021/03/16/12:45:44.828483,380599,1615895144,828171015,mocap,-2.83026196289,8.59170214844,1.93246826172,0.131748374175,0.241148737489,0.960272621012,-0.0486429460714
2021/03/16/12:45:44.838563,380600,1615895144,838171005,mocap,-2.83092919922,8.58343261719,1.93283154297,0.130646392973,0.240441159374,0.960646872262,-0.0477195501547
2021/03/16/12:45:44.850565,380601,1615895144,848170996,mocap,-2.83172241211,8.57528613281,1.93316235352,0.129675730613,0.239687270023,0.960990896525,-0.047230523855
2021/03/16/12:45:44.858530,380602,1615895144,858170986,mocap,-2.83239453125,8.56710351562,1.93337573242,0.129673565492,0.238842162911,0.961243030389,-0.0463791579913
2021/03/16/12:45:44.870494,380603,1615895144,868170977,mocap,-2.83311083984,8.55894042969,1.93349182129,0.12890921582,0.238290228519,0.961511308809,-0.0457842430418
2021/03/16/12:45:44.878438,380604,1615895144,878171206,mocap,-2.83383300781,8.55086523437,1.9335447998,0.12817797142,0.237503262828,0.961826091946,-0.0453121578203
2021/03/16/12:45:44.890610,380605,1615895144,888171196,mocap,-2.83458251953,8.54277050781,1.93344848633,0.127572696106,0.23727252455,0.962007430914,-0.0443696847719
2021/03/16/12:45:44.898532,380606,1615895144,898171186,mocap,-2.83528686523,8.53466601562,1.93321679688,0.126879707535,0.236972779042,0.962205182477,-0.043664935522
2021/03/16/12:45:44.909733,380607,1615895144,908171177,mocap,-2.83605981445,8.52663476562,1.93289160156,0.126744164014,0.236439716253,0.962373497936,-0.0432370007095
2021/03/16/12:45:44.920641,380608,1615895144,918171167,mocap,-2.83677636719,8.51855859375,1.93244799805,0.125570115165,0.236131205415,0.962641809594,-0.0423667158514
2021/03/16/12:45:44.928867,380609,1615895144,928171158,mocap,-2.83753125,8.51056640625,1.93187976074,0.125143158643,0.235705761597,0.962828713491,-0.0417473956882
2021/03/16/12:45:44.940092,380610,1615895144,938171148,mocap,-2.83834448242,8.50256640625,1.93120080566,0.125063580913,0.235889411279,0.962816812034,-0.0412196981604
2021/03/16/12:45:44.948477,380611,1615895144,948171139,mocap,-2.83913671875,8.49448828125,1.93037878418,0.124275573989,0.235699104671,0.962988355215,-0.0406808984379
2021/03/16/12:45:44.960310,380612,1615895144,958171129,mocap,-2.83990429687,8.48648046875,1.92938256836,0.124057849589,0.235708859334,0.963030149244,-0.0402979887879
2021/03/16/12:45:44.968587,380613,1615895144,968171120,mocap,-2.84071948242,8.47841992188,1.92823291016,0.123738303448,0.23586761504,0.963051594865,-0.0398363628736
2021/03/16/12:45:44.979554,380614,1615895144,978171110,mocap,-2.84158691406,8.47033886719,1.92701550293,0.123325476914,0.235961669926,0.963099103105,-0.039408585433
