time,.header.seq,.header.stamp.secs,.header.stamp.nsecs,.header.frame_id,.pose.position.x,.pose.position.y,.pose.position.z,.pose.orientation.x,.pose.orientation.y,.pose.orientation.z,.pose.orientation.w
2021/03/16/12:35:16.828755,338032,1615894516,828171015,mocap,-2.80227563477,10.3680185547,1.93419262695,0.136064995307,0.230752197082,0.944414689766,-0.190579731589
2021/03/16/12:35:16.840453,338033,1615894516,838171005,mocap,-2.80216625977,10.3683261719,1.93427563477,0.135584389809,0.232227556394,0.94400693257,-0.191149555497
2021/03/16/12:35:16.850316,338034,1615894516,848170996,mocap,-2.80208740234,10.3686816406,1.93433374023,0.135451159339,0.233435375059,0.943666262101,-0.191454711976
2021/03/16/12:35:16.860439,338035,1615894516,858170986,mocap,-2.80200634766,10.3690517578,1.93442858887,0.135381698187,0.234642334966,0.943252502137,-0.192066366734
2021/03/16/12:35:16.868929,338036,1615894516,868170977,mocap,-2.80189794922,10.3693251953,1.93444299316,0.134976002249,0.235809965366,0.942924209592,-0.192533278015
2021/03/16/12:35:16.880185,338037,1615894516,878171206,mocap,-2.80175732422,10.3695878906,1.93447229004,0.134614741148,0.2369247505,0.942580650001,-0.193099070989
2021/03/16/12:35:16.889050,338038,1615894516,888170004,mocap,-2.80161035156,10.3698710937,1.9344375,0.134473078786,0.237957959777,0.942230117365,-0.193637318029
2021/03/16/12:35:16.901147,338039,1615894516,898169994,mocap,-2.80142163086,10.3701669922,1.93446337891,0.134308796733,0.238985686746,0.941874075233,-0.194216906559
2021/03/16/12:35:16.909091,338040,1615894516,908171177,mocap,-2.80124682617,10.3703642578,1.93440197754,0.134011306973,0.239853284789,0.941574271629,-0.194805698022
2021/03/16/12:35:16.918932,338041,1615894516,918171167,mocap,-2.80105322266,10.3705703125,1.93434729004,0.133806501757,0.24071799675,0.941280269503,-0.195300092684
2021/03/16/12:35:16.931151,338042,1615894516,928171158,mocap,-2.80088085937,10.3708271484,1.93438708496,0.133884501387,0.241221008352,0.941004766431,-0.195952515494
2021/03/16/12:35:16.939212,338043,1615894516,938171148,mocap,-2.80076293945,10.3710761719,1.93454260254,0.135366030957,0.241590672565,0.940521156561,-0.196799249072
2021/03/16/12:35:16.950999,338044,1615894516,948171139,mocap,-2.80055493164,10.3710722656,1.93428100586,0.13366611819,0.241869446654,0.940693969669,-0.196792772828
2021/03/16/12:35:16.958745,338045,1615894516,958171129,mocap,-2.80036572266,10.3711904297,1.93425842285,0.133435284467,0.242146403817,0.94057587847,-0.197172893297
2021/03/16/12:35:16.970967,338046,1615894516,968170166,mocap,-2.80018188477,10.37134375,1.93422363281,0.13349852874,0.242214939398,0.94046040264,-0.19759632246
2021/03/16/12:35:16.979352,338047,1615894516,978170156,mocap,-2.80011645508,10.3715185547,1.93443347168,0.134721053967,0.242115736966,0.940185015928,-0.19819773156
2021/03/16/12:35:16.990834,338048,1615894516,988171101,mocap,-2.79999707031,10.3715546875,1.93442248535,0.134497988092,0.242043023612,0.94020809205,-0.198328564412
2021/03/16/12:35:16.999153,338049,1615894516,998171091,mocap,-2.79980688477,10.3715175781,1.93420007324,0.132760102818,0.241841432488,0.940562451776,-0.198064981279
2021/03/16/12:35:17.011136,338050,1615894517,8171082,mocap,-2.79970532227,10.3715830078,1.93421557617,0.13240312367,0.241539455636,0.940720834951,-0.197920254309
2021/03/16/12:35:17.019246,338051,1615894517,18171072,mocap,-2.79970043945,10.3716933594,1.9344864502,0.133543114933,0.241065860338,0.94062931402,-0.198166546695
2021/03/16/12:35:17.030916,338052,1615894517,28171062,mocap,-2.79956713867,10.3715878906,1.93430761719,0.13140213119,0.240460385294,0.941180831387,-0.197714222938
2021/03/16/12:35:17.039127,338053,1615894517,38171053,mocap,-2.79957543945,10.3717363281,1.93450830078,0.132760371189,0.239944653365,0.941076775033,-0.197928651663
2021/03/16/12:35:17.050694,338054,1615894517,48171043,mocap,-2.79946044922,10.3717138672,1.93430273438,0.130627806584,0.239520535788,0.941596807291,-0.197387280524
2021/03/16/12:35:17.059071,338055,1615894517,58170080,mocap,-2.79952709961,10.371859375,1.9345012207,0.13175094493,0.239175290377,0.941476463137,-0.197633351792
2021/03/16/12:35:17.069851,338056,1615894517,68170071,mocap,-2.79956616211,10.3719736328,1.93453393555,0.131158964829,0.239042281256,0.94162920136,-0.197460302717
2021/03/16/12:35:17.079063,338057,1615894517,78171015,mocap,-2.79962133789,10.3721621094,1.93456311035,0.130253465181,0.239186299533,0.941794714971,-0.197095567511
2021/03/16/12:35:17.090860,338058,1615894517,88171005,mocap,-2.79953930664,10.3723222656,1.9343449707,0.127706765039,0.239873617724,0.942240064809,-0.195793984131
2021/03/16/12:35:17.099239,338059,1615894517,98170996,mocap,-2.79990209961,10.3726113281,1.93472155762,0.127994369804,0.240397040398,0.941913096323,-0.196536084646
2021/03/16/12:35:17.110576,338060,1615894517,108170986,mocap,-2.80007641602,10.3729130859,1.93480786133,0.127002622569,0.241255563709,0.941906649609,-0.196157989971
2021/03/16/12:35:17.119263,338061,1615894517,118170977,mocap,-2.8000222168,10.3730703125,1.93439440918,0.122821405665,0.242395226758,0.942502005357,-0.194549304707
2021/03/16/12:35:17.130631,338062,1615894517,128171206,mocap,-2.80020532227,10.3734365234,1.93450915527,0.121846969429,0.243437548851,0.942430564184,-0.194206374628
2021/03/16/12:35:17.139035,338063,1615894517,138170004,mocap,-2.80055566406,10.3738789063,1.93488513184,0.122100255963,0.244076478913,0.942127450133,-0.194715317668
2021/03/16/12:35:17.150870,338064,1615894517,148169994,mocap,-2.80054052734,10.3742636719,1.93472497559,0.119742974443,0.245591953011,0.94227695167,-0.19354678922
2021/03/16/12:35:17.158997,338065,1615894517,158171177,mocap,-2.8007097168,10.3747539062,1.93482275391,0.118808360755,0.246641525265,0.942190777281,-0.193207323366
2021/03/16/12:35:17.170461,338066,1615894517,168171167,mocap,-2.80081347656,10.3752412109,1.93491894531,0.117852881394,0.247630729771,0.94209712941,-0.19298372193
2021/03/16/12:35:17.179096,338067,1615894517,178171158,mocap,-2.80090380859,10.3756572266,1.93507983398,0.116930517353,0.249170076327,0.941928172759,-0.192387205169
2021/03/16/12:35:17.189474,338068,1615894517,188171148,mocap,-2.8009453125,10.3761582031,1.93516809082,0.116447592672,0.250159737626,0.941739185707,-0.192321041045
2021/03/16/12:35:17.199213,338069,1615894517,198171139,mocap,-2.80092895508,10.3766767578,1.93522680664,0.116194482861,0.251192203888,0.94148283366,-0.192383489271
2021/03/16/12:35:17.209778,338070,1615894517,208171129,mocap,-2.80087524414,10.3771660156,1.93529040527,0.116065799627,0.252302915431,0.941167254997,-0.192551731984
2021/03/16/12:35:17.218967,338071,1615894517,218170166,mocap,-2.80078491211,10.3776279297,1.93535437012,0.116454054952,0.253320285213,0.940793799782,-0.192806394339
2021/03/16/12:35:17.229591,338072,1615894517,228170156,mocap,-2.80062329102,10.3781191406,1.93533935547,0.116330295905,0.254081824061,0.940561691321,-0.193011380874
2021/03/16/12:35:17.238995,338073,1615894517,238171101,mocap,-2.80047998047,10.3785791016,1.93533483887,0.116975969818,0.255024147346,0.940162993235,-0.193320609517
2021/03/16/12:35:17.249686,338074,1615894517,248171091,mocap,-2.80035986328,10.3790117188,1.93532641602,0.117531096067,0.255840509559,0.939822705193,-0.193559695171
2021/03/16/12:35:17.259043,338075,1615894517,258171082,mocap,-2.80024389648,10.3794658203,1.93537695313,0.11858953642,0.256641502824,0.939391913373,-0.193944565323
2021/03/16/12:35:17.269125,338076,1615894517,268171072,mocap,-2.80013378906,10.3799101563,1.93537060547,0.119135287526,0.257311281907,0.93911727644,-0.194052652836
2021/03/16/12:35:17.280171,338077,1615894517,278171062,mocap,-2.80002832031,10.3802666016,1.93532897949,0.119798807409,0.258023705666,0.938816846431,-0.194151844977
2021/03/16/12:35:17.288968,338078,1615894517,288171053,mocap,-2.79992675781,10.3805556641,1.93524694824,0.119813760069,0.25853734384,0.938707440386,-0.193988238053
2021/03/16/12:35:17.299358,338079,1615894517,298171043,mocap,-2.79991796875,10.3808632813,1.93531567383,0.120767853811,0.258757702631,0.938512557309,-0.194045770726
2021/03/16/12:35:17.309169,338080,1615894517,308170080,mocap,-2.79990600586,10.3810878906,1.93531286621,0.120971274016,0.259006326857,0.938452610183,-0.19387723132
2021/03/16/12:35:17.320132,338081,1615894517,318170071,mocap,-2.799890625,10.3812460938,1.9352746582,0.121337161391,0.259069739451,0.938414382065,-0.193748839101
2021/03/16/12:35:17.329264,338082,1615894517,328171015,mocap,-2.79989331055,10.3813564453,1.93526477051,0.1216352293,0.258787074489,0.938491487732,-0.193566132722
2021/03/16/12:35:17.340707,338083,1615894517,338171005,mocap,-2.79994604492,10.3814472656,1.93526464844,0.121864579124,0.25867892414,0.93854813794,-0.193291560776
2021/03/16/12:35:17.348889,338084,1615894517,348170996,mocap,-2.80001904297,10.3815654297,1.93528381348,0.12191339745,0.258585022697,0.938618318805,-0.193045514536
2021/03/16/12:35:17.359003,338085,1615894517,358170986,mocap,-2.80010522461,10.3816240234,1.93525427246,0.121945100753,0.258282467543,0.938768744263,-0.192698754627
2021/03/16/12:35:17.369180,338086,1615894517,368170977,mocap,-2.800203125,10.3816425781,1.93519555664,0.122198827161,0.258059621049,0.938875786282,-0.192314657802
2021/03/16/12:35:17.381018,338087,1615894517,378171206,mocap,-2.80030419922,10.3816484375,1.93518664551,0.122114457697,0.257706470924,0.93909986996,-0.191746854966
2021/03/16/12:35:17.388790,338088,1615894517,388170004,mocap,-2.80041113281,10.3816601562,1.9351932373,0.122370710757,0.25723540283,0.939263552694,-0.191414008913
2021/03/16/12:35:17.400075,338089,1615894517,398169994,mocap,-2.80050366211,10.3815693359,1.93514001465,0.122574346989,0.256863644214,0.93947164315,-0.190760676895
2021/03/16/12:35:17.409035,338090,1615894517,408171177,mocap,-2.80061279297,10.3814794922,1.93511328125,0.122839772185,0.256304793388,0.939760201562,-0.18991842678
2021/03/16/12:35:17.420800,338091,1615894517,418171167,mocap,-2.80072973633,10.3813974609,1.93517626953,0.123042847859,0.255928403212,0.939992515859,-0.189143276557
2021/03/16/12:35:17.428973,338092,1615894517,428171158,mocap,-2.80080737305,10.3813027344,1.9352130127,0.12318230816,0.255377801242,0.94032201418,-0.188156335286
2021/03/16/12:35:17.440891,338093,1615894517,438171148,mocap,-2.80089550781,10.3811582031,1.93521508789,0.123594070271,0.254667201932,0.940710016065,-0.186905799759
2021/03/16/12:35:17.448734,338094,1615894517,448171139,mocap,-2.80104467773,10.3810107422,1.93526306152,0.123935029872,0.254138475999,0.941074922434,-0.185557921532
2021/03/16/12:35:17.460716,338095,1615894517,458171129,mocap,-2.8011809082,10.3808574219,1.93530126953,0.124407121658,0.253495776975,0.94150534777,-0.183930524449
2021/03/16/12:35:17.468821,338096,1615894517,468170166,mocap,-2.80133691406,10.3807216797,1.935375,0.124801239777,0.25283179358,0.941967278613,-0.182204211108
2021/03/16/12:35:17.479904,338097,1615894517,478170156,mocap,-2.8016628418,10.3805771484,1.93559411621,0.126990668917,0.251649060667,0.942137264222,-0.181448292937
2021/03/16/12:35:17.488954,338098,1615894517,488171101,mocap,-2.80184716797,10.3803554688,1.93561010742,0.127442255602,0.25088945327,0.942644231243,-0.17954054486
2021/03/16/12:35:17.500146,338099,1615894517,498171091,mocap,-2.80206958008,10.3801386719,1.93566369629,0.12785881858,0.250166049224,0.943192461305,-0.177361367008
2021/03/16/12:35:17.508725,338100,1615894517,508171082,mocap,-2.8023034668,10.3798779297,1.93563012695,0.128722593344,0.249297576799,0.943714983082,-0.175166329506
2021/03/16/12:35:17.519085,338101,1615894517,518171072,mocap,-2.80253295898,10.3796035156,1.93556481934,0.128915165579,0.24851736349,0.944356568988,-0.172657647211
2021/03/16/12:35:17.528875,338102,1615894517,528171062,mocap,-2.80280200195,10.3793291016,1.9355904541,0.12915613476,0.24762990618,0.945027481807,-0.170062267256
2021/03/16/12:35:17.540602,338103,1615894517,538171053,mocap,-2.80307739258,10.3790087891,1.93552734375,0.129722474966,0.24677278313,0.945686242805,-0.16719093178
2021/03/16/12:35:17.550682,338104,1615894517,548171043,mocap,-2.80335400391,10.3787177734,1.93546948242,0.130304099322,0.245931122482,0.946303092923,-0.164466372024
2021/03/16/12:35:17.560604,338105,1615894517,558170080,mocap,-2.80362768555,10.3783271484,1.93537805176,0.130766776961,0.244939220003,0.947002987977,-0.161524517627
2021/03/16/12:35:17.568913,338106,1615894517,568170071,mocap,-2.80391040039,10.3779775391,1.93536523438,0.131181735799,0.244157572721,0.947641278532,-0.158601520281
2021/03/16/12:35:17.580621,338107,1615894517,578171015,mocap,-2.80420703125,10.3776240234,1.9353338623,0.131841481786,0.24331086185,0.948253171879,-0.155671403485
2021/03/16/12:35:17.588974,338108,1615894517,588171005,mocap,-2.80445507813,10.3772548828,1.93530603027,0.132278096733,0.242545670145,0.948857454527,-0.152786250567
2021/03/16/12:35:17.600628,338109,1615894517,598170996,mocap,-2.8047043457,10.3768320313,1.9353170166,0.133113183834,0.241782138552,0.949339972711,-0.150252776689
2021/03/16/12:35:17.609083,338110,1615894517,608170986,mocap,-2.80496704102,10.3763818359,1.93537280273,0.13406644986,0.240954605846,0.949822520317,-0.147662585963
2021/03/16/12:35:17.620390,338111,1615894517,618170977,mocap,-2.80522241211,10.3759150391,1.93541503906,0.134634247973,0.240197504084,0.950366915255,-0.144849961853
2021/03/16/12:35:17.628694,338112,1615894517,628171206,mocap,-2.80547363281,10.3755029297,1.93551257324,0.135258651337,0.239417732203,0.950838739542,-0.142442738474
2021/03/16/12:35:17.640506,338113,1615894517,638170004,mocap,-2.80569799805,10.3749833984,1.93549682617,0.135593215709,0.23872658859,0.951379021054,-0.139649732807
2021/03/16/12:35:17.649366,338114,1615894517,648169994,mocap,-2.80589379883,10.3744560547,1.93543225098,0.137241147097,0.23862660856,0.95150936492,-0.137303065002
2021/03/16/12:35:17.660279,338115,1615894517,658171177,mocap,-2.80605004883,10.3740634766,1.93550305176,0.138183649529,0.238255827681,0.951772676317,-0.135159960093
2021/03/16/12:35:17.668736,338116,1615894517,668171167,mocap,-2.80621313477,10.3736748047,1.9354987793,0.139597495506,0.237873939971,0.951991932062,-0.132815241816
2021/03/16/12:35:17.680328,338117,1615894517,678171158,mocap,-2.80634130859,10.3732978516,1.93551928711,0.140865431651,0.237968422992,0.952114930175,-0.13040370422
2021/03/16/12:35:17.689167,338118,1615894517,688171148,mocap,-2.80646411133,10.3729453125,1.93561291504,0.142551678102,0.238077241242,0.952121065186,-0.128311062509
2021/03/16/12:35:17.700154,338119,1615894517,698171139,mocap,-2.80653344727,10.3725673828,1.93555993652,0.143295156635,0.238399503044,0.952268066716,-0.125768488297
2021/03/16/12:35:17.709165,338120,1615894517,708171129,mocap,-2.80671313477,10.3721748047,1.93562548828,0.145042945627,0.23907976105,0.952160034109,-0.1232667122
2021/03/16/12:35:17.720126,338121,1615894517,718170166,mocap,-2.80679931641,10.3717460937,1.93565966797,0.146259606752,0.239501724016,0.952154947894,-0.121028988128
2021/03/16/12:35:17.728873,338122,1615894517,728170156,mocap,-2.80691088867,10.3712802734,1.93569543457,0.147440127931,0.239786555146,0.952175010897,-0.118855258948
2021/03/16/12:35:17.740138,338123,1615894517,738171101,mocap,-2.80704272461,10.3708095703,1.93574926758,0.148453693445,0.240102179285,0.952205378468,-0.116693476528
2021/03/16/12:35:17.749048,338124,1615894517,748171091,mocap,-2.80718261719,10.3702714844,1.93584460449,0.149288165578,0.240339288734,0.952292047088,-0.114411239458
2021/03/16/12:35:17.758965,338125,1615894517,758171082,mocap,-2.80729638672,10.3696601562,1.93589953613,0.150193789882,0.240677564105,0.95230710786,-0.112371336309
2021/03/16/12:35:17.769977,338126,1615894517,768171072,mocap,-2.80740332031,10.3689658203,1.93592651367,0.150960790696,0.24062728719,0.952457843296,-0.110151700913
2021/03/16/12:35:17.779357,338127,1615894517,778171062,mocap,-2.80753173828,10.3683466797,1.93605273438,0.151335160617,0.240656198997,0.952644250352,-0.107940751142
2021/03/16/12:35:17.791139,338128,1615894517,788171053,mocap,-2.80766357422,10.3676787109,1.93614855957,0.151876916769,0.240813893339,0.95276763345,-0.105716128164
2021/03/16/12:35:17.799404,338129,1615894517,798171043,mocap,-2.80782592773,10.3669570312,1.93624719238,0.152417993188,0.2410756191,0.952851787869,-0.103560543889
2021/03/16/12:35:17.810930,338130,1615894517,808170080,mocap,-2.8079050293,10.3661777344,1.93622558594,0.152498286599,0.241311668596,0.953012053254,-0.101395078129
2021/03/16/12:35:17.819028,338131,1615894517,818170071,mocap,-2.80805029297,10.3654609375,1.93630053711,0.153023881175,0.241514289391,0.953092371273,-0.0993451862468
2021/03/16/12:35:17.830918,338132,1615894517,828171015,mocap,-2.808109375,10.3646210937,1.93627331543,0.153076303492,0.241706339195,0.95324814892,-0.0972812903521
2021/03/16/12:35:17.839586,338133,1615894517,838171005,mocap,-2.80819506836,10.3637363281,1.93626000977,0.153454786358,0.241892510735,0.953319998633,-0.0955019251049
2021/03/16/12:35:17.851306,338134,1615894517,848170996,mocap,-2.80825610352,10.3628300781,1.93629187012,0.153861136597,0.241862192923,0.953429025095,-0.0938216823354
2021/03/16/12:35:17.859877,338135,1615894517,858170986,mocap,-2.80825610352,10.3619150391,1.93626708984,0.154038034893,0.241862438431,0.953562151607,-0.0921633240092
2021/03/16/12:35:17.870829,338136,1615894517,868170977,mocap,-2.80825854492,10.3609228516,1.93621118164,0.154773236165,0.242134896471,0.953513425882,-0.0907087601382
2021/03/16/12:35:17.879129,338137,1615894517,878171206,mocap,-2.8082355957,10.3598984375,1.93622753906,0.15502545548,0.241928265701,0.953665939416,-0.0892137660676
2021/03/16/12:35:17.890962,338138,1615894517,888170004,mocap,-2.8082109375,10.3588623047,1.93623730469,0.155461407352,0.241941155083,0.953728273864,-0.0877417153933
2021/03/16/12:35:17.899295,338139,1615894517,898169994,mocap,-2.80813745117,10.3578291016,1.93625927734,0.155873133284,0.241754049161,0.953815272786,-0.0865734521896
2021/03/16/12:35:17.909870,338140,1615894517,908171177,mocap,-2.80803491211,10.3566982422,1.93619604492,0.156421901414,0.241724165076,0.953852868051,-0.0852426869249
2021/03/16/12:35:17.919161,338141,1615894517,918171167,mocap,-2.80791137695,10.3555048828,1.93610095215,0.156789227755,0.241856627399,0.953872418878,-0.0839637128929
2021/03/16/12:35:17.930638,338142,1615894517,928171158,mocap,-2.80777294922,10.3543388672,1.93606567383,0.157304351792,0.241789095751,0.95390014709,-0.0828727096741
2021/03/16/12:35:17.938956,338143,1615894517,938171148,mocap,-2.80763256836,10.3531552734,1.93605004883,0.157636449851,0.241663563028,0.953975126387,-0.0817369703041
2021/03/16/12:35:17.949775,338144,1615894517,948171139,mocap,-2.80764477539,10.3519658203,1.93623010254,0.15658639752,0.242070248949,0.954234829423,-0.079489503456
2021/03/16/12:35:17.958763,338145,1615894517,958171129,mocap,-2.80745507812,10.3506523437,1.93612133789,0.157014721647,0.241879304795,0.954294347272,-0.0785053679786
2021/03/16/12:35:17.971017,338146,1615894517,968170166,mocap,-2.80725634766,10.3493769531,1.93611315918,0.157284892207,0.241627086685,0.954400725302,-0.0774407501011
2021/03/16/12:35:17.979050,338147,1615894517,978170156,mocap,-2.80700610352,10.3480800781,1.93601098633,0.157588672594,0.241575317089,0.954433465427,-0.0765763752881
2021/03/16/12:35:17.989482,338148,1615894517,988171101,mocap,-2.8067421875,10.3467207031,1.93591210938,0.157827537116,0.241634295986,0.954457352363,-0.0755942773049
2021/03/16/12:35:17.998812,338149,1615894517,998171091,mocap,-2.80645385742,10.3453339844,1.93581762695,0.157584605023,0.2414217515,0.954631287439,-0.0745771084485
2021/03/16/12:35:18.010448,338150,1615894518,8171082,mocap,-2.80615283203,10.3439804688,1.93574243164,0.157855021072,0.24140240037,0.954669849526,-0.0735673442528
2021/03/16/12:35:18.019416,338151,1615894518,18171072,mocap,-2.80582714844,10.3425976562,1.93560778809,0.158092365706,0.241246841592,0.954738853122,-0.0726669394105
2021/03/16/12:35:18.030264,338152,1615894518,28171062,mocap,-2.80544726562,10.3411679687,1.93552893066,0.15788712231,0.241130742249,0.954865484613,-0.0718298058269
2021/03/16/12:35:18.039268,338153,1615894518,38171053,mocap,-2.80507104492,10.339640625,1.93539550781,0.158483290637,0.241298776288,0.9547822334,-0.0710552358367
2021/03/16/12:35:18.050177,338154,1615894518,48171043,mocap,-2.80471118164,10.3382197266,1.93528564453,0.158515831049,0.241067932151,0.954878117188,-0.0704753033684
2021/03/16/12:35:18.059211,338155,1615894518,58170080,mocap,-2.80426318359,10.3367275391,1.93511889648,0.158552365171,0.241242430858,0.954889852303,-0.069631908595
2021/03/16/12:35:18.070434,338156,1615894518,68170071,mocap,-2.80378051758,10.3351855469,1.93498681641,0.159081252955,0.241101280933,0.954881144612,-0.0690313639117
2021/03/16/12:35:18.079177,338157,1615894518,78171015,mocap,-2.80332543945,10.3336484375,1.93485449219,0.159086108829,0.241372090687,0.954860756132,-0.0683525396994
2021/03/16/12:35:18.090160,338158,1615894518,88171005,mocap,-2.80281298828,10.3321464844,1.93466674805,0.159647094863,0.24167791419,0.954741631267,-0.0676240336562
2021/03/16/12:35:18.099299,338159,1615894518,98170996,mocap,-2.80225024414,10.3305751953,1.93455102539,0.160058430583,0.241755942879,0.954701417612,-0.0669369600986
2021/03/16/12:35:18.110051,338160,1615894518,108170986,mocap,-2.80171118164,10.328953125,1.93435864258,0.159707714876,0.242069475259,0.954734678086,-0.0661628144704
2021/03/16/12:35:18.118971,338161,1615894518,118170977,mocap,-2.80116699219,10.32728125,1.93413452148,0.160474623253,0.242616110097,0.954515841608,-0.0654585370336
2021/03/16/12:35:18.129991,338162,1615894518,128171206,mocap,-2.80062060547,10.3256679688,1.9340032959,0.160883142012,0.242583881532,0.954475665276,-0.0651604309001
2021/03/16/12:35:18.138863,338163,1615894518,138170004,mocap,-2.80000292969,10.3240234375,1.93381323242,0.160876168071,0.242840253638,0.954459428781,-0.0644566753003
2021/03/16/12:35:18.150105,338164,1615894518,148169994,mocap,-2.79940087891,10.322171875,1.93352905273,0.161091404115,0.243016191639,0.954422895657,-0.0637936434483
2021/03/16/12:35:18.158992,338165,1615894518,158171177,mocap,-2.79873974609,10.32040625,1.93331286621,0.161479445139,0.243145386806,0.954349661268,-0.0634147168655
2021/03/16/12:35:18.170089,338166,1615894518,168171167,mocap,-2.79814111328,10.3187197266,1.93324084473,0.161101881606,0.243166392452,0.954454706095,-0.0627096682087
2021/03/16/12:35:18.178861,338167,1615894518,178171158,mocap,-2.79748339844,10.3168261719,1.93293017578,0.161608034368,0.24305214988,0.954418258661,-0.0624042083974
2021/03/16/12:35:18.190074,338168,1615894518,188171148,mocap,-2.79682006836,10.3148974609,1.93262695312,0.162015640109,0.243040478893,0.954375986013,-0.0620382262263
2021/03/16/12:35:18.199092,338169,1615894518,198171139,mocap,-2.79615820313,10.3130273438,1.93248034668,0.1619484122,0.242628189689,0.954525528324,-0.0615246060815
2021/03/16/12:35:18.209864,338170,1615894518,208171129,mocap,-2.79550683594,10.3111357422,1.93223999023,0.162160521751,0.242422871305,0.95457022176,-0.0610803354352
2021/03/16/12:35:18.218957,338171,1615894518,218170166,mocap,-2.79482324219,10.3091640625,1.93198352051,0.162378726851,0.242386034663,0.954581211373,-0.0604719825524
2021/03/16/12:35:18.230913,338172,1615894518,228170156,mocap,-2.79416992188,10.3071650391,1.93175402832,0.162942614076,0.241843377254,0.954637718464,-0.0602354294494
2021/03/16/12:35:18.239373,338173,1615894518,238171101,mocap,-2.79353515625,10.3052314453,1.93154748535,0.162453251061,0.241828632192,0.954771901597,-0.0594850200472
2021/03/16/12:35:18.249830,338174,1615894518,248171091,mocap,-2.79285180664,10.3033125,1.93131945801,0.162781285171,0.241543428744,0.954811324161,-0.059113035826
2021/03/16/12:35:18.260724,338175,1615894518,258171082,mocap,-2.79217260742,10.3012949219,1.93097253418,0.163007603781,0.241334735186,0.954855645289,-0.0586239588817
2021/03/16/12:35:18.268932,338176,1615894518,268171072,mocap,-2.7915090332,10.2992929688,1.93061254883,0.162948189467,0.241092191977,0.954969060556,-0.0579356207876
2021/03/16/12:35:18.280814,338177,1615894518,278171062,mocap,-2.79087329102,10.2973613281,1.9302989502,0.162647698978,0.24086692645,0.955116333617,-0.0572856377371
2021/03/16/12:35:18.289030,338178,1615894518,288171053,mocap,-2.79010009766,10.2953339844,1.92970056152,0.164070326383,0.240298828658,0.954999643545,-0.0575595296708
2021/03/16/12:35:18.300962,338179,1615894518,298171043,mocap,-2.78958349609,10.2933457031,1.92937316895,0.16251784369,0.240300882682,0.955370891298,-0.0557663704372
2021/03/16/12:35:18.308875,338180,1615894518,308170080,mocap,-2.78896899414,10.2913144531,1.92882775879,0.162818371025,0.240132115072,0.955398030132,-0.0551483775252
2021/03/16/12:35:18.320547,338181,1615894518,318170071,mocap,-2.7883125,10.2893505859,1.92829821777,0.162540101678,0.239664398514,0.955602646161,-0.0544544112305
2021/03/16/12:35:18.329109,338182,1615894518,328171015,mocap,-2.78765551758,10.2873994141,1.9276048584,0.162498113679,0.239304394407,0.955741495924,-0.0537210993447
2021/03/16/12:35:18.340583,338183,1615894518,338171005,mocap,-2.78695800781,10.2853310547,1.9268314209,0.162728913156,0.239109418014,0.955789141458,-0.053038592511
2021/03/16/12:35:18.349174,338184,1615894518,348170996,mocap,-2.78620336914,10.2832480469,1.92581640625,0.163652952801,0.238536812408,0.955774556502,-0.0530368771575
2021/03/16/12:35:18.360492,338185,1615894518,358170986,mocap,-2.78564672852,10.2813300781,1.92502978516,0.162375434728,0.238346194091,0.956119126047,-0.0515900787842
2021/03/16/12:35:18.368845,338186,1615894518,368170977,mocap,-2.78500927734,10.2793691406,1.92412329102,0.16245288396,0.238335925025,0.956155820335,-0.050706053707
2021/03/16/12:35:18.379426,338187,1615894518,378171206,mocap,-2.78437011719,10.2773027344,1.92303503418,0.162212465721,0.238251281657,0.956257815111,-0.0499443460489
2021/03/16/12:35:18.389021,338188,1615894518,388170004,mocap,-2.78369506836,10.2752958984,1.92195373535,0.1632409625,0.238035848098,0.956148082625,-0.0497209647042
2021/03/16/12:35:18.400452,338189,1615894518,398169994,mocap,-2.78317480469,10.2733300781,1.92120751953,0.162567767331,0.238703985056,0.956172853986,-0.0482244077793
2021/03/16/12:35:18.409313,338190,1615894518,408171177,mocap,-2.78258544922,10.2712792969,1.9203079834,0.161992649497,0.239028186395,0.956246992805,-0.0470703099948
2021/03/16/12:35:18.420500,338191,1615894518,418171167,mocap,-2.78196069336,10.2691494141,1.91940454102,0.162783929537,0.238908800032,0.956158882674,-0.0467350427838
2021/03/16/12:35:18.428798,338192,1615894518,428171158,mocap,-2.78147729492,10.2669970703,1.91875683594,0.161611629344,0.239448450038,0.956303658569,-0.0450494371271
2021/03/16/12:35:18.440431,338193,1615894518,438171148,mocap,-2.78095727539,10.2647470703,1.9180760498,0.161777680323,0.239426191345,0.956313646604,-0.0443541271605
2021/03/16/12:35:18.448964,338194,1615894518,448171139,mocap,-2.78043896484,10.262359375,1.91730151367,0.16166680257,0.239209686861,0.956426125557,-0.0434929107225
2021/03/16/12:35:18.460354,338195,1615894518,458171129,mocap,-2.77994311523,10.2600019531,1.91663598633,0.161435625794,0.238984362316,0.956559551537,-0.042647902611
2021/03/16/12:35:18.469056,338196,1615894518,468170166,mocap,-2.77950097656,10.2575957031,1.91604431152,0.161417977793,0.238665858137,0.956672118398,-0.0419678703736
2021/03/16/12:35:18.480319,338197,1615894518,478170156,mocap,-2.7789909668,10.2550820312,1.91536047363,0.162647918634,0.238284264725,0.956554286202,-0.0420733243355
2021/03/16/12:35:18.489081,338198,1615894518,488171101,mocap,-2.77857275391,10.2525546875,1.91492321777,0.162311814852,0.238211856806,0.956655786783,-0.0414692638912
2021/03/16/12:35:18.500239,338199,1615894518,498171091,mocap,-2.77816430664,10.2499091797,1.91452441406,0.162034327929,0.237885895635,0.956813842057,-0.0407731822995
2021/03/16/12:35:18.508852,338200,1615894518,508171082,mocap,-2.77777197266,10.2472207031,1.91421582031,0.16227174483,0.237629459168,0.956853125987,-0.0404007352553
2021/03/16/12:35:18.520102,338201,1615894518,518171072,mocap,-2.77737304688,10.2444248047,1.91393017578,0.162300564511,0.237270009933,0.956958378723,-0.0399016108188
2021/03/16/12:35:18.528797,338202,1615894518,528171062,mocap,-2.77705712891,10.2415634766,1.91376257324,0.162003495989,0.236604955519,0.957192317877,-0.0394440029355
2021/03/16/12:35:18.538984,338203,1615894518,538171053,mocap,-2.77676074219,10.2385927734,1.91362597656,0.162348327588,0.236140091209,0.957261419839,-0.0391335850799
2021/03/16/12:35:18.548977,338204,1615894518,548171043,mocap,-2.77646948242,10.2356015625,1.91354760742,0.162241686513,0.235449380706,0.957467723108,-0.038688326102
2021/03/16/12:35:18.560901,338205,1615894518,558170080,mocap,-2.77619726563,10.2324941406,1.91347302246,0.162146192328,0.235074706149,0.95758043219,-0.0385773382936
2021/03/16/12:35:18.568851,338206,1615894518,568170071,mocap,-2.77596655273,10.2293476563,1.91347558594,0.162265120841,0.234504705896,0.957705544354,-0.038440436908
2021/03/16/12:35:18.581078,338207,1615894518,578171015,mocap,-2.77579125977,10.2260712891,1.91340856934,0.162213311683,0.233813258593,0.957892096916,-0.0382220403984
2021/03/16/12:35:18.589138,338208,1615894518,588171005,mocap,-2.77566162109,10.2227792969,1.91342260742,0.162203236653,0.233407288854,0.958002765109,-0.0379717751421
2021/03/16/12:35:18.600997,338209,1615894518,598170996,mocap,-2.77551245117,10.219265625,1.9131472168,0.162271179836,0.232605551891,0.958189765224,-0.0378827806464
2021/03/16/12:35:18.609213,338210,1615894518,608170986,mocap,-2.77552709961,10.2159316406,1.91322875977,0.161630326466,0.232865568461,0.958257924444,-0.037296203438
2021/03/16/12:35:18.620968,338211,1615894518,618170977,mocap,-2.77546411133,10.2123251953,1.91293811035,0.161837245905,0.232126556398,0.958397648906,-0.03741527638
2021/03/16/12:35:18.628825,338212,1615894518,628171206,mocap,-2.77552441406,10.2087822266,1.91291674805,0.161171573359,0.232732728481,0.958386050032,-0.0368154317899
2021/03/16/12:35:18.639188,338213,1615894518,638170004,mocap,-2.77554980469,10.2049970703,1.91253430176,0.161375318086,0.232229872147,0.958477826559,-0.0367088981191
2021/03/16/12:35:18.649647,338214,1615894518,648169994,mocap,-2.77568383789,10.2013125,1.91243225098,0.160724051609,0.23289931995,0.95844862165,-0.0360822148897
2021/03/16/12:35:18.660891,338215,1615894518,658171177,mocap,-2.77579052734,10.1973388672,1.91190698242,0.160880270284,0.232656963661,0.958482980274,-0.0360368764509
2021/03/16/12:35:18.669209,338216,1615894518,668171167,mocap,-2.77599145508,10.1934365234,1.91166992187,0.159925320004,0.233674016174,0.958420737399,-0.0353556984927
2021/03/16/12:35:18.679688,338217,1615894518,678171158,mocap,-2.77614355469,10.1892539063,1.91106982422,0.160000032162,0.233188200579,0.958530644996,-0.0352458524242
2021/03/16/12:35:18.690574,338218,1615894518,688171148,mocap,-2.77640625,10.1851621094,1.91077624512,0.159100235761,0.234258232458,0.95843934772,-0.0347018768086
2021/03/16/12:35:18.699044,338219,1615894518,698171139,mocap,-2.77663842773,10.1807177734,1.91000036621,0.159457569518,0.234487518313,0.958318599643,-0.0348474468805
2021/03/16/12:35:18.708943,338220,1615894518,708171129,mocap,-2.77694921875,10.1763457031,1.90960986328,0.158845641727,0.235499292083,0.958197595306,-0.0341396391104
2021/03/16/12:35:18.720702,338221,1615894518,718170166,mocap,-2.77724584961,10.1716992187,1.90881799316,0.159297981369,0.235262631846,0.958183793481,-0.0340508341111
2021/03/16/12:35:18.728792,338222,1615894518,728170156,mocap,-2.77758496094,10.1671044922,1.90837915039,0.158394499181,0.236404702924,0.958075020364,-0.0334102946883
2021/03/16/12:35:18.740558,338223,1615894518,738171101,mocap,-2.777890625,10.1620488281,1.90751550293,0.158740906018,0.236328784918,0.9580379563,-0.0333661800235
2021/03/16/12:35:18.748901,338224,1615894518,748171091,mocap,-2.77828588867,10.1570625,1.90685473633,0.158812275666,0.23677705801,0.957920758786,-0.0332130275404
2021/03/16/12:35:18.760453,338225,1615894518,758171082,mocap,-2.77872412109,10.152046875,1.90635803223,0.158545835066,0.237623623132,0.957776219551,-0.0326028299181
2021/03/16/12:35:18.768846,338226,1615894518,768171072,mocap,-2.77915673828,10.1466660156,1.90547241211,0.159026582763,0.237165659156,0.95781368268,-0.0324953851695
2021/03/16/12:35:18.778871,338227,1615894518,778171062,mocap,-2.77967944336,10.1411796875,1.90483154297,0.15850092848,0.238107983861,0.957682477518,-0.0320362683532
2021/03/16/12:35:18.788836,338228,1615894518,788171053,mocap,-2.78019287109,10.1355546875,1.90398876953,0.159189464514,0.237616240354,0.957703257145,-0.031649906416
2021/03/16/12:35:18.798828,338229,1615894518,798171043,mocap,-2.78076171875,10.1299511719,1.90331188965,0.159134653525,0.237661412985,0.957711799145,-0.0313260769046
2021/03/16/12:35:18.810458,338230,1615894518,808170080,mocap,-2.781390625,10.1241103516,1.9026619873,0.158722062092,0.238498160982,0.957593145658,-0.0306806359245
2021/03/16/12:35:18.820898,338231,1615894518,818170071,mocap,-2.78206762695,10.1180234375,1.90176513672,0.159810984812,0.238144571339,0.957501961305,-0.030620546428
2021/03/16/12:35:18.828946,338232,1615894518,828171015,mocap,-2.78274780273,10.1120253906,1.90105517578,0.159663356451,0.238116629149,0.957544951853,-0.0302615931712
2021/03/16/12:35:18.839224,338233,1615894518,838171005,mocap,-2.78349780273,10.1059892578,1.9005703125,0.15945304193,0.238881400951,0.957416853781,-0.0293832513174
2021/03/16/12:35:18.849211,338234,1615894518,848170996,mocap,-2.78426171875,10.0995234375,1.89968371582,0.16055043128,0.238341776721,0.957367149106,-0.0294091239687
2021/03/16/12:35:18.860097,338235,1615894518,858170986,mocap,-2.78509863281,10.0930878906,1.89900195312,0.160651301693,0.238622678222,0.957289633612,-0.0291021278775
2021/03/16/12:35:18.871358,338236,1615894518,868170977,mocap,-2.78599609375,10.0868085937,1.89854638672,0.160760848399,0.239456402692,0.957088811272,-0.0282417345951
2021/03/16/12:35:18.879220,338237,1615894518,878171206,mocap,-2.78687597656,10.0801806641,1.89779064941,0.161282658772,0.23880882427,0.957162684543,-0.0282462126901
2021/03/16/12:35:18.889131,338238,1615894518,888170004,mocap,-2.78784423828,10.0734726563,1.89716052246,0.162058878736,0.239219458654,0.956943313295,-0.0277573428688
2021/03/16/12:35:18.899360,338239,1615894518,898169994,mocap,-2.78888745117,10.0668701172,1.89680761719,0.161496485883,0.240118410848,0.956830700472,-0.0271487738881
2021/03/16/12:35:18.908891,338240,1615894518,908171177,mocap,-2.78995556641,10.0600800781,1.89628051758,0.162610300655,0.239882892988,0.956707304021,-0.0269297795415
2021/03/16/12:35:18.919962,338241,1615894518,918171167,mocap,-2.79101928711,10.053296875,1.89603894043,0.16238634533,0.240764804247,0.956538754854,-0.0263930067291
2021/03/16/12:35:18.928949,338242,1615894518,928171158,mocap,-2.79223779297,10.0462685547,1.89561279297,0.16273447707,0.241216156947,0.956375091761,-0.0260565938084
2021/03/16/12:35:18.939967,338243,1615894518,938171148,mocap,-2.79334204102,10.0393027344,1.89532409668,0.162945909866,0.241455394884,0.956287390782,-0.0257363547644
2021/03/16/12:35:18.950144,338244,1615894518,948171139,mocap,-2.79458227539,10.0322148437,1.89493371582,0.164259029648,0.241184298621,0.956124604175,-0.0259777141072
2021/03/16/12:35:18.959087,338245,1615894518,958171129,mocap,-2.79584350586,10.0251757813,1.89486669922,0.163863256894,0.242246983646,0.955936186853,-0.0255194329579
2021/03/16/12:35:18.970981,338246,1615894518,968170166,mocap,-2.79711938477,10.0179482422,1.89455224609,0.16432386269,0.24246166282,0.955804817504,-0.0254394989212
2021/03/16/12:35:18.979179,338247,1615894518,978170156,mocap,-2.79843334961,10.0108427734,1.8944329834,0.164992323329,0.242924288837,0.95557180178,-0.0254528351116
2021/03/16/12:35:18.990071,338248,1615894518,988171101,mocap,-2.79975439453,10.0037490234,1.8944185791,0.165210745151,0.243456168395,0.955393413465,-0.0256499459242
2021/03/16/12:35:19.000784,338249,1615894518,998171091,mocap,-2.80115722656,9.99649804688,1.89453503418,0.165946101153,0.244801580605,0.954928084057,-0.0254251680274
2021/03/16/12:35:19.009072,338250,1615894519,8171082,mocap,-2.80250244141,9.98925097656,1.89498937988,0.166132139818,0.246140047639,0.954549561258,-0.0255013000095
2021/03/16/12:35:19.020867,338251,1615894519,18171072,mocap,-2.8039387207,9.98202832031,1.89568310547,0.167046164314,0.247352824152,0.954071450515,-0.0256868882909
2021/03/16/12:35:19.029091,338252,1615894519,28171062,mocap,-2.80529858398,9.9747109375,1.89656420898,0.167685212996,0.248196479627,0.953726867693,-0.0261768749318
2021/03/16/12:35:19.039174,338253,1615894519,38171053,mocap,-2.80668261719,9.96716503906,1.89747338867,0.168605911073,0.248818889061,0.953386263138,-0.0267551105641
2021/03/16/12:35:19.049798,338254,1615894519,48171043,mocap,-2.80808227539,9.95963183594,1.89866540527,0.168652334691,0.249871069768,0.953105277498,-0.0266675233204
2021/03/16/12:35:19.059021,338255,1615894519,58170080,mocap,-2.80954907227,9.95214746094,1.90005334473,0.16960715785,0.250538199503,0.952736830229,-0.0275053998377
2021/03/16/12:35:19.070846,338256,1615894519,68170071,mocap,-2.81092749023,9.94458496094,1.90152526855,0.170897761957,0.251177340821,0.952298337434,-0.0288405115267
2021/03/16/12:35:19.078932,338257,1615894519,78171015,mocap,-2.81247460938,9.93700195312,1.90339709473,0.170880077291,0.252021834983,0.952075333356,-0.0289406577832
2021/03/16/12:35:19.089176,338258,1615894519,88171005,mocap,-2.81392431641,9.92935449219,1.90524804687,0.171548324869,0.252155289305,0.951898121331,-0.0296453240421
2021/03/16/12:35:19.099580,338259,1615894519,98170996,mocap,-2.81530639648,9.92167480469,1.90697790527,0.173117103599,0.25162633826,0.951706831812,-0.0311249249005
2021/03/16/12:35:19.109644,338260,1615894519,108170986,mocap,-2.81675341797,9.91397753906,1.90884350586,0.172863750602,0.251594556206,0.951755892703,-0.0312894662245
2021/03/16/12:35:19.118975,338261,1615894519,118170977,mocap,-2.81810839844,9.90627050781,1.91044067383,0.17442426619,0.250642117863,0.951664986752,-0.0329916743945
2021/03/16/12:35:19.129479,338262,1615894519,128171206,mocap,-2.81955395508,9.89871777344,1.91208178711,0.174352356413,0.250158468336,0.951793999848,-0.0333191474708
2021/03/16/12:35:19.138986,338263,1615894519,138170004,mocap,-2.82088745117,9.8912109375,1.91329211426,0.175441569151,0.249386265389,0.951736611534,-0.0349878760662
2021/03/16/12:35:19.148925,338264,1615894519,148169994,mocap,-2.82231445313,9.88380078125,1.91451135254,0.175049585496,0.24929945435,0.951827651541,-0.0350935536597
2021/03/16/12:35:19.159369,338265,1615894519,158171177,mocap,-2.82368823242,9.87647460938,1.91550976562,0.175520933922,0.249378344585,0.95168898232,-0.0359293661445
2021/03/16/12:35:19.169374,338266,1615894519,168171167,mocap,-2.82502734375,9.8692421875,1.91628417969,0.17574001074,0.249747537508,0.951531845376,-0.036452217672
2021/03/16/12:35:19.180714,338267,1615894519,178171158,mocap,-2.82635083008,9.86220800781,1.91698803711,0.175891424748,0.250237833631,0.951349809676,-0.0371050710865
2021/03/16/12:35:19.190571,338268,1615894519,188171148,mocap,-2.82770751953,9.855125,1.91753063965,0.175684520351,0.251111144003,0.951142524094,-0.0374973038027
2021/03/16/12:35:19.199199,338269,1615894519,198171139,mocap,-2.82890893555,9.84804003906,1.9179753418,0.175703530913,0.25186661505,0.950933602821,-0.0376400192935
2021/03/16/12:35:19.208921,338270,1615894519,208171129,mocap,-2.83021679687,9.84100195312,1.9184230957,0.17523286574,0.252790942633,0.950762807625,-0.0379508009041
2021/03/16/12:35:19.219218,338271,1615894519,218170166,mocap,-2.83137109375,9.83400683594,1.91894128418,0.175476585051,0.253854016056,0.95042352396,-0.0382261967688
2021/03/16/12:35:19.228938,338272,1615894519,228170156,mocap,-2.8325324707,9.82696386719,1.9194206543,0.175103650285,0.254685218292,0.950261449913,-0.038435848249
2021/03/16/12:35:19.240210,338273,1615894519,238171101,mocap,-2.83361083984,9.81987207031,1.91984558105,0.175395650237,0.255874480786,0.949886267844,-0.0384796352896
2021/03/16/12:35:19.249063,338274,1615894519,248171091,mocap,-2.83464526367,9.81276269531,1.92032019043,0.175442881793,0.256783852503,0.949609864273,-0.0390250130654
2021/03/16/12:35:19.260241,338275,1615894519,258171082,mocap,-2.8355637207,9.80567382813,1.9208059082,0.175631332534,0.257500588473,0.949359114202,-0.0395519266744
2021/03/16/12:35:19.269126,338276,1615894519,268171072,mocap,-2.83649291992,9.79852246094,1.92130554199,0.176171495291,0.258196140849,0.949041208688,-0.0402385894893
2021/03/16/12:35:19.279190,338277,1615894519,278171062,mocap,-2.83737695313,9.79130859375,1.92181884766,0.176065311825,0.258679653552,0.948916265384,-0.0405432773879
2021/03/16/12:35:19.288939,338278,1615894519,288171053,mocap,-2.83811181641,9.78407226562,1.92238964844,0.176007038169,0.259302852973,0.948730720053,-0.0411529819761
2021/03/16/12:35:19.298877,338279,1615894519,298171043,mocap,-2.83894018555,9.77682617187,1.92302526855,0.176028329686,0.259610357845,0.948621130045,-0.0416466458511
2021/03/16/12:35:19.310051,338280,1615894519,308170080,mocap,-2.83970141602,9.76942285156,1.9236237793,0.176190559192,0.259860067607,0.948497341097,-0.0422187908365
2021/03/16/12:35:19.318987,338281,1615894519,318170071,mocap,-2.84039257812,9.76198339844,1.92427148437,0.176145523417,0.259662398681,0.948527849975,-0.042931442757
2021/03/16/12:35:19.331630,338282,1615894519,328171015,mocap,-2.84099804687,9.75454003906,1.92480944824,0.176487634991,0.258976560411,0.948596452091,-0.0441364812123
2021/03/16/12:35:19.338828,338283,1615894519,338171005,mocap,-2.84165820313,9.74701464844,1.92547900391,0.176443699597,0.258407751777,0.948743897646,-0.0444755752485
2021/03/16/12:35:19.351047,338284,1615894519,348170996,mocap,-2.84222241211,9.73938183594,1.92610803223,0.176042088153,0.257798602129,0.948954643587,-0.0451015441169
2021/03/16/12:35:19.359207,338285,1615894519,358170986,mocap,-2.84274145508,9.73179101562,1.92671960449,0.175875232837,0.257293117408,0.949088162203,-0.0458238719053
2021/03/16/12:35:19.371064,338286,1615894519,368170977,mocap,-2.84328393555,9.72421679687,1.92744836426,0.174789462937,0.256724749922,0.949433612446,-0.0460094089045
2021/03/16/12:35:19.379204,338287,1615894519,378171206,mocap,-2.84367382813,9.71652734375,1.92795507813,0.174694001315,0.256006775231,0.949619467653,-0.0465339395843
2021/03/16/12:35:19.391096,338288,1615894519,388170004,mocap,-2.84408520508,9.70879003906,1.9283482666,0.174789362883,0.255366973162,0.949733092433,-0.0473652089643
2021/03/16/12:35:19.399436,338289,1615894519,398169994,mocap,-2.84437841797,9.70107617188,1.92869433594,0.174807111326,0.254859234801,0.949821728054,-0.0482487245845
2021/03/16/12:35:19.410747,338290,1615894519,408171177,mocap,-2.84460546875,9.69338085938,1.9289486084,0.174832401438,0.254513454117,0.949864383793,-0.0491343010015
2021/03/16/12:35:19.419452,338291,1615894519,418171167,mocap,-2.84479980469,9.68561132813,1.92903222656,0.175015662747,0.254158552581,0.9498746121,-0.0501116084454
2021/03/16/12:35:19.430985,338292,1615894519,428171158,mocap,-2.84499829102,9.6777734375,1.92903039551,0.175133653928,0.253887294835,0.949872753129,-0.0510998036231
2021/03/16/12:35:19.439196,338293,1615894519,438171148,mocap,-2.84508154297,9.66996582031,1.92881311035,0.17611288494,0.25353779119,0.949712248251,-0.0524356251407
2021/03/16/12:35:19.450714,338294,1615894519,448171139,mocap,-2.8451574707,9.66204394531,1.92854162598,0.176547787477,0.253231476583,0.949669656288,-0.0532187976462
2021/03/16/12:35:19.458932,338295,1615894519,458171129,mocap,-2.84524023437,9.65407324219,1.92814941406,0.176808688174,0.252986337763,0.949634256982,-0.0541422495485
2021/03/16/12:35:19.470899,338296,1615894519,468170166,mocap,-2.84529858398,9.64605078125,1.92772741699,0.176293485883,0.253100353521,0.949702575202,-0.0540910657638
2021/03/16/12:35:19.479040,338297,1615894519,478170156,mocap,-2.84531420898,9.63798828125,1.92708825684,0.176166297299,0.252762659874,0.949782184677,-0.0546834372487
2021/03/16/12:35:19.490785,338298,1615894519,488171101,mocap,-2.84523168945,9.62983789062,1.92616320801,0.177071358626,0.252061404165,0.949741494306,-0.055694419802
2021/03/16/12:35:19.499089,338299,1615894519,498171091,mocap,-2.84514575195,9.62158007812,1.9251484375,0.177293858677,0.251955883938,0.949708608121,-0.0560238675341
2021/03/16/12:35:19.510418,338300,1615894519,508171082,mocap,-2.84512207031,9.61337695312,1.92407177734,0.176830043988,0.251817726553,0.949839283185,-0.0558955230202
2021/03/16/12:35:19.519236,338301,1615894519,518171072,mocap,-2.84491992187,9.60517382813,1.92270666504,0.177792823914,0.251589400898,0.949678898176,-0.0565903827529
2021/03/16/12:35:19.530282,338302,1615894519,528171062,mocap,-2.84477978516,9.596859375,1.92126306152,0.177432067974,0.251939590474,0.949681220403,-0.0561239952841
2021/03/16/12:35:19.539192,338303,1615894519,538171053,mocap,-2.84450585937,9.58854492188,1.91954589844,0.17838024109,0.251977925822,0.949455631981,-0.0567593738848
2021/03/16/12:35:19.550503,338304,1615894519,548171043,mocap,-2.84432202148,9.58022753906,1.91788220215,0.177857512338,0.252591991831,0.949412957877,-0.0563828670736
2021/03/16/12:35:19.558906,338305,1615894519,558170080,mocap,-2.84399658203,9.57185644531,1.91596435547,0.178385899248,0.252898800472,0.949205406315,-0.0568310103359
2021/03/16/12:35:19.569148,338306,1615894519,568170071,mocap,-2.84372167969,9.5633515625,1.91398010254,0.178514648209,0.253484049994,0.949017648626,-0.0569549846495
2021/03/16/12:35:19.580250,338307,1615894519,578171015,mocap,-2.84341796875,9.55485253906,1.91208764648,0.178142931647,0.254426406927,0.948881780207,-0.0561753465148
2021/03/16/12:35:19.589172,338308,1615894519,588171005,mocap,-2.84300805664,9.54636816406,1.91002075195,0.17885671275,0.255131911562,0.948546450169,-0.0563704211814
2021/03/16/12:35:19.600555,338309,1615894519,598170996,mocap,-2.84265478516,9.53780761719,1.90809851074,0.178395668527,0.256420829597,0.948313670111,-0.0558975085662
2021/03/16/12:35:19.609089,338310,1615894519,608170986,mocap,-2.84216967773,9.52911035156,1.90599816895,0.178951394452,0.257507175598,0.947914223965,-0.055902322854
2021/03/16/12:35:19.620196,338311,1615894519,618170977,mocap,-2.84176586914,9.52043847656,1.90425402832,0.17826519234,0.258937332488,0.947697114496,-0.055164677331
2021/03/16/12:35:19.629175,338312,1615894519,628171206,mocap,-2.84116650391,9.51166601562,1.90231774902,0.178808219761,0.260451043869,0.947180061802,-0.0551617439142
2021/03/16/12:35:19.639391,338313,1615894519,638170004,mocap,-2.84064208984,9.50281347656,1.90082995605,0.177909138384,0.261808501301,0.947019320842,-0.0543972234378
2021/03/16/12:35:19.650176,338314,1615894519,648169994,mocap,-2.84005957031,9.49376074219,1.89943188477,0.177899502832,0.262968255427,0.946720280927,-0.0540385838785
2021/03/16/12:35:19.659274,338315,1615894519,658171177,mocap,-2.83936279297,9.48461328125,1.89819055176,0.178165825786,0.264184462622,0.946352457574,-0.0536707169868
2021/03/16/12:35:19.670355,338316,1615894519,668171167,mocap,-2.83869140625,9.47545117187,1.897234375,0.177948598943,0.265035740711,0.946178221141,-0.0532647904564
2021/03/16/12:35:19.678968,338317,1615894519,678171158,mocap,-2.83794970703,9.46604882813,1.89640222168,0.177945621248,0.266041089987,0.945922946081,-0.0527946482427
2021/03/16/12:35:19.690174,338318,1615894519,688171148,mocap,-2.83721875,9.45661035156,1.89578735352,0.177570663482,0.267048263539,0.945738601807,-0.0522722553602
2021/03/16/12:35:19.699062,338319,1615894519,698171139,mocap,-2.83647216797,9.44712792969,1.89538586426,0.176893980441,0.267949548626,0.945648496201,-0.0515798081681
2021/03/16/12:35:19.710082,338320,1615894519,708171129,mocap,-2.83575488281,9.43766015625,1.89536938477,0.176317833371,0.269082168839,0.945463885646,-0.0510376950678
2021/03/16/12:35:19.718993,338321,1615894519,718170166,mocap,-2.83502636719,9.42802148437,1.89558703613,0.175711701933,0.27085793982,0.945111686878,-0.05025205285
2021/03/16/12:35:19.730392,338322,1615894519,728170156,mocap,-2.83427319336,9.41833496094,1.89624243164,0.174463813102,0.272131860302,0.945030871914,-0.0492268374861
2021/03/16/12:35:19.739120,338323,1615894519,738171101,mocap,-2.833484375,9.40859765625,1.89715759277,0.173992962118,0.272867936638,0.944933097934,-0.0486927699492
2021/03/16/12:35:19.750908,338324,1615894519,748171091,mocap,-2.83265039063,9.39860449219,1.89821166992,0.17313126845,0.273188383452,0.94504024589,-0.0478811979693
2021/03/16/12:35:19.759308,338325,1615894519,758171082,mocap,-2.83179663086,9.38854980469,1.8993861084,0.172539394028,0.273147103444,0.945188577269,-0.0473220573439
2021/03/16/12:35:19.771020,338326,1615894519,768171072,mocap,-2.83091479492,9.37846386719,1.90069421387,0.172279857773,0.273013080204,0.945296437151,-0.0468844397083
2021/03/16/12:35:19.779329,338327,1615894519,778171062,mocap,-2.83004980469,9.36842675781,1.90221435547,0.172036375366,0.272951319654,0.945385693641,-0.0463352895077
2021/03/16/12:35:19.790831,338328,1615894519,788171053,mocap,-2.82916210937,9.35831152344,1.90374951172,0.171403912198,0.27256377577,0.945639924022,-0.0457691411045
2021/03/16/12:35:19.799592,338329,1615894519,798171043,mocap,-2.82833666992,9.34819921875,1.90532849121,0.171071631378,0.272072424679,0.945873653537,-0.0451012397538
2021/03/16/12:35:19.811131,338330,1615894519,808170080,mocap,-2.82748901367,9.33812109375,1.90686242676,0.170511391915,0.271165535235,0.946261323851,-0.0445490253523
2021/03/16/12:35:19.820712,338331,1615894519,818170071,mocap,-2.8266496582,9.32815820312,1.90833129883,0.170447745721,0.269830899415,0.946658287806,-0.0444627301564
2021/03/16/12:35:19.829211,338332,1615894519,828171015,mocap,-2.82590625,9.31809082031,1.90954736328,0.170640201256,0.26875448247,0.946937724513,-0.0442932662707
2021/03/16/12:35:19.841062,338333,1615894519,838171005,mocap,-2.82514892578,9.30816113281,1.91066296387,0.170862385564,0.26768283954,0.947210447926,-0.0440943596647
2021/03/16/12:35:19.850673,338334,1615894519,848170996,mocap,-2.82442260742,9.29845507813,1.91159655762,0.171154526157,0.266842687472,0.947406750421,-0.0438355647387
2021/03/16/12:35:19.859298,338335,1615894519,858170986,mocap,-2.82375854492,9.28879394531,1.91248730469,0.171222779862,0.266483112977,0.947499519652,-0.0437512434189
2021/03/16/12:35:19.869112,338336,1615894519,868170977,mocap,-2.82312939453,9.2792578125,1.9131451416,0.172113929023,0.266187921137,0.947409109673,-0.0440086215206
2021/03/16/12:35:19.880637,338337,1615894519,878171206,mocap,-2.82261108398,9.26986230469,1.91387683105,0.171932720585,0.266244676971,0.947435469984,-0.0438056809855
2021/03/16/12:35:19.889381,338338,1615894519,888170004,mocap,-2.82212231445,9.26062695312,1.91465246582,0.172571329651,0.266736673023,0.947186606346,-0.0436829727306
2021/03/16/12:35:19.899110,338339,1615894519,898169994,mocap,-2.82173999023,9.25134863281,1.9154185791,0.17285159666,0.266938875281,0.947085349636,-0.0435351529708
2021/03/16/12:35:19.909359,338340,1615894519,908171177,mocap,-2.82147094727,9.2420546875,1.91624804688,0.172635492688,0.267270042625,0.947048760199,-0.043155122997
2021/03/16/12:35:19.920577,338341,1615894519,918171167,mocap,-2.82119580078,9.23283691406,1.91694580078,0.173516626843,0.267089226998,0.946938896856,-0.0431516382177
2021/03/16/12:35:19.928934,338342,1615894519,928171158,mocap,-2.82102612305,9.22356738281,1.91767993164,0.173773027463,0.266702553788,0.947015151111,-0.042836511145
2021/03/16/12:35:19.940618,338343,1615894519,938171148,mocap,-2.82094189453,9.21429882812,1.91860705566,0.173276026892,0.266149102017,0.947296999382,-0.0420531145718
2021/03/16/12:35:19.949015,338344,1615894519,948171139,mocap,-2.8209152832,9.20495410156,1.91936474609,0.173863549145,0.265393643324,0.947404776509,-0.0419746015072
2021/03/16/12:35:19.960458,338345,1615894519,958171129,mocap,-2.8209440918,9.19570214844,1.92032836914,0.173270091173,0.264433162933,0.94782338976,-0.0410292613296
2021/03/16/12:35:19.969191,338346,1615894519,968170166,mocap,-2.82103222656,9.1863984375,1.92112756348,0.17330000701,0.262998396413,0.94823887959,-0.040521347118
2021/03/16/12:35:19.980494,338347,1615894519,978170156,mocap,-2.82119140625,9.17707714844,1.92194262695,0.1732213654,0.261582344403,0.9486644288,-0.0400603981304
2021/03/16/12:35:19.989068,338348,1615894519,988171101,mocap,-2.82141333008,9.16771777344,1.92270568848,0.172929570137,0.259975204291,0.949182501835,-0.0395075724753
2021/03/16/12:35:20.000235,338349,1615894519,998171091,mocap,-2.82164282227,9.15869238281,1.92343945313,0.173435844795,0.258253385498,0.949538675404,-0.0400186582348
2021/03/16/12:35:20.009154,338350,1615894520,8171082,mocap,-2.82192236328,9.14942480469,1.92410095215,0.173262545464,0.256777646921,0.94998886516,-0.0395789403798
2021/03/16/12:35:20.019240,338351,1615894520,18171072,mocap,-2.82228222656,9.14014355469,1.92464355469,0.173135100983,0.255119909116,0.950470660031,-0.0392886433084
2021/03/16/12:35:20.029163,338352,1615894520,28171062,mocap,-2.82262841797,9.13097949219,1.92509191895,0.172884692967,0.253559732693,0.950946201444,-0.0389829361517
2021/03/16/12:35:20.039073,338353,1615894520,38171053,mocap,-2.82299487305,9.12185253906,1.92546362305,0.172345235546,0.251744238114,0.951540708997,-0.038629504162
2021/03/16/12:35:20.050467,338354,1615894520,48171043,mocap,-2.82346875,9.11266796875,1.92578295898,0.172466117967,0.250132330161,0.951963279523,-0.0381466224877
2021/03/16/12:35:20.059058,338355,1615894520,58170080,mocap,-2.82391577148,9.10347949219,1.92599316406,0.17226488317,0.248497931132,0.952434445976,-0.037976575188
2021/03/16/12:35:20.069318,338356,1615894520,68170071,mocap,-2.82435546875,9.09445410156,1.92609082031,0.172069750071,0.247468258044,0.952745839043,-0.0377735125622
2021/03/16/12:35:20.080322,338357,1615894520,78171015,mocap,-2.82490283203,9.08538671875,1.92594555664,0.171154314169,0.246511026259,0.953189933629,-0.0369792507168
2021/03/16/12:35:20.090017,338358,1615894520,88171005,mocap,-2.82547802734,9.0764140625,1.92587280273,0.170696553967,0.245925772448,0.9534335575,-0.0367103738823
2021/03/16/12:35:20.100119,338359,1615894520,98170996,mocap,-2.82604785156,9.06739355469,1.92561682129,0.170587138664,0.245517955634,0.953571644864,-0.0363604035353
2021/03/16/12:35:20.109041,338360,1615894520,108170986,mocap,-2.82664282227,9.05853027344,1.92531933594,0.169817732192,0.245467009582,0.953751678503,-0.0355756045841
2021/03/16/12:35:20.120420,338361,1615894520,118170977,mocap,-2.82730932617,9.04963867187,1.92483874512,0.1688038562,0.245879877325,0.953844572693,-0.035055302241
2021/03/16/12:35:20.129015,338362,1615894520,128171206,mocap,-2.82796704102,9.04068164062,1.92426806641,0.168750386409,0.246127069625,0.953799642156,-0.0347997139546
2021/03/16/12:35:20.141364,338363,1615894520,138170004,mocap,-2.82868188477,9.03179589844,1.92360693359,0.16759067475,0.246542086467,0.953926593585,-0.0339769202274
2021/03/16/12:35:20.149360,338364,1615894520,148169994,mocap,-2.82931005859,9.022890625,1.9229239502,0.16741255793,0.247039213605,0.953830864104,-0.0339315994883
2021/03/16/12:35:20.159825,338365,1615894520,158171177,mocap,-2.83006591797,9.01386914062,1.92199511719,0.166543481931,0.247775862618,0.953807242689,-0.0334983513967
2021/03/16/12:35:20.169055,338366,1615894520,168171167,mocap,-2.83075976562,9.00479980469,1.92114282227,0.166164906706,0.248344261341,0.953739195059,-0.0331044168453
2021/03/16/12:35:20.179330,338367,1615894520,178171158,mocap,-2.83149487305,8.99574023438,1.92007788086,0.165240507304,0.249136959096,0.953695556404,-0.0330324938007
2021/03/16/12:35:20.191076,338368,1615894520,188171148,mocap,-2.83224755859,8.98666015625,1.91903967285,0.165192629299,0.249516407584,0.953621070779,-0.0325548879198
2021/03/16/12:35:20.199038,338369,1615894520,198171139,mocap,-2.83298632813,8.97740820312,1.9178059082,0.164185616746,0.250389388883,0.953570355662,-0.0324317092328
2021/03/16/12:35:20.211052,338370,1615894520,208171129,mocap,-2.8337878418,8.96811035156,1.9165645752,0.164101001032,0.25092741786,0.953456242645,-0.0320544430718
2021/03/16/12:35:20.219354,338371,1615894520,218170166,mocap,-2.83452075195,8.95887695312,1.9152479248,0.163647604387,0.251657168929,0.953335160396,-0.03225192095
2021/03/16/12:35:20.230813,338372,1615894520,228170156,mocap,-2.83532495117,8.94953710937,1.91387634277,0.162803504203,0.251971180884,0.953402955534,-0.0320678673469
2021/03/16/12:35:20.239054,338373,1615894520,238171101,mocap,-2.83614526367,8.94009375,1.91255700684,0.163016034622,0.252045487713,0.953356558391,-0.031782284961
2021/03/16/12:35:20.250868,338374,1615894520,248171091,mocap,-2.83700170898,8.93061230469,1.91111047363,0.162366629007,0.252609333155,0.953300631866,-0.0323033236414
2021/03/16/12:35:20.259364,338375,1615894520,258171082,mocap,-2.83781005859,8.92122167969,1.90981274414,0.162311976809,0.252372809643,0.953367179058,-0.0324623658602
2021/03/16/12:35:20.270719,338376,1615894520,268171072,mocap,-2.83871166992,8.91168359375,1.90847473145,0.162085270303,0.252594131026,0.953328892521,-0.0329938484266
2021/03/16/12:35:20.279270,338377,1615894520,278171062,mocap,-2.83960839844,8.90204492187,1.90717834473,0.161705662245,0.252497723061,0.953409027555,-0.0332776046713
2021/03/16/12:35:20.290750,338378,1615894520,288171053,mocap,-2.84055224609,8.89241503906,1.90603796387,0.162312872203,0.252356730084,0.953318036965,-0.0339902109647
2021/03/16/12:35:20.299024,338379,1615894520,298171043,mocap,-2.84141723633,8.8828828125,1.90510949707,0.162182226673,0.251815737726,0.953448936259,-0.0349413035143
2021/03/16/12:35:20.310668,338380,1615894520,308170080,mocap,-2.84241015625,8.87316210938,1.90416125488,0.162549138703,0.251869293611,0.953347930477,-0.0356000074931
2021/03/16/12:35:20.319194,338381,1615894520,318170071,mocap,-2.84340307617,8.86343847656,1.90331677246,0.16243992788,0.251497571725,0.953434260803,-0.0364053918668
2021/03/16/12:35:20.330695,338382,1615894520,328171015,mocap,-2.84436694336,8.85376171875,1.90267358398,0.163636778202,0.251169923751,0.953272339111,-0.037530342129
2021/03/16/12:35:20.339045,338383,1615894520,338171005,mocap,-2.84538745117,8.84418554687,1.9020546875,0.163372583624,0.251069374096,0.953316286309,-0.038231322353
2021/03/16/12:35:20.349697,338384,1615894520,348170996,mocap,-2.84645263672,8.83459179687,1.9013684082,0.163860458502,0.25154118269,0.953064908807,-0.0392945869361
2021/03/16/12:35:20.360658,338385,1615894520,358170986,mocap,-2.84752734375,8.8250546875,1.90086450195,0.164442039258,0.251554115962,0.952921337506,-0.0402525702166
2021/03/16/12:35:20.369148,338386,1615894520,368170977,mocap,-2.848578125,8.81562304688,1.90050256348,0.165260262804,0.252619470181,0.952466354114,-0.0409914967979
2021/03/16/12:35:20.379115,338387,1615894520,378171206,mocap,-2.84978808594,8.80632714844,1.90053796387,0.165030549816,0.254520493638,0.951981569976,-0.0414165106363
2021/03/16/12:35:20.390510,338388,1615894520,388170004,mocap,-2.85097827148,8.79702636719,1.90099060059,0.165343237535,0.256202864242,0.951457237347,-0.0418428643937
2021/03/16/12:35:20.400427,338389,1615894520,398169994,mocap,-2.85225292969,8.78759375,1.90167834473,0.165638205076,0.257745237811,0.950968515014,-0.042311567413
2021/03/16/12:35:20.409163,338390,1615894520,408171177,mocap,-2.85342285156,8.77815234375,1.9026295166,0.166275952705,0.258826471721,0.950527505546,-0.0431117840944
2021/03/16/12:35:20.420399,338391,1615894520,418171167,mocap,-2.85459350586,8.76863671875,1.9037322998,0.166827350199,0.259383247664,0.950248646195,-0.0437774703655
2021/03/16/12:35:20.429197,338392,1615894520,428171158,mocap,-2.85570483398,8.75905078125,1.9050065918,0.16755813962,0.25984387299,0.949951124816,-0.0447024585312
2021/03/16/12:35:20.439172,338393,1615894520,438171148,mocap,-2.85693334961,8.74938867187,1.90645349121,0.167381295866,0.260776573582,0.949701971124,-0.0452243818391
2021/03/16/12:35:20.449595,338394,1615894520,448171139,mocap,-2.85807836914,8.74000195313,1.9081114502,0.167978781038,0.260776344459,0.949540009313,-0.0463960392305
