time,.header.seq,.header.stamp.secs,.header.stamp.nsecs,.header.frame_id,.pose.position.x,.pose.position.y,.pose.position.z,.pose.orientation.x,.pose.orientation.y,.pose.orientation.z,.pose.orientation.w
2021/03/16/12:23:53.409371,279068,1615893833,408171177,mocap,-2.76492651367,10.4247773437,1.93363830566,0.153930692781,0.205218964368,0.966184310284,0.0260461696593
2021/03/16/12:23:53.420714,279069,1615893833,418171167,mocap,-2.76485351563,10.4247548828,1.93360620117,0.154001034926,0.205040252596,0.966216874745,0.0258290257657
2021/03/16/12:23:53.429658,279070,1615893833,428171158,mocap,-2.76477416992,10.4247216797,1.93359155273,0.153971753591,0.205012389747,0.96622709959,0.0258419011437
2021/03/16/12:23:53.440688,279071,1615893833,438171148,mocap,-2.76473754883,10.4246591797,1.93357775879,0.154063535549,0.20491721924,0.966234995626,0.0257544107926
2021/03/16/12:23:53.449012,279072,1615893833,448171139,mocap,-2.76466943359,10.4246777344,1.93360803223,0.153985745162,0.20484272949,0.966263703031,0.0257353035409
2021/03/16/12:23:53.460494,279073,1615893833,458171129,mocap,-2.76460888672,10.4246748047,1.93358752441,0.154171027875,0.204807675283,0.966245374496,0.0255928774677
2021/03/16/12:23:53.469327,279074,1615893833,468171120,mocap,-2.76455664062,10.4246337891,1.93361328125,0.154112167487,0.204803775887,0.96625511326,0.0256107567206
2021/03/16/12:23:53.480651,279075,1615893833,478171110,mocap,-2.76448852539,10.4245898438,1.93356176758,0.154416699626,0.204794163783,0.966209549187,0.0255723887033
2021/03/16/12:23:53.489208,279076,1615893833,488171101,mocap,-2.76444506836,10.4246298828,1.93358947754,0.154354747369,0.204677855715,0.966242860753,0.0256186381397
2021/03/16/12:23:53.500615,279077,1615893833,498171091,mocap,-2.76438012695,10.4246230469,1.93358410645,0.154333109499,0.204635879523,0.966256578307,0.0255671532532
2021/03/16/12:23:53.508996,279078,1615893833,508171082,mocap,-2.76434594727,10.4245791016,1.93357763672,0.154445320464,0.204750970753,0.96621458455,0.0255550538905
2021/03/16/12:23:53.520761,279079,1615893833,518171072,mocap,-2.76432617188,10.424609375,1.93359643555,0.154583544543,0.204767153478,0.966189746767,0.0255286174153
2021/03/16/12:23:53.529304,279080,1615893833,528171062,mocap,-2.76426611328,10.4246005859,1.93358435059,0.154547190011,0.20473397096,0.966201868857,0.0255559699938
2021/03/16/12:23:53.540607,279081,1615893833,538171053,mocap,-2.76423120117,10.4245996094,1.93359399414,0.154603385058,0.20483395513,0.966172257377,0.0255343888548
2021/03/16/12:23:53.549898,279082,1615893833,548171043,mocap,-2.76419262695,10.4246162109,1.93357202148,0.154626502096,0.20484303704,0.966164993172,0.0255967082901
2021/03/16/12:23:53.559037,279083,1615893833,558171034,mocap,-2.76417016602,10.4245996094,1.93359545898,0.154764401007,0.204882037271,0.966136722402,0.0255178238524
2021/03/16/12:23:53.570440,279084,1615893833,568171024,mocap,-2.7641472168,10.4246386719,1.93359350586,0.154768208897,0.205018925592,0.9661013018,0.0257354955168
2021/03/16/12:23:53.579075,279085,1615893833,578171015,mocap,-2.7641262207,10.4246308594,1.93358508301,0.154840497372,0.205061241488,0.966081790224,0.0256959436087
2021/03/16/12:23:53.590302,279086,1615893833,588171005,mocap,-2.76411645508,10.4246230469,1.93359313965,0.154859541573,0.205175578467,0.96605155807,0.0258049257966
2021/03/16/12:23:53.599329,279087,1615893833,598170996,mocap,-2.7641003418,10.4246621094,1.93362145996,0.155009996491,0.205180150791,0.966026507855,0.0258029444642
2021/03/16/12:23:53.609313,279088,1615893833,608170986,mocap,-2.76409814453,10.424671875,1.93363208008,0.15502937581,0.205280802098,0.96600033092,0.0258659400756
2021/03/16/12:23:53.619159,279089,1615893833,618170977,mocap,-2.76407641602,10.4246503906,1.93357824707,0.154954152257,0.205370869015,0.965990188517,0.0259803400806
2021/03/16/12:23:53.631203,279090,1615893833,628171206,mocap,-2.76408886719,10.4246396484,1.93359631348,0.155008966998,0.205410555336,0.965970150208,0.0260842472124
2021/03/16/12:23:53.639037,279091,1615893833,638171196,mocap,-2.76409619141,10.4246376953,1.93361560059,0.15504711951,0.205436725669,0.965956767966,0.0261469487622
2021/03/16/12:23:53.651181,279092,1615893833,648171186,mocap,-2.7641003418,10.424640625,1.93361987305,0.154991714473,0.205537662192,0.96594019224,0.0262943209945
2021/03/16/12:23:53.659068,279093,1615893833,658171177,mocap,-2.76409838867,10.4246494141,1.93362524414,0.15496379602,0.205648660404,0.965918725904,0.0263792443827
2021/03/16/12:23:53.671495,279094,1615893833,668171167,mocap,-2.76408251953,10.4246533203,1.93364331055,0.155047272685,0.205712880436,0.965892623185,0.0263440301086
2021/03/16/12:23:53.678913,279095,1615893833,678171158,mocap,-2.76409887695,10.4246347656,1.93365026855,0.155212007317,0.206061671978,0.96578681664,0.0265261765683
2021/03/16/12:23:53.691089,279096,1615893833,688171148,mocap,-2.76408740234,10.4246572266,1.9336484375,0.155265315796,0.206177688188,0.965752787298,0.0265516049839
2021/03/16/12:23:53.699367,279097,1615893833,698171139,mocap,-2.7641171875,10.4246435547,1.93368078613,0.155305494919,0.206369891617,0.965698573942,0.0267940815436
2021/03/16/12:23:53.711031,279098,1615893833,708171129,mocap,-2.76413500977,10.4246337891,1.93367785645,0.155296329786,0.20665868454,0.965633370385,0.0269708308357
2021/03/16/12:23:53.719258,279099,1615893833,718171120,mocap,-2.76416918945,10.4246201172,1.93370922852,0.155189072303,0.206648754706,0.96564811506,0.0271360122799
2021/03/16/12:23:53.731049,279100,1615893833,728171110,mocap,-2.76418017578,10.4245986328,1.93368554688,0.155195808222,0.206681360837,0.965636688149,0.0272554602269
2021/03/16/12:23:53.739298,279101,1615893833,738171101,mocap,-2.76421044922,10.4245195313,1.93369628906,0.155277796339,0.206811566754,0.965590091803,0.0274509328243
2021/03/16/12:23:53.751133,279102,1615893833,748171091,mocap,-2.76422753906,10.424484375,1.93372497559,0.155221040744,0.206710992251,0.965617715012,0.0275576599896
2021/03/16/12:23:53.759474,279103,1615893833,758171082,mocap,-2.76426171875,10.4244589844,1.93377709961,0.155155923416,0.206577655957,0.965653269085,0.0276778967475
2021/03/16/12:23:53.770803,279104,1615893833,768171072,mocap,-2.7642668457,10.4244052734,1.93372351074,0.155253385049,0.206581295251,0.965629188442,0.0279433444965
2021/03/16/12:23:53.779337,279105,1615893833,778171062,mocap,-2.76428295898,10.424328125,1.9337109375,0.155454244255,0.206450173494,0.965626156137,0.0279004402768
2021/03/16/12:23:53.790695,279106,1615893833,788171053,mocap,-2.76430883789,10.4243183594,1.93374658203,0.155443851513,0.206401802892,0.965633918203,0.028046942381
2021/03/16/12:23:53.799294,279107,1615893833,798171043,mocap,-2.76431665039,10.4243007813,1.93373535156,0.155389595525,0.206321929826,0.965655583758,0.0281888167505
2021/03/16/12:23:53.809650,279108,1615893833,808171034,mocap,-2.76436425781,10.4242910156,1.93375085449,0.155343109738,0.206318518645,0.965656779671,0.0284282493632
2021/03/16/12:23:53.819437,279109,1615893833,818171024,mocap,-2.76437524414,10.4242646484,1.93371496582,0.15528489332,0.20642503383,0.965637027641,0.0286431780191
2021/03/16/12:23:53.830493,279110,1615893833,828171015,mocap,-2.76441210937,10.42428125,1.93371533203,0.155388729175,0.206492626213,0.965601943645,0.0287753672753
2021/03/16/12:23:53.839347,279111,1615893833,838171005,mocap,-2.76444360352,10.424328125,1.93370910645,0.155336609608,0.206544786178,0.965597182864,0.0288422089577
2021/03/16/12:23:53.850620,279112,1615893833,848170996,mocap,-2.76447119141,10.4243164062,1.93370727539,0.155450592934,0.206761892406,0.965528391971,0.0289749316798
2021/03/16/12:23:53.859534,279113,1615893833,858170986,mocap,-2.76450463867,10.4243125,1.93368237305,0.155503748165,0.206895936678,0.965489322118,0.0290348338678
2021/03/16/12:23:53.870903,279114,1615893833,868170977,mocap,-2.76452929688,10.4243642578,1.93372546387,0.155531707481,0.206960415406,0.965471735152,0.0290102905951
2021/03/16/12:23:53.879214,279115,1615893833,878171206,mocap,-2.76456396484,10.4243935547,1.93372387695,0.155531314205,0.207027105682,0.965455398047,0.0290802210488
2021/03/16/12:23:53.890583,279116,1615893833,888171196,mocap,-2.76458642578,10.4243583984,1.93368493652,0.155521997251,0.207165503802,0.96542523117,0.0291457596428
2021/03/16/12:23:53.899541,279117,1615893833,898171186,mocap,-2.76463964844,10.4243427734,1.93370532227,0.155471577042,0.20720769643,0.965420693323,0.0292652158069
2021/03/16/12:23:53.910559,279118,1615893833,908171177,mocap,-2.76470458984,10.4243730469,1.93371813965,0.155354422501,0.207448203989,0.965385562877,0.0293419642817
2021/03/16/12:23:53.919381,279119,1615893833,918171167,mocap,-2.76475195313,10.424375,1.93372216797,0.15536868953,0.207551619102,0.965362563782,0.0292917532311
2021/03/16/12:23:53.930732,279120,1615893833,928171158,mocap,-2.76482055664,10.4243242187,1.93368908691,0.155234510811,0.207657054554,0.965359221921,0.0293661287918
2021/03/16/12:23:53.939092,279121,1615893833,938171148,mocap,-2.76489501953,10.4242832031,1.93373059082,0.155242494238,0.207849847449,0.965313129308,0.0294749018919
2021/03/16/12:23:53.950708,279122,1615893833,948171139,mocap,-2.76494750977,10.4242724609,1.93373706055,0.155169647965,0.207866211814,0.965320577443,0.0294990572518
2021/03/16/12:23:53.959444,279123,1615893833,958171129,mocap,-2.76499707031,10.4242431641,1.93377563477,0.155087997263,0.207957807844,0.965314040067,0.0294969169365
2021/03/16/12:23:53.969411,279124,1615893833,968171120,mocap,-2.76508398437,10.4241445313,1.93375549316,0.155121850188,0.208078016989,0.9652832976,0.0294773463804
2021/03/16/12:23:53.981265,279125,1615893833,978171110,mocap,-2.76514526367,10.4240761719,1.9337767334,0.154821375274,0.208314348513,0.965275548152,0.0296412652144
2021/03/16/12:23:53.989493,279126,1615893833,988171101,mocap,-2.7651887207,10.4240371094,1.9338046875,0.154970867237,0.208347454132,0.965242002512,0.0297194614127
2021/03/16/12:23:54.000938,279127,1615893833,998171091,mocap,-2.7652487793,10.4239150391,1.93376660156,0.15491716682,0.208580176401,0.965196074124,0.0298584592402
2021/03/16/12:23:54.009407,279128,1615893834,8171082,mocap,-2.76530688477,10.4238085937,1.93378039551,0.155022319083,0.208754187728,0.965140270121,0.0299003791579
2021/03/16/12:23:54.021029,279129,1615893834,18171072,mocap,-2.7653503418,10.4236953125,1.9338026123,0.154914510933,0.209035951047,0.965090893741,0.0300838192705
2021/03/16/12:23:54.029308,279130,1615893834,28171062,mocap,-2.76537890625,10.4235947266,1.93380932617,0.154946644362,0.209381712326,0.965005768366,0.0302441805906
2021/03/16/12:23:54.040869,279131,1615893834,38171053,mocap,-2.76540258789,10.4234306641,1.93379785156,0.154963351483,0.209732243612,0.964919901943,0.0304687185068
2021/03/16/12:23:54.049246,279132,1615893834,48171043,mocap,-2.76543212891,10.4232197266,1.93380383301,0.154810437846,0.209992450648,0.96487845231,0.0307647276172
2021/03/16/12:23:54.060960,279133,1615893834,58171034,mocap,-2.76543408203,10.4230029297,1.93375097656,0.155047241374,0.21033322219,0.964762116658,0.0308924264927
2021/03/16/12:23:54.069178,279134,1615893834,68171024,mocap,-2.76544482422,10.4227597656,1.9337454834,0.155029873372,0.210544799807,0.964714103359,0.0310375897029
2021/03/16/12:23:54.080925,279135,1615893834,78171015,mocap,-2.76543237305,10.4224677734,1.93369677734,0.155223635258,0.210756179568,0.964632907023,0.0311575286124
2021/03/16/12:23:54.089453,279136,1615893834,88171005,mocap,-2.76544604492,10.4221484375,1.93371252441,0.155526479112,0.21099847361,0.964528738946,0.0312325912242
2021/03/16/12:23:54.101041,279137,1615893834,98170996,mocap,-2.76539892578,10.4218125,1.93367578125,0.155829459442,0.211118705555,0.964450045427,0.0313397952353
2021/03/16/12:23:54.109256,279138,1615893834,108170986,mocap,-2.76535498047,10.4214306641,1.93367565918,0.155902848993,0.211116396873,0.964437476426,0.0313771832912
2021/03/16/12:23:54.121204,279139,1615893834,118170977,mocap,-2.76532470703,10.4210029297,1.93370349121,0.156128159496,0.21124610553,0.964368556453,0.0315018840354
2021/03/16/12:23:54.129906,279140,1615893834,128171206,mocap,-2.76527563477,10.4205458984,1.93370422363,0.156279293809,0.211398590605,0.964305047757,0.0316732949989
2021/03/16/12:23:54.140840,279141,1615893834,138171196,mocap,-2.76520385742,10.4200253906,1.93369165039,0.156148948228,0.211584474596,0.964281582477,0.0317890398789
2021/03/16/12:23:54.149072,279142,1615893834,148171186,mocap,-2.76515771484,10.4195029297,1.93367980957,0.156302194892,0.211549263004,0.964259190642,0.0319491862889
2021/03/16/12:23:54.160630,279143,1615893834,158171177,mocap,-2.76511206055,10.4189150391,1.93361767578,0.156313423626,0.211497861591,0.964264947047,0.0320605903975
2021/03/16/12:23:54.169261,279144,1615893834,168171167,mocap,-2.76505078125,10.4183378906,1.93357177734,0.156273435361,0.211929826779,0.96417018221,0.0322525282872
2021/03/16/12:23:54.180750,279145,1615893834,178171158,mocap,-2.76504785156,10.4177255859,1.9336340332,0.156746308102,0.211862981997,0.964110725347,0.0321742041852
2021/03/16/12:23:54.189143,279146,1615893834,188171148,mocap,-2.76502319336,10.4170771484,1.9336237793,0.156743878949,0.211864458108,0.964110408501,0.0321857381937
2021/03/16/12:23:54.200672,279147,1615893834,198171139,mocap,-2.76499316406,10.4163603516,1.93357592773,0.156412843608,0.211788932566,0.964177391897,0.0322867909066
2021/03/16/12:23:54.209547,279148,1615893834,208171129,mocap,-2.76497827148,10.4156582031,1.93356884766,0.156521094739,0.211752681021,0.964165932101,0.0323418687309
2021/03/16/12:23:54.221016,279149,1615893834,218171120,mocap,-2.76497143555,10.4149101563,1.93349743652,0.156346424752,0.211523680134,0.964243690676,0.0323673012882
2021/03/16/12:23:54.229112,279150,1615893834,228171110,mocap,-2.76495092773,10.4141972656,1.93351464844,0.156229287904,0.211275847543,0.964320361307,0.0322671058886
2021/03/16/12:23:54.240710,279151,1615893834,238171101,mocap,-2.76492016602,10.4134394531,1.9334855957,0.156006693088,0.211383751915,0.96432505113,0.0324964450698
2021/03/16/12:23:54.249477,279152,1615893834,248171091,mocap,-2.76489770508,10.41259375,1.93341210938,0.155789449714,0.211364610631,0.964359470794,0.0326414913919
2021/03/16/12:23:54.260777,279153,1615893834,258171082,mocap,-2.76483813477,10.4118125,1.9333704834,0.155622728725,0.21144849602,0.964365473828,0.0327159313969
2021/03/16/12:23:54.269324,279154,1615893834,268171072,mocap,-2.76477954102,10.4110205078,1.93337609863,0.155371958889,0.211579594008,0.964377000786,0.0327205403302
2021/03/16/12:23:54.280701,279155,1615893834,278171062,mocap,-2.76470947266,10.4101660156,1.93330456543,0.15517952712,0.211480331592,0.964426823161,0.0328068463662
2021/03/16/12:23:54.289469,279156,1615893834,288171053,mocap,-2.76460791016,10.409265625,1.93326037598,0.154975015097,0.211465926288,0.964461903553,0.0328350629025
2021/03/16/12:23:54.300424,279157,1615893834,298171043,mocap,-2.76449243164,10.4084238281,1.93325170898,0.155100007622,0.211588931793,0.964411943931,0.0329197022349
2021/03/16/12:23:54.309294,279158,1615893834,308171034,mocap,-2.76434790039,10.4074882813,1.93316357422,0.154994796321,0.21145410076,0.96445668136,0.0329710143041
2021/03/16/12:23:54.320544,279159,1615893834,318171024,mocap,-2.76419091797,10.4065029297,1.9330925293,0.154951980866,0.211525225944,0.964442945931,0.0331174916553
2021/03/16/12:23:54.329239,279160,1615893834,328171015,mocap,-2.7639987793,10.4055351563,1.93303601074,0.154672470835,0.211570024001,0.964475136587,0.0332005055233
2021/03/16/12:23:54.340418,279161,1615893834,338171005,mocap,-2.76382983398,10.4045761719,1.93301464844,0.154535963155,0.211668065424,0.964469489588,0.0333747976847
2021/03/16/12:23:54.349326,279162,1615893834,348170996,mocap,-2.76359204102,10.4035947266,1.93292797852,0.154407622453,0.211769277396,0.964463340424,0.0335040399757
2021/03/16/12:23:54.359053,279163,1615893834,358170986,mocap,-2.76342211914,10.4025380859,1.93290637207,0.154175936588,0.21178597405,0.964490416537,0.0336855059948
2021/03/16/12:23:54.369154,279164,1615893834,368170977,mocap,-2.7631809082,10.4015292969,1.93284082031,0.154270547381,0.212020421829,0.964421763013,0.0337432489764
2021/03/16/12:23:54.379261,279165,1615893834,378171206,mocap,-2.76284765625,10.4004892578,1.93276171875,0.153981582037,0.212076310197,0.96445091065,0.033878502455
2021/03/16/12:23:54.391056,279166,1615893834,388171196,mocap,-2.76259594727,10.3993964844,1.93274755859,0.153959848809,0.211903571714,0.964499269218,0.0336807809695
2021/03/16/12:23:54.399096,279167,1615893834,398171186,mocap,-2.76227612305,10.3983320312,1.93270471191,0.153910669094,0.212162527502,0.964451173307,0.0336526836947
2021/03/16/12:23:54.411172,279168,1615893834,408171177,mocap,-2.76192431641,10.3971699219,1.93251696777,0.15418434746,0.212290747913,0.964383729931,0.033523812922
2021/03/16/12:23:54.419277,279169,1615893834,418171167,mocap,-2.761578125,10.3960439453,1.93244482422,0.154151382062,0.212671773506,0.964305186832,0.0335196523883
2021/03/16/12:23:54.431174,279170,1615893834,428171158,mocap,-2.76121679687,10.3948408203,1.9323770752,0.154051768313,0.212794649293,0.964298449412,0.0333916436235
2021/03/16/12:23:54.439148,279171,1615893834,438171148,mocap,-2.76084619141,10.3936132812,1.93228125,0.154069697928,0.212764030248,0.964311962836,0.0331126287156
2021/03/16/12:23:54.451055,279172,1615893834,448171139,mocap,-2.76043774414,10.3924677734,1.9323326416,0.153849694367,0.212838136152,0.964342790351,0.0327595459336
2021/03/16/12:23:54.459248,279173,1615893834,458171129,mocap,-2.76003515625,10.3911435547,1.93221264648,0.153951658299,0.212844130915,0.964335512365,0.0324542433627
2021/03/16/12:23:54.470789,279174,1615893834,468171120,mocap,-2.75955883789,10.3898710937,1.9321439209,0.153666343096,0.21298456439,0.964352463343,0.0323815249756
2021/03/16/12:23:54.479344,279175,1615893834,478171110,mocap,-2.75913061523,10.3884951172,1.93204272461,0.153908657037,0.212936571424,0.964339128187,0.0319403046331
2021/03/16/12:23:54.490847,279176,1615893834,488171101,mocap,-2.75866308594,10.3871367187,1.93200292969,0.15396878805,0.213051031751,0.964317069919,0.0315508892994
2021/03/16/12:23:54.499614,279177,1615893834,498171091,mocap,-2.75815405273,10.3857402344,1.93186633301,0.154082638815,0.212932268759,0.96433300137,0.0313090322512
2021/03/16/12:23:54.510771,279178,1615893834,508171082,mocap,-2.75771582031,10.3843544922,1.93183508301,0.154172837094,0.213237847785,0.964264019843,0.0309071196523
2021/03/16/12:23:54.519528,279179,1615893834,518171072,mocap,-2.75714135742,10.3828955078,1.93173400879,0.153915350772,0.213170575819,0.964330057703,0.0305926705306
2021/03/16/12:23:54.529836,279180,1615893834,528171062,mocap,-2.75664819336,10.3814648438,1.93170568848,0.153883972458,0.213055216881,0.964381636252,0.0299209252442
2021/03/16/12:23:54.540823,279181,1615893834,538171053,mocap,-2.75609619141,10.3799785156,1.93161901855,0.154105016335,0.213298275451,0.964303154794,0.0295791138358
2021/03/16/12:23:54.549094,279182,1615893834,548171043,mocap,-2.75552978516,10.3784941406,1.93146557617,0.15411594554,0.213319323505,0.964317293981,0.0289013572038
2021/03/16/12:23:54.560872,279183,1615893834,558171034,mocap,-2.75500219727,10.3769560547,1.93138671875,0.154303417291,0.21355642337,0.964243698403,0.0286042337688
2021/03/16/12:23:54.569217,279184,1615893834,568171024,mocap,-2.75442602539,10.3755107422,1.93124658203,0.153855041788,0.213771280443,0.964277070154,0.0282877586551
2021/03/16/12:23:54.580064,279185,1615893834,578171015,mocap,-2.75388208008,10.3739472656,1.93111193848,0.154171184571,0.214025046117,0.964187947463,0.0276789194275
2021/03/16/12:23:54.589455,279186,1615893834,588171005,mocap,-2.7532578125,10.3724677734,1.9310369873,0.153486222763,0.214174422779,0.964271715608,0.0274106062059
2021/03/16/12:23:54.599732,279187,1615893834,598170996,mocap,-2.75265820313,10.3708613281,1.93084472656,0.153819697797,0.214383136431,0.96418239151,0.0270495408882
2021/03/16/12:23:54.611003,279188,1615893834,608170986,mocap,-2.75205102539,10.3693164063,1.93070214844,0.154032610443,0.214727555558,0.964085501052,0.026555131294
2021/03/16/12:23:54.619615,279189,1615893834,618170977,mocap,-2.75143847656,10.3677304688,1.93047631836,0.15357620037,0.215198134097,0.96405480442,0.0265037612574
2021/03/16/12:23:54.629587,279190,1615893834,628171206,mocap,-2.75081616211,10.3660644531,1.93032556152,0.153717001463,0.21520878384,0.964039502109,0.0261555212428
2021/03/16/12:23:54.640007,279191,1615893834,638171196,mocap,-2.75016674805,10.3645537109,1.9301887207,0.153608471094,0.215588804859,0.963984056246,0.0257029747063
2021/03/16/12:23:54.651391,279192,1615893834,648171186,mocap,-2.74952856445,10.3627714844,1.92987646484,0.153334983798,0.215885770669,0.963957808388,0.0258274729593
2021/03/16/12:23:54.659431,279193,1615893834,658171177,mocap,-2.74882641602,10.3611142578,1.92965112305,0.153552647206,0.216177806224,0.963862835566,0.0256355746455
2021/03/16/12:23:54.670142,279194,1615893834,668171167,mocap,-2.74820800781,10.3593769531,1.92945458984,0.153610257876,0.216302244334,0.963828691914,0.0255241471567
2021/03/16/12:23:54.681254,279195,1615893834,678171158,mocap,-2.74752954102,10.3576435547,1.92917333984,0.153339615931,0.216372832666,0.963858769621,0.0254173401887
2021/03/16/12:23:54.689149,279196,1615893834,688171148,mocap,-2.74689453125,10.3558369141,1.92885070801,0.15322164236,0.216591689896,0.963833283637,0.0252301695175
2021/03/16/12:23:54.701169,279197,1615893834,698171139,mocap,-2.74625976563,10.3539716797,1.92837756348,0.152977626109,0.216721522599,0.963839313139,0.0253654590951
2021/03/16/12:23:54.709378,279198,1615893834,708171129,mocap,-2.74561523438,10.3521640625,1.92797851562,0.152766729369,0.216782186617,0.963860114631,0.0253277726933
2021/03/16/12:23:54.720768,279199,1615893834,718171120,mocap,-2.74499584961,10.3503544922,1.92753039551,0.152720287556,0.216691425549,0.963888119796,0.0253187829243
2021/03/16/12:23:54.729184,279200,1615893834,728171110,mocap,-2.74430615234,10.3484560547,1.92676635742,0.153058437005,0.21685099864,0.96379954092,0.0252825157206
2021/03/16/12:23:54.739270,279201,1615893834,738171101,mocap,-2.74370166016,10.3465234375,1.92601989746,0.15303694207,0.217089197445,0.963746647897,0.0253845294842
2021/03/16/12:23:54.750957,279202,1615893834,748171091,mocap,-2.74312182617,10.3447158203,1.92518786621,0.152794514103,0.217394677835,0.96371458753,0.0254475542911
2021/03/16/12:23:54.759401,279203,1615893834,758171082,mocap,-2.74248339844,10.3427958984,1.92413305664,0.152512260048,0.217970748172,0.963626696297,0.0255412523041
2021/03/16/12:23:54.770921,279204,1615893834,768171072,mocap,-2.74193481445,10.3409248047,1.92312231445,0.152408733605,0.218628769414,0.963490289745,0.0256807016586
2021/03/16/12:23:54.778895,279205,1615893834,778171062,mocap,-2.74141552734,10.3390634766,1.92213708496,0.152097804302,0.219573329821,0.96331088507,0.026190769739
2021/03/16/12:23:54.790741,279206,1615893834,788171053,mocap,-2.74087939453,10.3372216797,1.92111901855,0.151721989342,0.220734558343,0.963095227338,0.0265382775462
2021/03/16/12:23:54.799379,279207,1615893834,798171043,mocap,-2.74039282227,10.3352841797,1.92016540527,0.15170032269,0.221878487752,0.962823319936,0.0269850133737
2021/03/16/12:23:54.810550,279208,1615893834,808171034,mocap,-2.73990454102,10.3332236328,1.9192310791,0.151557422797,0.222831406912,0.962610439987,0.0275253153148
2021/03/16/12:23:54.819453,279209,1615893834,818171024,mocap,-2.73937744141,10.3311503906,1.9183873291,0.15157891892,0.223944746135,0.962331481833,0.0281193049772
2021/03/16/12:23:54.830832,279210,1615893834,828171015,mocap,-2.73889599609,10.3290117187,1.91765856934,0.151334385408,0.224888211513,0.962130387666,0.0287804820889
2021/03/16/12:23:54.839199,279211,1615893834,838171005,mocap,-2.73841748047,10.3267226563,1.9168795166,0.151620409585,0.225453021046,0.961942294718,0.0291409558986
2021/03/16/12:23:54.850612,279212,1615893834,848170996,mocap,-2.73793408203,10.3243320312,1.9162232666,0.151841463373,0.226267403759,0.961705188051,0.0295022121415
2021/03/16/12:23:54.859271,279213,1615893834,858170986,mocap,-2.73743481445,10.3219521484,1.91561425781,0.152597692883,0.226921953029,0.961424370838,0.0297245899542
2021/03/16/12:23:54.870764,279214,1615893834,868170977,mocap,-2.73700830078,10.3194902344,1.91523425293,0.152441732232,0.227594027568,0.961273894317,0.0302484570846
2021/03/16/12:23:54.879251,279215,1615893834,878171206,mocap,-2.73658398438,10.3168574219,1.9148314209,0.153143295475,0.228428593399,0.960947509651,0.0307800090732
2021/03/16/12:23:54.890641,279216,1615893834,888171196,mocap,-2.73618847656,10.3141494141,1.91454992676,0.153038686207,0.228547570244,0.960924194988,0.0311423846907
2021/03/16/12:23:54.899190,279217,1615893834,898171186,mocap,-2.7358137207,10.3114238281,1.91444006348,0.153668840214,0.229152392348,0.960672807292,0.0313500515322
2021/03/16/12:23:54.910472,279218,1615893834,908171177,mocap,-2.7354921875,10.3085722656,1.91435534668,0.154099375016,0.229508987394,0.960503930074,0.0317995677048
2021/03/16/12:23:54.919140,279219,1615893834,918171167,mocap,-2.73518505859,10.3055234375,1.91428137207,0.154594941382,0.229971088764,0.960296176495,0.0323256454841
2021/03/16/12:23:54.930333,279220,1615893834,928171158,mocap,-2.73495214844,10.3025722656,1.9144329834,0.156003784831,0.230539808536,0.959927376891,0.0324600603546
2021/03/16/12:23:54.939244,279221,1615893834,938171148,mocap,-2.73466723633,10.2994130859,1.91425537109,0.155789907872,0.230493099846,0.959954720649,0.0330058347887
2021/03/16/12:23:54.950414,279222,1615893834,948171139,mocap,-2.73453564453,10.2963398437,1.91442272949,0.15728106099,0.23104847416,0.959572077834,0.0331766099843
2021/03/16/12:23:54.959439,279223,1615893834,958171129,mocap,-2.73435253906,10.2928681641,1.91407019043,0.156620254416,0.231424642687,0.95956533824,0.033868935011
2021/03/16/12:23:54.969240,279224,1615893834,968171120,mocap,-2.73430322266,10.2896904297,1.91406848145,0.15800022075,0.231820865176,0.959241766485,0.0339154247608
2021/03/16/12:23:54.980038,279225,1615893834,978171110,mocap,-2.73420458984,10.2861914062,1.91357897949,0.156916403835,0.232299320984,0.959273362756,0.0347688477663
2021/03/16/12:23:54.989700,279226,1615893834,988171101,mocap,-2.73433911133,10.2828144531,1.91356506348,0.157945338458,0.232999718003,0.958927976422,0.0349504870111
2021/03/16/12:23:55.001603,279227,1615893834,998171091,mocap,-2.7344362793,10.2791708984,1.91314758301,0.157938779919,0.23377196156,0.95871508638,0.0356566402102
2021/03/16/12:23:55.009311,279228,1615893835,8171082,mocap,-2.73462133789,10.2755302734,1.91273583984,0.157702495314,0.234388509941,0.958585224875,0.0361429033131
2021/03/16/12:23:55.021055,279229,1615893835,18171072,mocap,-2.73490234375,10.2718222656,1.91229699707,0.157693712126,0.235054091915,0.958413577694,0.0364099644007
2021/03/16/12:23:55.028929,279230,1615893835,28171062,mocap,-2.73525854492,10.2678896484,1.91172875977,0.157428880332,0.23621214258,0.958142534557,0.0371866819905
2021/03/16/12:23:55.039614,279231,1615893835,38171053,mocap,-2.73564575195,10.2639550781,1.91108764648,0.156977034914,0.236945238589,0.958028110674,0.0373804698469
2021/03/16/12:23:55.050903,279232,1615893835,48171043,mocap,-2.7360378418,10.2598613281,1.91040148926,0.15670933107,0.237863454023,0.957827357602,0.0378143479774
2021/03/16/12:23:55.059413,279233,1615893835,58171034,mocap,-2.73654101562,10.2557070312,1.90969921875,0.156233206618,0.238891439165,0.957625410965,0.0384139421977
2021/03/16/12:23:55.070805,279234,1615893835,68171024,mocap,-2.73706958008,10.2512802734,1.90887866211,0.156000089451,0.23984694605,0.957416394645,0.0386166630374
2021/03/16/12:23:55.079762,279235,1615893835,78171015,mocap,-2.7376237793,10.2467910156,1.9081541748,0.155624140521,0.240430251042,0.957322189327,0.0388411706849
2021/03/16/12:23:55.091116,279236,1615893835,88171005,mocap,-2.73820922852,10.242234375,1.90727807617,0.154824200334,0.241345727673,0.957211170022,0.039095688433
2021/03/16/12:23:55.099237,279237,1615893835,98170996,mocap,-2.73884155273,10.2373955078,1.90647583008,0.154622653724,0.241917185956,0.957094447326,0.039218968958
2021/03/16/12:23:55.110891,279238,1615893835,108170986,mocap,-2.73950268555,10.2324023437,1.90548266602,0.154261549131,0.242718119819,0.956948786706,0.0392467843563
2021/03/16/12:23:55.119221,279239,1615893835,118170977,mocap,-2.7402019043,10.2273320313,1.9046875,0.153961341426,0.243239144823,0.956857011465,0.0394369854449
2021/03/16/12:23:55.130960,279240,1615893835,128171206,mocap,-2.74097729492,10.2221494141,1.90383178711,0.153410393297,0.243650905654,0.956839756394,0.0394609947086
2021/03/16/12:23:55.139294,279241,1615893835,138171196,mocap,-2.74172680664,10.2165927734,1.90289855957,0.15316064678,0.243957090513,0.956795083315,0.0396221832712
2021/03/16/12:23:55.150858,279242,1615893835,148171186,mocap,-2.74254101563,10.2110341797,1.90203723145,0.152775765941,0.243958534485,0.956856334038,0.0396201291443
2021/03/16/12:23:55.159451,279243,1615893835,158171177,mocap,-2.74338647461,10.2052822266,1.9012232666,0.152400713006,0.243919166371,0.956933183901,0.0394504283224
2021/03/16/12:23:55.170923,279244,1615893835,168171167,mocap,-2.74430029297,10.1993466797,1.90037915039,0.152433186038,0.243915620615,0.956936617474,0.0392632350577
2021/03/16/12:23:55.179737,279245,1615893835,178171158,mocap,-2.74526904297,10.1932314453,1.89956945801,0.152393700033,0.243395029984,0.957088250779,0.038949765277
2021/03/16/12:23:55.189785,279246,1615893835,188171148,mocap,-2.74622875977,10.1869970703,1.89870739746,0.152009656546,0.243536560769,0.957114842715,0.0389125216609
2021/03/16/12:23:55.199415,279247,1615893835,198171139,mocap,-2.74730688477,10.1807597656,1.89803637695,0.151750910099,0.24291124973,0.95734029957,0.0382797928306
2021/03/16/12:23:55.210608,279248,1615893835,208171129,mocap,-2.7483605957,10.1742226563,1.89724914551,0.1514485236,0.242808156143,0.95741764754,0.0381966024821
2021/03/16/12:23:55.219418,279249,1615893835,218171120,mocap,-2.74953637695,10.1676132813,1.89647131348,0.151073947962,0.242614736255,0.957546655873,0.0376717244328
2021/03/16/12:23:55.230606,279250,1615893835,228171110,mocap,-2.75075512695,10.1610068359,1.89587683105,0.150727442905,0.242438225462,0.957658554326,0.0373501263379
2021/03/16/12:23:55.239210,279251,1615893835,238171101,mocap,-2.75199633789,10.1542685547,1.89526196289,0.150179683191,0.242162698552,0.957841825736,0.0366376049612
2021/03/16/12:23:55.250485,279252,1615893835,248171091,mocap,-2.75330322266,10.1473779297,1.89463378906,0.149362667608,0.242225179743,0.957962291698,0.0364143295217
2021/03/16/12:23:55.259200,279253,1615893835,258171082,mocap,-2.75460131836,10.1403408203,1.89402258301,0.148585110395,0.242376411618,0.958054396559,0.0361649744542
2021/03/16/12:23:55.270410,279254,1615893835,268171072,mocap,-2.75602929687,10.1333466797,1.8936015625,0.147919827871,0.242469676027,0.958162200029,0.0354031412615
2021/03/16/12:23:55.279462,279255,1615893835,278171062,mocap,-2.75744970703,10.1262373047,1.8932689209,0.147026373611,0.242187215492,0.958389392886,0.0349052770433
2021/03/16/12:23:55.290363,279256,1615893835,288171053,mocap,-2.75892382812,10.1189560547,1.89275317383,0.146454119704,0.242758301187,0.958349083515,0.0344474805797
2021/03/16/12:23:55.299654,279257,1615893835,298171043,mocap,-2.76047143555,10.1116269531,1.89255749512,0.145691007616,0.242593042427,0.958529051546,0.0338349548997
2021/03/16/12:23:55.309528,279258,1615893835,308171034,mocap,-2.76190136719,10.1042832031,1.8921965332,0.145090137886,0.243445903949,0.958400665212,0.0339281133553
2021/03/16/12:23:55.320464,279259,1615893835,318171024,mocap,-2.76351879883,10.0968232422,1.89208105469,0.144324535103,0.243910386944,0.958420169911,0.0333004204151
2021/03/16/12:23:55.329195,279260,1615893835,328171015,mocap,-2.76509472656,10.0892158203,1.89205407715,0.143604390103,0.244436366899,0.958407109814,0.0329311447189
2021/03/16/12:23:55.340448,279261,1615893835,338171005,mocap,-2.76666870117,10.0815771484,1.89210559082,0.142995348168,0.244498070748,0.958493979438,0.0325931628202
2021/03/16/12:23:55.349334,279262,1615893835,348170996,mocap,-2.76826098633,10.0738046875,1.89205505371,0.141626890537,0.244690506674,0.958662627838,0.0321613336627
2021/03/16/12:23:55.359262,279263,1615893835,358170986,mocap,-2.76989794922,10.0660683594,1.89238415527,0.141836587253,0.245360835816,0.958482894768,0.0314799945148
2021/03/16/12:23:55.369251,279264,1615893835,368170977,mocap,-2.77144555664,10.0581601563,1.89256799316,0.141399690469,0.245457280798,0.958536311436,0.0310642055308
2021/03/16/12:23:55.381585,279265,1615893835,378171206,mocap,-2.77307739258,10.0502529297,1.89292321777,0.140865769964,0.245834169422,0.958540291139,0.0303793090025
2021/03/16/12:23:55.389174,279266,1615893835,388171196,mocap,-2.77470996094,10.0423535156,1.89354943848,0.14039791714,0.246418411899,0.95847983208,0.0297119847462
2021/03/16/12:23:55.399628,279267,1615893835,398171186,mocap,-2.77626586914,10.0342402344,1.89429321289,0.140079008518,0.247120242999,0.958360317445,0.0292396774375
2021/03/16/12:23:55.411101,279268,1615893835,408171177,mocap,-2.77788818359,10.0261328125,1.89523425293,0.139603937362,0.247526609375,0.958341099182,0.0286994009785
2021/03/16/12:23:55.419174,279269,1615893835,418171167,mocap,-2.77939355469,10.0179648438,1.89627001953,0.139658457735,0.247782022028,0.958291551294,0.027872876108
2021/03/16/12:23:55.431105,279270,1615893835,428171158,mocap,-2.78088427734,10.0096914063,1.89732946777,0.13987244528,0.247436506752,0.958379387613,0.0268295986485
2021/03/16/12:23:55.439371,279271,1615893835,438171148,mocap,-2.7823503418,10.0012958984,1.89831140137,0.140343803671,0.247142252631,0.958419493589,0.0256203708704
2021/03/16/12:23:55.450442,279272,1615893835,448171139,mocap,-2.78374902344,9.99303808594,1.8994317627,0.140619303719,0.246679078618,0.958530046481,0.0244088181567
2021/03/16/12:23:55.459995,279273,1615893835,458171129,mocap,-2.78517211914,9.9847734375,1.90064978027,0.140675600489,0.246358640411,0.958629845621,0.0233796176888
2021/03/16/12:23:55.469389,279274,1615893835,468171120,mocap,-2.78662792969,9.97654589844,1.90199377441,0.140756654973,0.245552691804,0.958846927279,0.0224501530839
2021/03/16/12:23:55.479597,279275,1615893835,478171110,mocap,-2.78803662109,9.96819628906,1.90330200195,0.140715971853,0.244795674102,0.959069926064,0.021423569557
2021/03/16/12:23:55.491087,279276,1615893835,488171101,mocap,-2.78938208008,9.95998730469,1.90465222168,0.140714666508,0.243433464856,0.95943892325,0.0204079758426
2021/03/16/12:23:55.499668,279277,1615893835,498171091,mocap,-2.79062890625,9.95172949219,1.90573095703,0.139010522558,0.24268934698,0.959887046725,0.0198701846809
2021/03/16/12:23:55.510841,279278,1615893835,508171082,mocap,-2.79183349609,9.943609375,1.90685778809,0.139360644937,0.241671874812,0.960114871283,0.0187816238371
2021/03/16/12:23:55.519009,279279,1615893835,518171072,mocap,-2.79296411133,9.93562695313,1.90783508301,0.139450627616,0.240881570723,0.960322943388,0.0175910537796
2021/03/16/12:23:55.530153,279280,1615893835,528171062,mocap,-2.79401733398,9.927875,1.90860681152,0.139638040792,0.240788006991,0.960340384138,0.0163923423678
2021/03/16/12:23:55.540841,279281,1615893835,538171053,mocap,-2.79499707031,9.92025488281,1.90932800293,0.139942807963,0.24115851948,0.960216554156,0.0155806678545
2021/03/16/12:23:55.549142,279282,1615893835,548171043,mocap,-2.79597167969,9.91270410156,1.90990429687,0.139746681784,0.241988630594,0.960051244173,0.0146278132972
2021/03/16/12:23:55.560880,279283,1615893835,558171034,mocap,-2.79686621094,9.90536035156,1.91049475098,0.139693501028,0.242842289686,0.959850898715,0.0141279421039
2021/03/16/12:23:55.569269,279284,1615893835,568171024,mocap,-2.79775756836,9.89802148438,1.91111315918,0.139589357184,0.243904938877,0.959600503184,0.0138585860547
2021/03/16/12:23:55.580853,279285,1615893835,578171015,mocap,-2.79857324219,9.89062792969,1.91171020508,0.139089687669,0.244909244863,0.959422079602,0.0135200842406
2021/03/16/12:23:55.588941,279286,1615893835,588171005,mocap,-2.79933813477,9.88319824219,1.91241491699,0.138882716536,0.245646185849,0.959264089032,0.0134887032927
2021/03/16/12:23:55.600713,279287,1615893835,598170996,mocap,-2.80006958008,9.87570898438,1.91316699219,0.138546892119,0.245888475872,0.95925163849,0.0134132270459
2021/03/16/12:23:55.608977,279288,1615893835,608170986,mocap,-2.8006784668,9.86817285156,1.91403295898,0.138118887286,0.245570280581,0.959397609581,0.0132155798616
2021/03/16/12:23:55.620123,279289,1615893835,618170977,mocap,-2.80121606445,9.86057519531,1.91492907715,0.13791776583,0.245048232951,0.959562162539,0.0130581572092
2021/03/16/12:23:55.629297,279290,1615893835,628171206,mocap,-2.80173364258,9.85291796875,1.91592175293,0.137813522345,0.244567519613,0.959703187693,0.0128047384277
2021/03/16/12:23:55.639637,279291,1615893835,638171196,mocap,-2.80217016602,9.8452265625,1.91696704102,0.137463369571,0.243744947375,0.959963615158,0.0127308559295
2021/03/16/12:23:55.649361,279292,1615893835,648171186,mocap,-2.80249047852,9.83755078125,1.91802246094,0.137616882974,0.242928921182,0.960150706723,0.0125600117584
2021/03/16/12:23:55.660620,279293,1615893835,658171177,mocap,-2.80274023437,9.82980761719,1.91915136719,0.137463307382,0.241953872941,0.960421772707,0.0123357094375
2021/03/16/12:23:55.669212,279294,1615893835,668171167,mocap,-2.80287011719,9.82204199219,1.92025280762,0.137766346385,0.240952041158,0.960635370349,0.0119258764939
2021/03/16/12:23:55.680762,279295,1615893835,678171158,mocap,-2.8029675293,9.81425976562,1.92131518555,0.13749688407,0.239859524558,0.960951766242,0.0115637099492
2021/03/16/12:23:55.689152,279296,1615893835,688171148,mocap,-2.80305151367,9.80645898438,1.92234545898,0.138000481408,0.238618716197,0.96119588774,0.0109288768783
2021/03/16/12:23:55.700842,279297,1615893835,698171139,mocap,-2.80303515625,9.79863671875,1.92325378418,0.138254077816,0.23774094887,0.961382491502,0.0104290043041
2021/03/16/12:23:55.709319,279298,1615893835,708171129,mocap,-2.80301196289,9.79083789062,1.92407556152,0.1386512686,0.236603392746,0.961611550103,0.00989361065388
2021/03/16/12:23:55.720661,279299,1615893835,718171120,mocap,-2.8028894043,9.78296582031,1.92481530762,0.13924199592,0.235743314949,0.961743853851,0.00924693651873
2021/03/16/12:23:55.729248,279300,1615893835,728171110,mocap,-2.80269189453,9.77507617187,1.92538781738,0.139506926969,0.234815740521,0.961938995193,0.00852968598325
2021/03/16/12:23:55.740574,279301,1615893835,738171101,mocap,-2.80249804687,9.76718359375,1.92589782715,0.139883577487,0.234002207306,0.962089778129,0.00766827075267
2021/03/16/12:23:55.749130,279302,1615893835,748171091,mocap,-2.80226367188,9.7592265625,1.92623486328,0.140445055876,0.233534474345,0.962128800178,0.00670911533367
2021/03/16/12:23:55.759775,279303,1615893835,758171082,mocap,-2.80197827148,9.75128613281,1.92644177246,0.140878764734,0.233382823232,0.962108286502,0.00576883493225
2021/03/16/12:23:55.769441,279304,1615893835,768171072,mocap,-2.80163549805,9.7433046875,1.92647705078,0.141627342768,0.23328759868,0.962026831508,0.0047923245138
2021/03/16/12:23:55.781436,279305,1615893835,778171062,mocap,-2.80126123047,9.7352890625,1.92640307617,0.142328695891,0.233353154039,0.961912637313,0.00359594519641
2021/03/16/12:23:55.789242,279306,1615893835,788171053,mocap,-2.80085717773,9.72726074219,1.92621020508,0.142974708003,0.233341052936,0.961823690594,0.00231713507574
2021/03/16/12:23:55.799465,279307,1615893835,798171043,mocap,-2.80040063477,9.71916992188,1.92581665039,0.143363950917,0.233584971855,0.961708689807,0.00110779030008
2021/03/16/12:23:55.811122,279308,1615893835,808171034,mocap,-2.79992724609,9.71101464844,1.92529284668,0.144134331912,0.234206002728,0.961443070256,-0.000272648113962
2021/03/16/12:23:55.820004,279309,1615893835,818171024,mocap,-2.79939404297,9.70278320312,1.9246204834,0.145032138093,0.234490362834,0.961237000103,-0.00183383455593
2021/03/16/12:23:55.831444,279310,1615893835,828171015,mocap,-2.79884204102,9.6945546875,1.92378283691,0.145688359038,0.235281704237,0.960940570361,-0.00326107405935
2021/03/16/12:23:55.839179,279311,1615893835,838171005,mocap,-2.79828271484,9.6862578125,1.92273205566,0.146519087905,0.236339043259,0.960548539255,-0.00474528552776
2021/03/16/12:23:55.850998,279312,1615893835,848170996,mocap,-2.79767626953,9.67790625,1.92164892578,0.147304310875,0.237152119652,0.960219417322,-0.00624416171996
2021/03/16/12:23:55.859429,279313,1615893835,858170986,mocap,-2.79704077148,9.66950292969,1.92029260254,0.14817190313,0.238312808322,0.959786982409,-0.00781362971316
2021/03/16/12:23:55.871126,279314,1615893835,868170977,mocap,-2.79644702148,9.66099707031,1.9189185791,0.148766232487,0.239473750822,0.959393346095,-0.00923793752938
2021/03/16/12:23:55.879371,279315,1615893835,878171206,mocap,-2.79578417969,9.65244726562,1.91736279297,0.149836942238,0.240932886905,0.958846041458,-0.0107005117335
2021/03/16/12:23:55.890988,279316,1615893835,888171196,mocap,-2.79515625,9.64381835938,1.91573095703,0.150075688203,0.242283872608,0.958453285789,-0.0119630071025
2021/03/16/12:23:55.899380,279317,1615893835,898171186,mocap,-2.79450512695,9.63511425781,1.91399633789,0.150942005568,0.243867660445,0.957897619351,-0.01331276962
2021/03/16/12:23:55.911102,279318,1615893835,908171177,mocap,-2.79383007813,9.62629101563,1.91221691895,0.151377281259,0.245418506556,0.957416604758,-0.0144267535893
2021/03/16/12:23:55.919311,279319,1615893835,918171167,mocap,-2.79318652344,9.61737207031,1.91044555664,0.152356784821,0.246921069276,0.956849855632,-0.0159919171987
2021/03/16/12:23:55.930755,279320,1615893835,928171158,mocap,-2.79246777344,9.608359375,1.90851000977,0.152691914894,0.24837058456,0.956400675216,-0.017174827457
2021/03/16/12:23:55.939357,279321,1615893835,938171148,mocap,-2.79179199219,9.59924707031,1.90669055176,0.153169439682,0.24962307317,0.95597281802,-0.0185314632797
2021/03/16/12:23:55.949799,279322,1615893835,948171139,mocap,-2.79107885742,9.59003417969,1.90468664551,0.153950681358,0.251013297688,0.955455323294,-0.0199156947156
2021/03/16/12:23:55.959424,279323,1615893835,958171129,mocap,-2.79043652344,9.58080078125,1.90289355469,0.153572050532,0.25310408933,0.954945974432,-0.0207878774984
2021/03/16/12:23:55.970668,279324,1615893835,968171120,mocap,-2.78971582031,9.57141601562,1.90097558594,0.154322662869,0.254625701896,0.954392091215,-0.022045524812
2021/03/16/12:23:55.979440,279325,1615893835,978171110,mocap,-2.78901147461,9.5619453125,1.89904492188,0.154481730463,0.256323911805,0.953888142044,-0.0230402627976
2021/03/16/12:23:55.990616,279326,1615893835,988171101,mocap,-2.78832324219,9.552390625,1.89725305176,0.154608832335,0.258020525177,0.953396234848,-0.023603811338
2021/03/16/12:23:55.999668,279327,1615893835,998171091,mocap,-2.78764599609,9.5427578125,1.8957208252,0.154481230666,0.259897654299,0.95289557463,-0.0240578372895
2021/03/16/12:23:56.010747,279328,1615893836,8171082,mocap,-2.7869152832,9.53292382812,1.89422631836,0.154539253299,0.261518790499,0.952431449889,-0.0244924322127
2021/03/16/12:23:56.019667,279329,1615893836,18171072,mocap,-2.78618701172,9.52304199219,1.89286853027,0.154357199287,0.263024781405,0.952042480833,-0.0246358380654
2021/03/16/12:23:56.030491,279330,1615893836,28171062,mocap,-2.78547045898,9.51297363281,1.89181738281,0.154511308184,0.264240760578,0.951675563666,-0.0248333065059
2021/03/16/12:23:56.039292,279331,1615893836,38171053,mocap,-2.78472729492,9.50272363281,1.89081896973,0.154261289863,0.2652613056,0.951431959497,-0.0248419406724
2021/03/16/12:23:56.050471,279332,1615893836,48171043,mocap,-2.78392724609,9.49238964844,1.89001367188,0.154566347324,0.265862887238,0.951210921972,-0.0249791201294
2021/03/16/12:23:56.059163,279333,1615893836,58171034,mocap,-2.78316796875,9.48195800781,1.88948718262,0.15453395283,0.266654191408,0.951001859036,-0.0247037491512
2021/03/16/12:23:56.070557,279334,1615893836,68171024,mocap,-2.78239526367,9.47142382812,1.88925073242,0.153793796927,0.267147244013,0.950999798572,-0.0240665183822
2021/03/16/12:23:56.079758,279335,1615893836,78171015,mocap,-2.78163525391,9.46087695313,1.88936950684,0.153775485961,0.268202328956,0.950724220289,-0.0233252079087
2021/03/16/12:23:56.090333,279336,1615893836,88171005,mocap,-2.78083325195,9.45021191406,1.88978601074,0.153309804939,0.269117651199,0.950564564609,-0.0223340703486
2021/03/16/12:23:56.099804,279337,1615893836,98170996,mocap,-2.78006005859,9.43943652344,1.89054858398,0.152988840546,0.269511988141,0.950528501018,-0.0212900051192
2021/03/16/12:23:56.109119,279338,1615893836,108170986,mocap,-2.77927294922,9.42858300781,1.89148339844,0.152347914987,0.269747119782,0.950599553058,-0.0196746297163
2021/03/16/12:23:56.120431,279339,1615893836,118170977,mocap,-2.77843115234,9.41759765625,1.89237182617,0.152807751748,0.269115527615,0.950722065183,-0.018819710593
2021/03/16/12:23:56.129462,279340,1615893836,128171206,mocap,-2.77768334961,9.40661230469,1.89348779297,0.15271180144,0.268678466569,0.950884805085,-0.0175801056599
2021/03/16/12:23:56.139284,279341,1615893836,138171196,mocap,-2.77697729492,9.3956171875,1.89476281738,0.152532978473,0.267760738811,0.951198608837,-0.0160961385689
2021/03/16/12:23:56.149251,279342,1615893836,148171186,mocap,-2.77629614258,9.3845390625,1.89599633789,0.152707044488,0.2660416037,0.951672964465,-0.0148662290666
2021/03/16/12:23:56.159834,279343,1615893836,158171177,mocap,-2.7756472168,9.37345117188,1.89728198242,0.152708700884,0.263869989991,0.952295880761,-0.0136097065517
2021/03/16/12:23:56.169105,279344,1615893836,168171167,mocap,-2.77507885742,9.36236230469,1.89854260254,0.153224594379,0.26097612953,0.953025554722,-0.0124891259346
2021/03/16/12:23:56.181358,279345,1615893836,178171158,mocap,-2.7745012207,9.35114941406,1.89953967285,0.153916597481,0.257068007427,0.953984724874,-0.0117842669149
2021/03/16/12:23:56.189244,279346,1615893836,188171148,mocap,-2.77404760742,9.34020507813,1.90063439941,0.154465125861,0.253747361004,0.954796973974,-0.0107488621528
2021/03/16/12:23:56.201109,279347,1615893836,198171139,mocap,-2.7737175293,9.32936425781,1.90166125488,0.154793344181,0.250639512475,0.955574967351,-0.00976366623809
2021/03/16/12:23:56.209372,279348,1615893836,208171129,mocap,-2.77350610352,9.31870507812,1.90264331055,0.155114464605,0.248041392686,0.956213691434,-0.00838731627462
2021/03/16/12:23:56.221356,279349,1615893836,218171120,mocap,-2.77340161133,9.30827734375,1.90362414551,0.155299190711,0.245717310773,0.956793673863,-0.00714408954759
2021/03/16/12:23:56.229069,279350,1615893836,228171110,mocap,-2.77340600586,9.29808496094,1.90466113281,0.155286483055,0.244391227705,0.957144687703,-0.00575172407177
2021/03/16/12:23:56.241486,279351,1615893836,238171101,mocap,-2.77358398438,9.28804882812,1.90570349121,0.155240486162,0.243198357005,0.957464711645,-0.00403591426634
2021/03/16/12:23:56.249549,279352,1615893836,248171091,mocap,-2.77380883789,9.27812695312,1.90670153809,0.154872348034,0.242251472517,0.957770050751,-0.00230105518422
2021/03/16/12:23:56.260953,279353,1615893836,258171082,mocap,-2.7741184082,9.26848828125,1.90775805664,0.154774107462,0.241633857474,0.957944302101,-0.000880450445321
2021/03/16/12:23:56.269566,279354,1615893836,268171072,mocap,-2.7745546875,9.25873632812,1.90884936523,0.154456038807,0.240736817493,0.95822133398,0.000997978074949
2021/03/16/12:23:56.281044,279355,1615893836,278171062,mocap,-2.77510766602,9.24913574219,1.9099967041,0.15446385205,0.23976982343,0.958458657294,0.00288772201928
2021/03/16/12:23:56.289138,279356,1615893836,288171053,mocap,-2.77573339844,9.23955078125,1.91113513184,0.154074974621,0.238952794577,0.958717899631,0.00473770209443
2021/03/16/12:23:56.300901,279357,1615893836,298171043,mocap,-2.77645068359,9.23003320313,1.91231799316,0.154178212058,0.237865928538,0.958958977015,0.0068239195471
2021/03/16/12:23:56.309476,279358,1615893836,308171034,mocap,-2.77725708008,9.22059277344,1.91351037598,0.153518962023,0.236735131056,0.959326199524,0.00903568114605
2021/03/16/12:23:56.319927,279359,1615893836,318171024,mocap,-2.7781862793,9.21128027344,1.91472253418,0.153040862184,0.235766981054,0.959620270767,0.0110165349757
2021/03/16/12:23:56.329055,279360,1615893836,328171015,mocap,-2.77915283203,9.20196484375,1.9158572998,0.152459232381,0.234602515662,0.959972657048,0.0130518079498
2021/03/16/12:23:56.340683,279361,1615893836,338171005,mocap,-2.78025146484,9.19269140625,1.91698461914,0.152091528489,0.233489151641,0.96027387794,0.0150019024805
2021/03/16/12:23:56.349367,279362,1615893836,348170996,mocap,-2.78133789063,9.18355078125,1.91793786621,0.150904437977,0.232022752977,0.960783162943,0.0170000745232
2021/03/16/12:23:56.360871,279363,1615893836,358170986,mocap,-2.78248510742,9.17437792969,1.91884619141,0.150305196675,0.231157980231,0.961049879683,0.0189067324834
2021/03/16/12:23:56.369810,279364,1615893836,368170977,mocap,-2.78382861328,9.16536914062,1.91974633789,0.148877520726,0.229915582982,0.961533656154,0.020672086225
2021/03/16/12:23:56.380393,279365,1615893836,378171206,mocap,-2.78504638672,9.15630175781,1.92038891602,0.147656374941,0.22912571951,0.961866170398,0.0226377773958
2021/03/16/12:23:56.389270,279366,1615893836,388171196,mocap,-2.78642138672,9.14730371094,1.92099584961,0.14718817674,0.227953754785,0.962188573095,0.0237880778246
2021/03/16/12:23:56.400621,279367,1615893836,398171186,mocap,-2.78772558594,9.13828417969,1.92136450195,0.146096548445,0.227250595918,0.962468493862,0.0258334415796
2021/03/16/12:23:56.409260,279368,1615893836,408171177,mocap,-2.78914575195,9.12929101563,1.9218112793,0.144324670495,0.226513631006,0.962875845836,0.0270567055049
2021/03/16/12:23:56.420605,279369,1615893836,418171167,mocap,-2.79055395508,9.12026855469,1.92197399902,0.143216283944,0.22616601353,0.963068870156,0.0289203602722
2021/03/16/12:23:56.429148,279370,1615893836,428171158,mocap,-2.7920012207,9.1112578125,1.9220949707,0.141752666077,0.225576891364,0.963388573453,0.0300615361508
2021/03/16/12:23:56.440760,279371,1615893836,438171148,mocap,-2.79341699219,9.10220996094,1.92198413086,0.140564628877,0.225234876281,0.963601003143,0.0313679812145
2021/03/16/12:23:56.448993,279372,1615893836,448171139,mocap,-2.7948425293,9.09303808594,1.92175341797,0.139122794483,0.225185710098,0.963772151633,0.0328556397057
2021/03/16/12:23:56.460321,279373,1615893836,458171129,mocap,-2.79623828125,9.08397167969,1.92145117188,0.13758616341,0.225171926807,0.963956154348,0.0340028205764
2021/03/16/12:23:56.469462,279374,1615893836,468171120,mocap,-2.79766870117,9.07470117188,1.9210435791,0.136431965024,0.224907615401,0.964137115868,0.0352493496163
2021/03/16/12:23:56.480564,279375,1615893836,478171110,mocap,-2.79905883789,9.06540332031,1.92049572754,0.135272950342,0.224526254659,0.964357013943,0.0361211494929
2021/03/16/12:23:56.489463,279376,1615893836,488171101,mocap,-2.80047143555,9.0560234375,1.91988146973,0.134338727821,0.224098466439,0.964547494047,0.0371633550925
2021/03/16/12:23:56.500302,279377,1615893836,498171091,mocap,-2.80185009766,9.04651171875,1.91912280273,0.133028533051,0.223604620607,0.964806891907,0.0381056804631
2021/03/16/12:23:56.509199,279378,1615893836,508171082,mocap,-2.80320288086,9.03696582031,1.91826293945,0.131822614248,0.223054748896,0.965077591949,0.0386603051769
2021/03/16/12:23:56.520491,279379,1615893836,518171072,mocap,-2.80453881836,9.02733691406,1.91727392578,0.131154182431,0.222602508607,0.965240790648,0.0394578297337
2021/03/16/12:23:56.529321,279380,1615893836,528171062,mocap,-2.80586694336,9.01768066406,1.91613220215,0.130047629263,0.22195050753,0.965522442467,0.0398998379926
2021/03/16/12:23:56.539472,279381,1615893836,538171053,mocap,-2.80716357422,9.00797460937,1.91486584473,0.129196909097,0.221519912286,0.965719265951,0.0402913874936
2021/03/16/12:23:56.551258,279382,1615893836,548171043,mocap,-2.80838378906,8.99821484375,1.91345092773,0.128386414152,0.221157772801,0.965903352845,0.0404584367483
2021/03/16/12:23:56.559155,279383,1615893836,558171034,mocap,-2.80965454102,8.988453125,1.91197497559,0.127246752066,0.221526664715,0.965948399149,0.0409619930328
2021/03/16/12:23:56.570324,279384,1615893836,568171024,mocap,-2.810859375,8.97871289062,1.91040441895,0.12689392587,0.221667713552,0.965959907218,0.0410220203682
2021/03/16/12:23:56.580968,279385,1615893836,578171015,mocap,-2.81205493164,8.96894335938,1.90881286621,0.126056537858,0.221911300806,0.966003022688,0.0412709535236
2021/03/16/12:23:56.589362,279386,1615893836,588171005,mocap,-2.81320800781,8.95907324219,1.90719689941,0.125903045927,0.222408210082,0.965903306564,0.0413981552786
2021/03/16/12:23:56.600067,279387,1615893836,598170996,mocap,-2.81433764648,8.94917285156,1.90543078613,0.125241196505,0.22300003197,0.965850899022,0.0414447228721
2021/03/16/12:23:56.609603,279388,1615893836,608170986,mocap,-2.81543798828,8.939265625,1.90371374512,0.124749307164,0.223550286866,0.965789277568,0.041399870014
2021/03/16/12:23:56.620228,279389,1615893836,618170977,mocap,-2.81653540039,8.9293125,1.90206201172,0.124705146798,0.22439838638,0.965608895732,0.0411514340707
2021/03/16/12:23:56.631163,279390,1615893836,628171206,mocap,-2.81764160156,8.91928710938,1.90052392578,0.124778957963,0.225191830283,0.965422267681,0.0409719992935
2021/03/16/12:23:56.639469,279391,1615893836,638171196,mocap,-2.81870947266,8.90924511719,1.89907836914,0.124225354941,0.226274531549,0.965246602949,0.0408277545805
2021/03/16/12:23:56.650088,279392,1615893836,648171186,mocap,-2.81981591797,8.899109375,1.89786987305,0.124262419989,0.227032080343,0.965086130439,0.0402993894512
2021/03/16/12:23:56.659692,279393,1615893836,658171177,mocap,-2.82082739258,8.88887304688,1.89671948242,0.124412838701,0.227936507518,0.964875332705,0.0397741395862
2021/03/16/12:23:56.670846,279394,1615893836,668171167,mocap,-2.82191674805,8.87853515625,1.89578161621,0.12464078606,0.228725880213,0.964683782004,0.0391707619574
2021/03/16/12:23:56.679298,279395,1615893836,678171158,mocap,-2.82294238281,8.86817773437,1.89500231934,0.125099829458,0.229321260038,0.964522003087,0.0381982277866
2021/03/16/12:23:56.690910,279396,1615893836,688171148,mocap,-2.82397119141,8.85781738281,1.89450378418,0.125509969042,0.229556037257,0.964451984453,0.0371974859261
2021/03/16/12:23:56.699702,279397,1615893836,698171139,mocap,-2.82493383789,8.84736425781,1.89406176758,0.126207140003,0.230427470324,0.964196903375,0.0360452396058
2021/03/16/12:23:56.710823,279398,1615893836,708171129,mocap,-2.82588623047,8.83690625,1.89375793457,0.126843032302,0.231208361847,0.963974619157,0.0347342061418
2021/03/16/12:23:56.719882,279399,1615893836,718171120,mocap,-2.82683520508,8.82644335938,1.89384899902,0.127718838787,0.232069845089,0.963696210513,0.0334829056652
2021/03/16/12:23:56.730743,279400,1615893836,728171110,mocap,-2.82783764648,8.81596972656,1.89434741211,0.127937113257,0.233066605486,0.963467415535,0.0322891258594
2021/03/16/12:23:56.739210,279401,1615893836,738171101,mocap,-2.82886547852,8.80541210938,1.89520080566,0.127998402226,0.234009501225,0.963253904451,0.0315891314338
2021/03/16/12:23:56.750608,279402,1615893836,748171091,mocap,-2.82994140625,8.79479296875,1.89636035156,0.128845486152,0.234543570958,0.963057188287,0.0301496708518
2021/03/16/12:23:56.759583,279403,1615893836,758171082,mocap,-2.83085327148,8.78413867188,1.89777954102,0.128758770791,0.234531810494,0.963110150118,0.0288939100696
2021/03/16/12:23:56.770784,279404,1615893836,768171072,mocap,-2.83182446289,8.77345703125,1.89931091309,0.129564018963,0.234548526136,0.963048500288,0.027161203781
2021/03/16/12:23:56.779601,279405,1615893836,778171062,mocap,-2.83272192383,8.762859375,1.90102355957,0.130113460344,0.234403728789,0.963051146152,0.0256489333411
2021/03/16/12:23:56.790719,279406,1615893836,788171053,mocap,-2.83343457031,8.7523046875,1.90275524902,0.131339610306,0.234196300208,0.962985067011,0.0237014521184
2021/03/16/12:23:56.799288,279407,1615893836,798171043,mocap,-2.83422680664,8.74185058594,1.90456750488,0.131820035292,0.233717664555,0.963086647988,0.0215322143803
2021/03/16/12:23:56.810558,279408,1615893836,808171034,mocap,-2.83493457031,8.7314140625,1.90633813477,0.132601755656,0.232559098072,0.963303096551,0.0194981775149
2021/03/16/12:23:56.819489,279409,1615893836,818171024,mocap,-2.83556274414,8.72109277344,1.90803588867,0.133599150074,0.231750047882,0.963401473217,0.0173431921952
2021/03/16/12:23:56.829279,279410,1615893836,828171015,mocap,-2.83613842773,8.71087011719,1.90959558105,0.133910521619,0.230796669749,0.963622381936,0.015257015468
2021/03/16/12:23:56.840306,279411,1615893836,838171005,mocap,-2.83673413086,8.70086425781,1.91106091309,0.134360597025,0.229444386721,0.963915080665,0.0130468550828
2021/03/16/12:23:56.849105,279412,1615893836,848170996,mocap,-2.83728442383,8.6909140625,1.91241418457,0.134526407071,0.228589197103,0.96411764182,0.0112605358497
2021/03/16/12:23:56.860570,279413,1615893836,858170986,mocap,-2.83779345703,8.68126855469,1.9136361084,0.13449949994,0.22808122753,0.964259221549,0.0096429989511
2021/03/16/12:23:56.869201,279414,1615893836,868170977,mocap,-2.83834228516,8.67189648438,1.91487036133,0.134323887685,0.227963610879,0.96432527519,0.008151639409
2021/03/16/12:23:56.880658,279415,1615893836,878171206,mocap,-2.83886865234,8.66272070313,1.91610864258,0.133925095655,0.228774911296,0.964195844743,0.0072437610329
2021/03/16/12:23:56.889558,279416,1615893836,888171196,mocap,-2.8393046875,8.65369921875,1.91724682617,0.133723138267,0.229978894111,0.963943602094,0.00636845685405
2021/03/16/12:23:56.899327,279417,1615893836,898171186,mocap,-2.83972021484,8.64483496094,1.91836853027,0.133734075766,0.23152142009,0.96357907489,0.00532732527179
2021/03/16/12:23:56.910596,279418,1615893836,908171177,mocap,-2.84005981445,8.63605761719,1.91953442383,0.133075937838,0.233062762823,0.963302137484,0.00464196612275
2021/03/16/12:23:56.919622,279419,1615893836,918171167,mocap,-2.84029833984,8.62734277344,1.92066271973,0.132851435738,0.234556410269,0.962974358994,0.00376546547517
2021/03/16/12:23:56.930275,279420,1615893836,928171158,mocap,-2.8404921875,8.61868359375,1.9218404541,0.132855493698,0.235840458223,0.962663310303,0.00283600515524
2021/03/16/12:23:56.939311,279421,1615893836,938171148,mocap,-2.84064233398,8.61006347656,1.92308740234,0.132867264889,0.237088985774,0.96235770437,0.00165760639391
2021/03/16/12:23:56.951766,279422,1615893836,948171139,mocap,-2.84076074219,8.601421875,1.92433349609,0.133265643745,0.238076911339,0.962060063315,0.000284248622318
2021/03/16/12:23:56.959702,279423,1615893836,958171129,mocap,-2.84082202148,8.59283789063,1.92557226563,0.133389324329,0.238970359278,0.961821149802,-0.000723898078365
2021/03/16/12:23:56.971230,279424,1615893836,968171120,mocap,-2.84082299805,8.58417089844,1.92677111816,0.133302951063,0.239732014349,0.961642363464,-0.0016882945162
2021/03/16/12:23:56.979438,279425,1615893836,978171110,mocap,-2.84078295898,8.57552539062,1.92791772461,0.133450644149,0.240199827494,0.961503141516,-0.00258183761661
2021/03/16/12:23:56.991173,279426,1615893836,988171101,mocap,-2.84078662109,8.56691796875,1.92907141113,0.133679565125,0.240289022225,0.961446937185,-0.00327718681016
2021/03/16/12:23:56.999314,279427,1615893836,998171091,mocap,-2.84066625977,8.55820898437,1.93009448242,0.133819325901,0.240369691524,0.961404167618,-0.00410133251532
2021/03/16/12:23:57.010969,279428,1615893837,8171082,mocap,-2.84057397461,8.54960351562,1.93112731934,0.133774486871,0.240206548021,0.961447549383,-0.00487997030713
2021/03/16/12:23:57.019094,279429,1615893837,18171072,mocap,-2.84040283203,8.54094238281,1.93203027344,0.134147695452,0.239709196242,0.961516082072,-0.00554257843118
2021/03/16/12:23:57.031110,279430,1615893837,28171062,mocap,-2.84017504883,8.53222070313,1.93282128906,0.134373465181,0.239212031487,0.961603957018,-0.00626251806544
