time,.header.seq,.header.stamp.secs,.header.stamp.nsecs,.header.frame_id,.pose.position.x,.pose.position.y,.pose.position.z,.pose.orientation.x,.pose.orientation.y,.pose.orientation.z,.pose.orientation.w
2021/03/16/11:56:38.778954,154435,1615892198,778171062,mocap,-2.78628271484,10.3938310547,1.92857373047,0.13081638527,0.175446796412,0.972427532774,-0.0805617016527
2021/03/16/11:56:38.790386,154436,1615892198,788171053,mocap,-2.78624389648,10.3942861328,1.92866040039,0.131152663486,0.175983738645,0.97225094206,-0.0809741342177
2021/03/16/11:56:38.799982,154437,1615892198,798171043,mocap,-2.78615161133,10.3946689453,1.92869067383,0.130903164853,0.176499689382,0.9721623741,-0.0813175303839
2021/03/16/11:56:38.809607,154438,1615892198,808171034,mocap,-2.78607885742,10.394984375,1.92870800781,0.131003354289,0.177150168381,0.972008255658,-0.0815836724274
2021/03/16/11:56:38.819587,154439,1615892198,818171024,mocap,-2.785953125,10.3952988281,1.92877514648,0.130856307932,0.17778526639,0.971917342831,-0.081521161134
2021/03/16/11:56:38.830195,154440,1615892198,828171015,mocap,-2.78586108398,10.3956347656,1.92880981445,0.130869783438,0.178327251211,0.971809209884,-0.0816047485713
2021/03/16/11:56:38.839441,154441,1615892198,838171005,mocap,-2.78578027344,10.3959501953,1.92885266113,0.131073625869,0.17918196875,0.97162603489,-0.0815865676006
2021/03/16/11:56:38.850247,154442,1615892198,848170996,mocap,-2.78570483398,10.3962832031,1.92897241211,0.131035019429,0.179610022172,0.971534641501,-0.0817955678448
2021/03/16/11:56:38.860443,154443,1615892198,858170986,mocap,-2.78568554687,10.3966904297,1.92906945801,0.131198214706,0.180102043165,0.97137056734,-0.0823984494056
2021/03/16/11:56:38.869467,154444,1615892198,868170977,mocap,-2.78557641602,10.3969208984,1.92911486816,0.131133436365,0.180864912715,0.971258921552,-0.0821462479612
2021/03/16/11:56:38.880251,154445,1615892198,878171206,mocap,-2.78555981445,10.3971552734,1.92919519043,0.131256424839,0.181259478108,0.971158149345,-0.0822714914058
2021/03/16/11:56:38.889481,154446,1615892198,888171196,mocap,-2.78551147461,10.3973710937,1.92925,0.131176277424,0.181624487959,0.971094532273,-0.0823452570829
2021/03/16/11:56:38.901237,154447,1615892198,898171186,mocap,-2.78554394531,10.3977021484,1.92956945801,0.130303446452,0.182696924018,0.971046195243,-0.0819276414478
2021/03/16/11:56:38.909908,154448,1615892198,908171177,mocap,-2.78554638672,10.3978027344,1.92963586426,0.130344529941,0.182695252407,0.971043824365,-0.0818940238162
2021/03/16/11:56:38.921561,154449,1615892198,918171167,mocap,-2.78543408203,10.3977568359,1.92945227051,0.131324889386,0.181813889673,0.971037724506,-0.0823603675196
2021/03/16/11:56:38.929583,154450,1615892198,928171158,mocap,-2.78551123047,10.3980332031,1.9296920166,0.130297749155,0.182846032366,0.971029100238,-0.0818064559698
2021/03/16/11:56:38.941243,154451,1615892198,938171148,mocap,-2.78552514648,10.3981699219,1.92974902344,0.130362613393,0.183378690795,0.97093061395,-0.0816797361511
2021/03/16/11:56:38.949176,154452,1615892198,948171139,mocap,-2.78553515625,10.3983134766,1.9296817627,0.130401163979,0.183575465181,0.970881347874,-0.0817618510272
2021/03/16/11:56:38.961106,154453,1615892198,958171129,mocap,-2.78554125977,10.3984179687,1.92964733887,0.130470105473,0.18410848104,0.970777059767,-0.081691625621
2021/03/16/11:56:38.969571,154454,1615892198,968171120,mocap,-2.78554882813,10.3984970703,1.92964221191,0.130612215745,0.184534762244,0.97068397457,-0.0816087666074
2021/03/16/11:56:38.981098,154455,1615892198,978171110,mocap,-2.78556396484,10.3985507812,1.92959094238,0.130799138786,0.184967667257,0.970586005961,-0.08149451019
2021/03/16/11:56:38.989315,154456,1615892198,988171101,mocap,-2.78562841797,10.3986230469,1.92961901855,0.130888336469,0.185066256778,0.970533820572,-0.0817485009145
2021/03/16/11:56:39.001158,154457,1615892198,998171091,mocap,-2.78560205078,10.3985400391,1.92953356934,0.130723730781,0.185620909884,0.970488395965,-0.0812924719726
2021/03/16/11:56:39.009331,154458,1615892199,8171082,mocap,-2.78566577148,10.3984716797,1.92947229004,0.130570509847,0.185620672685,0.970522750583,-0.0811289116526
2021/03/16/11:56:39.021076,154459,1615892199,18171072,mocap,-2.78572021484,10.3983251953,1.92943664551,0.130348181228,0.185494567051,0.970573869539,-0.0811632781993
2021/03/16/11:56:39.029330,154460,1615892199,28171062,mocap,-2.78579418945,10.3981103516,1.92945336914,0.130005484244,0.185215096089,0.970674564241,-0.0811470485808
2021/03/16/11:56:39.041017,154461,1615892199,38171053,mocap,-2.7858762207,10.3978691406,1.92942724609,0.129966193815,0.184835420543,0.970745983751,-0.0812212660611
2021/03/16/11:56:39.049452,154462,1615892199,48171043,mocap,-2.78593994141,10.3976123047,1.92943664551,0.129633872977,0.184347161024,0.970882629438,-0.0812287242937
2021/03/16/11:56:39.060991,154463,1615892199,58171034,mocap,-2.78593945313,10.3971992187,1.92920666504,0.130391628321,0.183240238866,0.970947549545,-0.0817429224619
2021/03/16/11:56:39.069422,154464,1615892199,68171024,mocap,-2.78599194336,10.3969794922,1.9291295166,0.130205882352,0.183067994195,0.971008582765,-0.0816998394056
2021/03/16/11:56:39.080782,154465,1615892199,78171015,mocap,-2.78614575195,10.3969707031,1.92931237793,0.129232026424,0.184275921901,0.97095080311,-0.0812158174678
2021/03/16/11:56:39.089343,154466,1615892199,88171005,mocap,-2.78622167969,10.3967548828,1.92928173828,0.129192240965,0.184493676597,0.970929539638,-0.0810386809459
2021/03/16/11:56:39.100815,154467,1615892199,98170996,mocap,-2.78619628906,10.3963916016,1.92901184082,0.13004018542,0.183504840134,0.97096986387,-0.0814434967535
2021/03/16/11:56:39.109511,154468,1615892199,108170986,mocap,-2.78623730469,10.3961210938,1.92896728516,0.129967386281,0.183418877035,0.971008690188,-0.0812903283309
2021/03/16/11:56:39.120750,154469,1615892199,118170977,mocap,-2.78629321289,10.3959033203,1.92901391602,0.130036556665,0.183257501054,0.971032253783,-0.0812622392473
2021/03/16/11:56:39.129326,154470,1615892199,128171206,mocap,-2.78634594727,10.395671875,1.92901599121,0.130177553914,0.183056218938,0.971068561009,-0.0810560104826
2021/03/16/11:56:39.139477,154471,1615892199,138171196,mocap,-2.78638061523,10.395375,1.92895275879,0.129903490702,0.182784596546,0.971188514057,-0.0806705293802
2021/03/16/11:56:39.150784,154472,1615892199,148171186,mocap,-2.78646240234,10.3950400391,1.92899816895,0.129644255492,0.182350448584,0.971332560888,-0.0803351827647
2021/03/16/11:56:39.160501,154473,1615892199,158171177,mocap,-2.78647338867,10.3946972656,1.92901831055,0.129823207248,0.181661787464,0.971454690158,-0.080129318972
2021/03/16/11:56:39.169284,154474,1615892199,168171167,mocap,-2.78654321289,10.3942705078,1.92906445313,0.129910501474,0.180871980103,0.971626717355,-0.0796875444053
2021/03/16/11:56:39.180574,154475,1615892199,178171158,mocap,-2.78662548828,10.3938212891,1.92910424805,0.130096010206,0.179799425281,0.97179385334,-0.0797740791775
2021/03/16/11:56:39.190550,154476,1615892199,188171148,mocap,-2.78658374023,10.3933984375,1.92904333496,0.129877384091,0.179200432433,0.971977157682,-0.0792430889839
2021/03/16/11:56:39.200426,154477,1615892199,198171139,mocap,-2.78660009766,10.3930771484,1.92906298828,0.13003923558,0.17850869684,0.972090453157,-0.0791492028434
2021/03/16/11:56:39.209263,154478,1615892199,208171129,mocap,-2.7866328125,10.3927392578,1.9290625,0.130363003497,0.177983949712,0.972139542996,-0.0791954021327
2021/03/16/11:56:39.220458,154479,1615892199,218171120,mocap,-2.78661645508,10.3924833984,1.92899511719,0.130362058895,0.177659873824,0.972212341614,-0.0790307583653
2021/03/16/11:56:39.231633,154480,1615892199,228171110,mocap,-2.78658544922,10.3921777344,1.92889367676,0.130610533387,0.177436175445,0.972265080612,-0.078472318942
2021/03/16/11:56:39.239246,154481,1615892199,238171101,mocap,-2.78654736328,10.3918964844,1.92883227539,0.130825077427,0.177105767889,0.97232055233,-0.0781734418894
2021/03/16/11:56:39.250311,154482,1615892199,248171091,mocap,-2.78654980469,10.3916611328,1.92877441406,0.131018391086,0.176846162677,0.972366987058,-0.0778592145902
2021/03/16/11:56:39.259297,154483,1615892199,258171082,mocap,-2.78653393555,10.3914404297,1.92872216797,0.131460567881,0.176384994716,0.972383989583,-0.077947613707
2021/03/16/11:56:39.270376,154484,1615892199,268171072,mocap,-2.78647583008,10.3912021484,1.92864025879,0.13171795121,0.176153580803,0.972406960526,-0.0777496577726
2021/03/16/11:56:39.279446,154485,1615892199,278171062,mocap,-2.78645068359,10.3909521484,1.9285657959,0.131909585522,0.175707189971,0.972477111253,-0.0775572095372
2021/03/16/11:56:39.291156,154486,1615892199,288171053,mocap,-2.78641455078,10.3907216797,1.92848596191,0.132005974966,0.175239870897,0.972564363544,-0.0773560666941
2021/03/16/11:56:39.299528,154487,1615892199,298171043,mocap,-2.78640966797,10.3904912109,1.92841125488,0.132210856037,0.174832868928,0.972639160313,-0.0769858500887
2021/03/16/11:56:39.311326,154488,1615892199,308171034,mocap,-2.78637939453,10.3903222656,1.92834924316,0.132325403682,0.174475907531,0.972716907923,-0.0766156245922
2021/03/16/11:56:39.319240,154489,1615892199,318171024,mocap,-2.78637353516,10.3901552734,1.9282598877,0.132461032513,0.174218257803,0.972760857468,-0.0764093548354
2021/03/16/11:56:39.331074,154490,1615892199,328171015,mocap,-2.78636132812,10.3900410156,1.92814086914,0.132768665384,0.174293945939,0.972730465245,-0.0760890935907
2021/03/16/11:56:39.339433,154491,1615892199,338171005,mocap,-2.78639526367,10.3900136719,1.92808300781,0.132958712111,0.17414981766,0.972742061583,-0.0759387983741
2021/03/16/11:56:39.351254,154492,1615892199,348170996,mocap,-2.78638720703,10.3899736328,1.92806359863,0.133181089637,0.174227152147,0.972724582769,-0.0755948555738
2021/03/16/11:56:39.359269,154493,1615892199,358170986,mocap,-2.78640185547,10.3898837891,1.92797253418,0.133527860073,0.174205369289,0.972689080355,-0.0754900504075
2021/03/16/11:56:39.370946,154494,1615892199,368170977,mocap,-2.78641723633,10.3898349609,1.92794384766,0.133710207362,0.173914130575,0.972742666672,-0.0751475666592
2021/03/16/11:56:39.379190,154495,1615892199,378171206,mocap,-2.78643823242,10.3897636719,1.92794152832,0.133908197968,0.173728578951,0.972763530529,-0.0749540155936
2021/03/16/11:56:39.390953,154496,1615892199,388171196,mocap,-2.7864855957,10.3896552734,1.92790222168,0.13404110933,0.173391305737,0.972829665386,-0.0746382978534
2021/03/16/11:56:39.399448,154497,1615892199,398171186,mocap,-2.78650390625,10.3896113281,1.92789904785,0.134349329408,0.173216383731,0.972829826218,-0.0744881066944
2021/03/16/11:56:39.411012,154498,1615892199,408171177,mocap,-2.78654345703,10.3895878906,1.92790014648,0.134484436409,0.173113995991,0.97285112474,-0.0742036628367
2021/03/16/11:56:39.419430,154499,1615892199,418171167,mocap,-2.78654711914,10.3895820313,1.92790673828,0.134660157962,0.173032865162,0.972838059251,-0.0742453706323
2021/03/16/11:56:39.431154,154500,1615892199,428171158,mocap,-2.78656811523,10.3896474609,1.92783959961,0.134945697826,0.173375344599,0.972753389709,-0.0740370785979
2021/03/16/11:56:39.439696,154501,1615892199,438171148,mocap,-2.78658276367,10.3897314453,1.92781445313,0.134911860886,0.17361448274,0.972737251494,-0.0737499095583
2021/03/16/11:56:39.450922,154502,1615892199,448171139,mocap,-2.7866340332,10.3897851562,1.92782373047,0.135272487569,0.173876667576,0.972647203457,-0.0736591724981
2021/03/16/11:56:39.459297,154503,1615892199,458171129,mocap,-2.78664599609,10.3898652344,1.92779785156,0.135248685831,0.173839034925,0.972666139054,-0.073541552297
2021/03/16/11:56:39.470783,154504,1615892199,468171120,mocap,-2.78667749023,10.3899013672,1.92783776855,0.135417918452,0.173821714697,0.972649899811,-0.0734858580485
2021/03/16/11:56:39.479302,154505,1615892199,478171110,mocap,-2.78670092773,10.3898779297,1.92786010742,0.135262215098,0.173661290062,0.972715452606,-0.0732839935372
2021/03/16/11:56:39.490954,154506,1615892199,488171101,mocap,-2.78674682617,10.3898974609,1.92790185547,0.135392563631,0.173322417226,0.972757096788,-0.0732927261235
2021/03/16/11:56:39.499429,154507,1615892199,498171091,mocap,-2.78676831055,10.38990625,1.92791357422,0.135447745473,0.173187637684,0.972777745882,-0.0732353165173
2021/03/16/11:56:39.510582,154508,1615892199,508171082,mocap,-2.786796875,10.3899335937,1.92796582031,0.135359758046,0.173012276135,0.972817403779,-0.0732855919762
2021/03/16/11:56:39.519351,154509,1615892199,518171072,mocap,-2.78683691406,10.3899707031,1.92798034668,0.13563211123,0.172954375909,0.972785956379,-0.0733361803239
2021/03/16/11:56:39.530796,154510,1615892199,528171062,mocap,-2.78686987305,10.3900517578,1.92797753906,0.135777659093,0.172982619203,0.97275168935,-0.0734547520843
2021/03/16/11:56:39.539450,154511,1615892199,538171053,mocap,-2.78690576172,10.3900898437,1.92800769043,0.135782679181,0.173086675989,0.972742145836,-0.0733266212751
2021/03/16/11:56:39.550403,154512,1615892199,548171043,mocap,-2.78696264648,10.3901464844,1.92801098633,0.135901249904,0.172985474456,0.97273537494,-0.0734354529915
2021/03/16/11:56:39.559390,154513,1615892199,558171034,mocap,-2.78697900391,10.3902167969,1.92796362305,0.135939303227,0.173007278934,0.97271626452,-0.0735666985058
2021/03/16/11:56:39.570633,154514,1615892199,568171024,mocap,-2.7870300293,10.3902490234,1.92797973633,0.135918521121,0.173037495878,0.972715016011,-0.0735504952768
2021/03/16/11:56:39.579589,154515,1615892199,578171015,mocap,-2.78709057617,10.3902841797,1.92802307129,0.136055213121,0.172802283838,0.972733092432,-0.0736117194221
2021/03/16/11:56:39.590479,154516,1615892199,588171005,mocap,-2.78713378906,10.3903408203,1.92800170898,0.135986123552,0.172729271158,0.972749759208,-0.0736904365761
2021/03/16/11:56:39.599395,154517,1615892199,598170996,mocap,-2.78718188477,10.3903330078,1.92798962402,0.136073464195,0.172724099676,0.972733375831,-0.0737576311298
2021/03/16/11:56:39.611334,154518,1615892199,608170986,mocap,-2.78725073242,10.390375,1.92804699707,0.135956920746,0.172548838737,0.972787036299,-0.0736748796712
2021/03/16/11:56:39.619421,154519,1615892199,618170977,mocap,-2.78730712891,10.3903964844,1.92801464844,0.136269069148,0.172553846018,0.972727891666,-0.0738671944244
2021/03/16/11:56:39.631357,154520,1615892199,628171206,mocap,-2.78734570313,10.3903720703,1.92801098633,0.136063064812,0.172426287994,0.972786339329,-0.0737751027379
2021/03/16/11:56:39.639868,154521,1615892199,638171196,mocap,-2.78743969727,10.3903984375,1.92810961914,0.136104335214,0.172446995451,0.972786094241,-0.0736536302436
2021/03/16/11:56:39.651345,154522,1615892199,648171186,mocap,-2.78748486328,10.3904150391,1.92805847168,0.136218461707,0.172348684219,0.972780518464,-0.0737464378608
2021/03/16/11:56:39.659239,154523,1615892199,658171177,mocap,-2.78751123047,10.3903720703,1.92805908203,0.136270266185,0.172290088473,0.972791654668,-0.0736406198138
2021/03/16/11:56:39.671472,154524,1615892199,668171167,mocap,-2.78760571289,10.3903867187,1.92815515137,0.136209907604,0.172175441541,0.972834061452,-0.0734599362081
2021/03/16/11:56:39.679382,154525,1615892199,678171158,mocap,-2.78766870117,10.3903876953,1.92813769531,0.136413735588,0.172173640553,0.972807454992,-0.0734382584607
2021/03/16/11:56:39.691044,154526,1615892199,688171148,mocap,-2.7876875,10.3903515625,1.9281171875,0.136302711204,0.172089768382,0.972841658788,-0.073387996099
2021/03/16/11:56:39.699455,154527,1615892199,698171139,mocap,-2.7877890625,10.3903037109,1.92820751953,0.136560194066,0.172083734614,0.972822688313,-0.0731745884976
2021/03/16/11:56:39.711440,154528,1615892199,708171129,mocap,-2.78779760742,10.3902910156,1.92819714355,0.136465052168,0.171945139328,0.972881635727,-0.0728935384563
2021/03/16/11:56:39.719419,154529,1615892199,718171120,mocap,-2.78781469727,10.3902275391,1.92817834473,0.136764133527,0.171961921756,0.97285020572,-0.072712776609
2021/03/16/11:56:39.731430,154530,1615892199,728171110,mocap,-2.78787280273,10.3901816406,1.92823876953,0.136580149179,0.171842474848,0.972919214083,-0.0724170070645
2021/03/16/11:56:39.739272,154531,1615892199,738171101,mocap,-2.78788525391,10.3901699219,1.92824279785,0.136684492986,0.171677100811,0.972952763046,-0.0721611818004
2021/03/16/11:56:39.750076,154532,1615892199,748171091,mocap,-2.78789160156,10.3900800781,1.92821276855,0.136963117766,0.171652029155,0.972935142519,-0.0719298263129
2021/03/16/11:56:39.760280,154533,1615892199,758171082,mocap,-2.78791601563,10.3899951172,1.9282644043,0.137016685704,0.171661341939,0.972958705404,-0.0714853858147
2021/03/16/11:56:39.769233,154534,1615892199,768171072,mocap,-2.78793115234,10.3899677734,1.92829602051,0.137241332653,0.171601314942,0.972963169805,-0.0711370458558
2021/03/16/11:56:39.780097,154535,1615892199,778171062,mocap,-2.78790454102,10.3898525391,1.92825183105,0.137558811719,0.171643187405,0.972933258688,-0.070831245448
2021/03/16/11:56:39.789209,154536,1615892199,788171053,mocap,-2.78789770508,10.389765625,1.92830651855,0.137649146846,0.171703922234,0.97293946153,-0.0704221657448
2021/03/16/11:56:39.800171,154537,1615892199,798171043,mocap,-2.78792236328,10.3896992187,1.92833239746,0.137766400499,0.171663448833,0.972962518908,-0.0699715591256
2021/03/16/11:56:39.809478,154538,1615892199,808171034,mocap,-2.78786010742,10.3895644531,1.92828967285,0.138123405609,0.1718137539,0.972915461674,-0.069551785692
2021/03/16/11:56:39.819823,154539,1615892199,818171024,mocap,-2.78787109375,10.3894267578,1.92837182617,0.138277931975,0.171847587228,0.972916327026,-0.0691479660369
2021/03/16/11:56:39.830968,154540,1615892199,828171015,mocap,-2.78787304688,10.3893017578,1.92838696289,0.138443178096,0.172127009411,0.97287586904,-0.0686900969043
2021/03/16/11:56:39.839485,154541,1615892199,838171005,mocap,-2.78783496094,10.3891640625,1.92837207031,0.13839069163,0.172244656207,0.972886207697,-0.0683536342338
2021/03/16/11:56:39.850787,154542,1615892199,848170996,mocap,-2.78785375977,10.3889863281,1.92842492676,0.138616632142,0.172479914212,0.972846567922,-0.0678650477043
2021/03/16/11:56:39.859424,154543,1615892199,858170986,mocap,-2.78781445313,10.3888525391,1.92845690918,0.138706397868,0.172752250382,0.972803058805,-0.0676121060458
2021/03/16/11:56:39.870755,154544,1615892199,868170977,mocap,-2.78777880859,10.3886513672,1.92847399902,0.138724054129,0.173063439162,0.97277197092,-0.0672262575179
2021/03/16/11:56:39.879354,154545,1615892199,878171206,mocap,-2.78775488281,10.3884189453,1.92849133301,0.139022446702,0.173495405352,0.9726738909,-0.0669148901987
2021/03/16/11:56:39.890493,154546,1615892199,888171196,mocap,-2.78770556641,10.3882265625,1.92847485352,0.139126162396,0.173814082173,0.972627669991,-0.0665431003923
2021/03/16/11:56:39.899246,154547,1615892199,898171186,mocap,-2.78764306641,10.3879785156,1.92848449707,0.139271076876,0.174114117673,0.972576115076,-0.0662083767965
2021/03/16/11:56:39.910510,154548,1615892199,908171177,mocap,-2.78762817383,10.387734375,1.92856958008,0.139268619462,0.174312085148,0.97257444505,-0.0657152902266
2021/03/16/11:56:39.919253,154549,1615892199,918171167,mocap,-2.78757861328,10.3874482422,1.92859289551,0.139198584864,0.174648313804,0.972566715394,-0.0650822942227
2021/03/16/11:56:39.930507,154550,1615892199,928171158,mocap,-2.78752758789,10.3870585937,1.9286048584,0.139032181361,0.174792488577,0.972597748556,-0.0645852787458
2021/03/16/11:56:39.939447,154551,1615892199,938171148,mocap,-2.78749975586,10.3866640625,1.92870153809,0.138798258757,0.174815424686,0.972668536618,-0.0639571398956
2021/03/16/11:56:39.949289,154552,1615892199,948171139,mocap,-2.78742626953,10.3863251953,1.92880383301,0.138536260559,0.174779663401,0.972749514111,-0.063388945234
2021/03/16/11:56:39.960381,154553,1615892199,958171129,mocap,-2.78730322266,10.3858828125,1.92886816406,0.138518115549,0.175057610024,0.972744458959,-0.0627357567817
2021/03/16/11:56:39.969113,154554,1615892199,968171120,mocap,-2.78719384766,10.3853945313,1.92888916016,0.138593239826,0.175329226949,0.972722353853,-0.0621514383434
2021/03/16/11:56:39.980347,154555,1615892199,978171110,mocap,-2.78703442383,10.3850058594,1.92891271973,0.138506638008,0.175452384565,0.972751398297,-0.0615394784143
2021/03/16/11:56:39.989310,154556,1615892199,988171101,mocap,-2.78686279297,10.3845820312,1.92898303223,0.138773368509,0.175555266814,0.972716073031,-0.0612024903673
2021/03/16/11:56:40.001163,154557,1615892199,998171091,mocap,-2.7867277832,10.3839736328,1.92899133301,0.139347733,0.17551091681,0.97266832214,-0.0607821818043
2021/03/16/11:56:40.009355,154558,1615892200,8171082,mocap,-2.78648071289,10.3834658203,1.92889453125,0.13913273753,0.17544780092,0.972751459571,-0.0601228514933
2021/03/16/11:56:40.020988,154559,1615892200,18171072,mocap,-2.78620849609,10.3829638672,1.92893103027,0.139107120203,0.175521443851,0.972783896102,-0.0594384597742
2021/03/16/11:56:40.029377,154560,1615892200,28171062,mocap,-2.78597314453,10.3823769531,1.92895129395,0.139594111274,0.175668567693,0.972711446644,-0.0590464757588
2021/03/16/11:56:40.040901,154561,1615892200,38171053,mocap,-2.78572802734,10.3817304687,1.9288795166,0.139660526374,0.175702888959,0.972736048968,-0.058378246365
2021/03/16/11:56:40.049553,154562,1615892200,48171043,mocap,-2.78547509766,10.3811367187,1.92890368652,0.139687934312,0.175600952416,0.9727856347,-0.0577900433388
2021/03/16/11:56:40.061092,154563,1615892200,58171034,mocap,-2.78519628906,10.3805302734,1.92892687988,0.140017249285,0.175587950569,0.972761048949,-0.0574455029793
2021/03/16/11:56:40.069355,154564,1615892200,68171024,mocap,-2.78489135742,10.3799257812,1.92888134766,0.140217566385,0.175519032868,0.972759946022,-0.0571854878719
2021/03/16/11:56:40.080812,154565,1615892200,78171015,mocap,-2.78457763672,10.379171875,1.92881518555,0.140621090757,0.175603219099,0.972716563243,-0.0566718826147
2021/03/16/11:56:40.089447,154566,1615892200,88171005,mocap,-2.78420800781,10.3785029297,1.92881262207,0.141108344596,0.175741661221,0.972643074651,-0.0562917461884
2021/03/16/11:56:40.100680,154567,1615892200,98170996,mocap,-2.78385180664,10.3779345703,1.92877282715,0.141511099193,0.175869003343,0.972592110415,-0.0557609429993
2021/03/16/11:56:40.109388,154568,1615892200,108170986,mocap,-2.7834128418,10.3772783203,1.92870507812,0.141557230717,0.176107163856,0.972559269126,-0.0554642865269
2021/03/16/11:56:40.120616,154569,1615892200,118170977,mocap,-2.78304101562,10.3765263672,1.9285871582,0.142008146709,0.176503053108,0.97244131632,-0.0551204316339
2021/03/16/11:56:40.129269,154570,1615892200,128171206,mocap,-2.78261962891,10.3758496094,1.92845629883,0.142634790877,0.176649282393,0.97233403089,-0.0549261314806
2021/03/16/11:56:40.140516,154571,1615892200,138171196,mocap,-2.78219213867,10.3751494141,1.92841027832,0.1425498055,0.176570741466,0.972384832422,-0.0544983063093
2021/03/16/11:56:40.149689,154572,1615892200,148171186,mocap,-2.78181201172,10.3743271484,1.9284284668,0.14292388486,0.176389073517,0.972386679004,-0.0540722778064
2021/03/16/11:56:40.160694,154573,1615892200,158171177,mocap,-2.781390625,10.3735029297,1.9283347168,0.143052326786,0.176301277363,0.97239823347,-0.053810571427
2021/03/16/11:56:40.169223,154574,1615892200,168171167,mocap,-2.78095288086,10.3726904297,1.92836193848,0.143235569856,0.175873148966,0.972460776913,-0.0535933747218
2021/03/16/11:56:40.180477,154575,1615892200,178171158,mocap,-2.78053051758,10.3718447266,1.92841027832,0.143443288014,0.175370262154,0.972530134673,-0.0534267768353
2021/03/16/11:56:40.189332,154576,1615892200,188171148,mocap,-2.78006445313,10.3709785156,1.92836401367,0.143726125018,0.17494580083,0.97258913046,-0.0529824772007
2021/03/16/11:56:40.200461,154577,1615892200,198171139,mocap,-2.77958886719,10.3700644531,1.92829760742,0.144008140107,0.174495479476,0.972629025856,-0.0529695250321
2021/03/16/11:56:40.209800,154578,1615892200,208171129,mocap,-2.77909619141,10.3692304688,1.92833361816,0.144197900055,0.173907032347,0.972698570771,-0.0531113057139
2021/03/16/11:56:40.221484,154579,1615892200,218171120,mocap,-2.77854663086,10.3683916016,1.92821386719,0.144850905425,0.173414167449,0.972671769106,-0.0534356277867
2021/03/16/11:56:40.229563,154580,1615892200,228171110,mocap,-2.7780246582,10.3674082031,1.92812719727,0.144737167566,0.172443727318,0.972859012964,-0.0534757988639
2021/03/16/11:56:40.241425,154581,1615892200,238171101,mocap,-2.77748242187,10.3664882812,1.92805749512,0.144868361094,0.171697173465,0.972965597267,-0.0535833757031
2021/03/16/11:56:40.249265,154582,1615892200,248171091,mocap,-2.77695556641,10.3657089844,1.92801867676,0.145258470906,0.170732444076,0.973046733806,-0.0541336525946
2021/03/16/11:56:40.261310,154583,1615892200,258171082,mocap,-2.77638330078,10.3648632813,1.92793249512,0.145510818929,0.16985151717,0.973140963458,-0.0545319519443
2021/03/16/11:56:40.269355,154584,1615892200,268171072,mocap,-2.77584521484,10.3640166016,1.92781176758,0.145680256196,0.169647811102,0.973119602372,-0.0550920470742
2021/03/16/11:56:40.281103,154585,1615892200,278171062,mocap,-2.77539233398,10.3634384766,1.92778149414,0.146140010574,0.169688189941,0.973015064101,-0.0555940737831
2021/03/16/11:56:40.289427,154586,1615892200,288171053,mocap,-2.77487939453,10.3628896484,1.92770861816,0.146249814082,0.169685493028,0.97295500675,-0.0563594362254
2021/03/16/11:56:40.301017,154587,1615892200,298171043,mocap,-2.7743894043,10.3623369141,1.92761694336,0.146010440491,0.169565373632,0.972963185121,-0.0571942554823
2021/03/16/11:56:40.309825,154588,1615892200,308171034,mocap,-2.77392626953,10.3617998047,1.92750378418,0.14574095174,0.169799315553,0.972915040484,-0.0580008317833
2021/03/16/11:56:40.321310,154589,1615892200,318171024,mocap,-2.77348828125,10.3613271484,1.92741625977,0.145434580376,0.16989685147,0.972904319229,-0.0586602516635
2021/03/16/11:56:40.329074,154590,1615892200,328171015,mocap,-2.77300830078,10.3608388672,1.92732775879,0.145143562578,0.169788503842,0.972909986193,-0.0595934514858
2021/03/16/11:56:40.341191,154591,1615892200,338171005,mocap,-2.77255957031,10.3603066406,1.92720544434,0.144580305981,0.16969557993,0.972946215691,-0.0606267442348
2021/03/16/11:56:40.349196,154592,1615892200,348170996,mocap,-2.77211645508,10.3597880859,1.92709155273,0.144158722191,0.169494054538,0.972972481425,-0.0617622568614
2021/03/16/11:56:40.360820,154593,1615892200,358170986,mocap,-2.77164428711,10.3593046875,1.92697607422,0.143766545742,0.169422907882,0.972959027025,-0.0630696803903
2021/03/16/11:56:40.369684,154594,1615892200,368170977,mocap,-2.77121484375,10.3588828125,1.926953125,0.143638924582,0.169306069457,0.972913424645,-0.0643645064787
2021/03/16/11:56:40.381170,154595,1615892200,378171206,mocap,-2.7707434082,10.3583632812,1.92685583496,0.142730505504,0.169219266153,0.972979687148,-0.065600153772
2021/03/16/11:56:40.389129,154596,1615892200,388171196,mocap,-2.77027392578,10.3577802734,1.92679394531,0.141977941765,0.168806584535,0.973047285107,-0.0672724622904
2021/03/16/11:56:40.400902,154597,1615892200,398171186,mocap,-2.76978637695,10.3573349609,1.92687402344,0.141603447841,0.168111848151,0.973116631689,-0.0687814306557
2021/03/16/11:56:40.410715,154598,1615892200,408171177,mocap,-2.76930786133,10.3568466797,1.92683886719,0.140909047883,0.167428392681,0.97323450265,-0.0701924537777
2021/03/16/11:56:40.419405,154599,1615892200,418171167,mocap,-2.76875634766,10.3562207031,1.92675744629,0.140331523745,0.166848912841,0.973271018621,-0.0721943984327
2021/03/16/11:56:40.430855,154600,1615892200,428171158,mocap,-2.76831787109,10.3557822266,1.92680627441,0.139449943097,0.166289744224,0.973365884844,-0.0738937687809
2021/03/16/11:56:40.439374,154601,1615892200,438171148,mocap,-2.76793115234,10.3554160156,1.92691442871,0.138260368494,0.165656858077,0.973550561551,-0.075107745911
2021/03/16/11:56:40.450765,154602,1615892200,448171139,mocap,-2.76746923828,10.3549970703,1.92690649414,0.137215646329,0.164848251524,0.973700288598,-0.0768418944904
2021/03/16/11:56:40.459412,154603,1615892200,458171129,mocap,-2.76708862305,10.35459375,1.92696057129,0.13580969313,0.164080284436,0.973916520362,-0.0782303544828
2021/03/16/11:56:40.470636,154604,1615892200,468171120,mocap,-2.76669628906,10.3542636719,1.9270513916,0.134439727162,0.163267726951,0.974146104076,-0.0794290996357
2021/03/16/11:56:40.479297,154605,1615892200,478171110,mocap,-2.7662722168,10.3539970703,1.92706542969,0.133798114805,0.162491523671,0.974284750592,-0.0803977259718
2021/03/16/11:56:40.490798,154606,1615892200,488171101,mocap,-2.76584667969,10.353796875,1.9272175293,0.132316175348,0.161368133409,0.974612593407,-0.0811360647922
2021/03/16/11:56:40.499347,154607,1615892200,498171091,mocap,-2.76535961914,10.3535517578,1.92719018555,0.131415450588,0.160845159382,0.974763433783,-0.0818233650829
2021/03/16/11:56:40.510610,154608,1615892200,508171082,mocap,-2.76480981445,10.3534755859,1.92726635742,0.130900238379,0.160197362582,0.974872943351,-0.0826115451235
2021/03/16/11:56:40.519242,154609,1615892200,518171072,mocap,-2.76420874023,10.3535361328,1.92735668945,0.130523055211,0.159886526472,0.974935312754,-0.0830733050673
2021/03/16/11:56:40.530697,154610,1615892200,528171062,mocap,-2.76368823242,10.353671875,1.92765039062,0.132159445674,0.159372458176,0.974698699038,-0.0842422610001
2021/03/16/11:56:40.539449,154611,1615892200,538171053,mocap,-2.76297070313,10.3535625,1.92738989258,0.130389640892,0.159606848195,0.974904499206,-0.0841749111472
2021/03/16/11:56:40.550277,154612,1615892200,548171043,mocap,-2.76231420898,10.3538154297,1.92753857422,0.130645393637,0.159572537188,0.974826505704,-0.0847447328592
2021/03/16/11:56:40.559885,154613,1615892200,558171034,mocap,-2.76167285156,10.3540302734,1.92760900879,0.1309636423,0.159978152371,0.974694273162,-0.0850093557333
2021/03/16/11:56:40.570345,154614,1615892200,568171024,mocap,-2.76101342773,10.3541923828,1.92762133789,0.130987975937,0.160108757128,0.974662542326,-0.0850896839165
2021/03/16/11:56:40.579343,154615,1615892200,578171015,mocap,-2.76044067383,10.3546376953,1.92791040039,0.130314479106,0.161232378579,0.97457142605,-0.085045815846
2021/03/16/11:56:40.590376,154616,1615892200,588171005,mocap,-2.75974267578,10.3549658203,1.92800341797,0.130321972482,0.161331750271,0.974529110159,-0.0853303363525
2021/03/16/11:56:40.599576,154617,1615892200,598170996,mocap,-2.75911572266,10.3552128906,1.928046875,0.130762363468,0.161526270698,0.974423430905,-0.0854952738044
2021/03/16/11:56:40.611348,154618,1615892200,608170986,mocap,-2.75859155273,10.3556552734,1.92838208008,0.132788288784,0.161609351039,0.974069472549,-0.0862458809139
2021/03/16/11:56:40.619249,154619,1615892200,618170977,mocap,-2.75780419922,10.355796875,1.92819250488,0.13372444205,0.160687866865,0.974066757178,-0.0865513141434
2021/03/16/11:56:40.631415,154620,1615892200,628171206,mocap,-2.75711352539,10.3561806641,1.92829272461,0.134283274614,0.160906487727,0.973936280428,-0.0867480270215
2021/03/16/11:56:40.639592,154621,1615892200,638171196,mocap,-2.75647753906,10.3567314453,1.9285904541,0.133890240999,0.16205892606,0.973814255807,-0.0865800796192
2021/03/16/11:56:40.651286,154622,1615892200,648171186,mocap,-2.75573657227,10.3569042969,1.92842797852,0.135274997194,0.161408401117,0.973699255602,-0.0869353454063
2021/03/16/11:56:40.659643,154623,1615892200,658171177,mocap,-2.75503466797,10.3573212891,1.92842297363,0.133116800553,0.162926535432,0.973867152871,-0.0855431184129
2021/03/16/11:56:40.671279,154624,1615892200,668171167,mocap,-2.75436694336,10.3577207031,1.92846252441,0.13347436198,0.162981910702,0.973808907795,-0.0855436060488
2021/03/16/11:56:40.679248,154625,1615892200,678171158,mocap,-2.75362866211,10.3581230469,1.92846484375,0.133700005753,0.163262030988,0.973731354497,-0.085539869598
2021/03/16/11:56:40.691179,154626,1615892200,688171148,mocap,-2.75297363281,10.3585605469,1.92852966309,0.133952370705,0.163756378042,0.973619328963,-0.0854751769573
2021/03/16/11:56:40.699644,154627,1615892200,698171139,mocap,-2.7522980957,10.3590107422,1.92850524902,0.134123270131,0.164674143985,0.973492695513,-0.0848843726699
2021/03/16/11:56:40.711110,154628,1615892200,708171129,mocap,-2.75149926758,10.3592070312,1.92818505859,0.136332794791,0.16453087321,0.973184664177,-0.0851737620617
2021/03/16/11:56:40.719385,154629,1615892200,718171120,mocap,-2.75079711914,10.3596181641,1.92826135254,0.13702461163,0.16543219621,0.972942608883,-0.0850830107405
2021/03/16/11:56:40.731055,154630,1615892200,728171110,mocap,-2.75014624023,10.3600878906,1.92840148926,0.137581388959,0.166130376371,0.972763905829,-0.0848671823284
2021/03/16/11:56:40.739490,154631,1615892200,738171101,mocap,-2.74943237305,10.3603886719,1.92839123535,0.137745737397,0.16689970132,0.97261950412,-0.0847460981423
2021/03/16/11:56:40.750141,154632,1615892200,748171091,mocap,-2.74882104492,10.3607539063,1.92863366699,0.13761787834,0.168713280782,0.972398402036,-0.0838957288192
2021/03/16/11:56:40.759403,154633,1615892200,758171082,mocap,-2.74817993164,10.3610185547,1.92877661133,0.138217326072,0.169417571689,0.972212280306,-0.0836476605372
2021/03/16/11:56:40.770843,154634,1615892200,768171072,mocap,-2.74750537109,10.3612265625,1.92878796387,0.138853061973,0.170043847752,0.972036685251,-0.0833642245927
2021/03/16/11:56:40.779403,154635,1615892200,778171062,mocap,-2.74691943359,10.3613359375,1.92894580078,0.138338851914,0.170435855384,0.972075499616,-0.0829651528824
2021/03/16/11:56:40.790797,154636,1615892200,788171053,mocap,-2.74622900391,10.3612070313,1.92881433105,0.139378633354,0.169958216333,0.971998628192,-0.0831052135983
2021/03/16/11:56:40.799601,154637,1615892200,798171043,mocap,-2.74559985352,10.3612275391,1.92884094238,0.139635027575,0.170583987228,0.971881105643,-0.0827664188566
2021/03/16/11:56:40.810708,154638,1615892200,808171034,mocap,-2.74503149414,10.3612304687,1.92886071777,0.14011452316,0.171133928718,0.971733935198,-0.0825485475917
2021/03/16/11:56:40.819260,154639,1615892200,818171024,mocap,-2.74449731445,10.3611484375,1.92889477539,0.140548534043,0.171933045206,0.971574166094,-0.0820291760037
2021/03/16/11:56:40.830738,154640,1615892200,828171015,mocap,-2.74398876953,10.3609628906,1.92883557129,0.140639086527,0.172576594885,0.971504249262,-0.0813478095318
2021/03/16/11:56:40.839175,154641,1615892200,838171005,mocap,-2.74350024414,10.3609550781,1.92898205566,0.139865513971,0.174634211539,0.971349635212,-0.0801275113979
2021/03/16/11:56:40.850703,154642,1615892200,848170996,mocap,-2.742953125,10.3607705078,1.92885302734,0.140492400007,0.175719627667,0.971117694833,-0.0794664688217
2021/03/16/11:56:40.859340,154643,1615892200,858170986,mocap,-2.74247021484,10.3604199219,1.92867407227,0.140656809738,0.176691147881,0.970986760415,-0.0786167574328
2021/03/16/11:56:40.870641,154644,1615892200,868170977,mocap,-2.74189624023,10.3598603516,1.9282878418,0.141639012173,0.17660171432,0.97089011926,-0.0782470542689
2021/03/16/11:56:40.879577,154645,1615892200,878171206,mocap,-2.74144995117,10.3595029297,1.92825830078,0.141686053598,0.17736305738,0.970813660497,-0.0773837854998
2021/03/16/11:56:40.889866,154646,1615892200,888171196,mocap,-2.74096508789,10.35896875,1.92820166016,0.141904627388,0.178106272265,0.970740403931,-0.0761859675356
2021/03/16/11:56:40.900620,154647,1615892200,898171186,mocap,-2.74051220703,10.3584892578,1.92838549805,0.141111554665,0.179356709597,0.970731132303,-0.0748315688535
2021/03/16/11:56:40.909452,154648,1615892200,908171177,mocap,-2.73992333984,10.3575585937,1.92810302734,0.142190036756,0.178364380805,0.970800759454,-0.074256539465
2021/03/16/11:56:40.919716,154649,1615892200,918171167,mocap,-2.73941186523,10.3567998047,1.92806506348,0.142320453567,0.178239942635,0.970873205685,-0.0733527447572
2021/03/16/11:56:40.929552,154650,1615892200,928171158,mocap,-2.73889233398,10.3559130859,1.92790124512,0.142730410472,0.178091715469,0.97091894226,-0.0723033968236
2021/03/16/11:56:40.940367,154651,1615892200,938171148,mocap,-2.73837402344,10.3549375,1.92767834473,0.143061293169,0.178007929762,0.970964208603,-0.071240157229
2021/03/16/11:56:40.949667,154652,1615892200,948171139,mocap,-2.73791235352,10.3539628906,1.92755090332,0.142825391165,0.17794202143,0.97109879042,-0.0700334119408
2021/03/16/11:56:40.959451,154653,1615892200,958171129,mocap,-2.73746240234,10.3530703125,1.9274588623,0.142807598419,0.177937938298,0.971172618349,-0.0690493374694
2021/03/16/11:56:40.969432,154654,1615892200,968171120,mocap,-2.73697827148,10.3520126953,1.92729211426,0.142741283418,0.17780685596,0.971295074561,-0.0677902812971
2021/03/16/11:56:40.979486,154655,1615892200,978171110,mocap,-2.73657299805,10.3508730469,1.92721398926,0.142816617855,0.177852254564,0.971341558312,-0.0668398863058
2021/03/16/11:56:40.991482,154656,1615892200,988171101,mocap,-2.73611791992,10.3497294922,1.9270760498,0.142673195462,0.177267316391,0.971532800968,-0.0659142076032
2021/03/16/11:56:40.999926,154657,1615892200,998171091,mocap,-2.73561694336,10.3485771484,1.92685290527,0.142689258246,0.176896237255,0.971671352638,-0.0648250868826
2021/03/16/11:56:41.011422,154658,1615892201,8171082,mocap,-2.73517285156,10.3473330078,1.92669580078,0.14245395818,0.176472392891,0.971830599773,-0.0641065167446
2021/03/16/11:56:41.019381,154659,1615892201,18171072,mocap,-2.73476074219,10.3460869141,1.92654772949,0.142663028452,0.176395380883,0.971885306681,-0.0630149682536
2021/03/16/11:56:41.031349,154660,1615892201,28171062,mocap,-2.73433178711,10.3448447266,1.92628991699,0.142472151748,0.175949169827,0.97205598532,-0.0620542853756
2021/03/16/11:56:41.039411,154661,1615892201,38171053,mocap,-2.73394042969,10.3436503906,1.92609143066,0.142428213283,0.175745675643,0.97216126283,-0.0610748012861
2021/03/16/11:56:41.050358,154662,1615892201,48171043,mocap,-2.7335637207,10.3422958984,1.92582739258,0.141739851644,0.175608700127,0.972341524858,-0.0601944039706
2021/03/16/11:56:41.060397,154663,1615892201,58171034,mocap,-2.73317016602,10.3410673828,1.92552282715,0.141800699105,0.175544643071,0.972403949356,-0.0592216233925
2021/03/16/11:56:41.070344,154664,1615892201,68171024,mocap,-2.73282226562,10.3398076172,1.92524816895,0.141450017763,0.175459685831,0.972527139207,-0.0582816071069
2021/03/16/11:56:41.079349,154665,1615892201,78171015,mocap,-2.73248974609,10.338609375,1.92503527832,0.141165333566,0.175538891327,0.97261152969,-0.0573171911094
2021/03/16/11:56:41.090241,154666,1615892201,88171005,mocap,-2.73217382813,10.3373525391,1.9247364502,0.140859819416,0.175507602732,0.972716065372,-0.0563831154343
2021/03/16/11:56:41.100103,154667,1615892201,98170996,mocap,-2.73183984375,10.3361494141,1.92440893555,0.140405882194,0.175609980693,0.972812754897,-0.0555218221557
2021/03/16/11:56:41.111044,154668,1615892201,108170986,mocap,-2.73147973633,10.3349609375,1.92400744629,0.140381799077,0.175534446715,0.972877584499,-0.0546792158165
2021/03/16/11:56:41.119261,154669,1615892201,118170977,mocap,-2.73113964844,10.3337802734,1.92356323242,0.139864268699,0.1758352123,0.972944906214,-0.0538346703858
2021/03/16/11:56:41.131269,154670,1615892201,128171206,mocap,-2.73079296875,10.3326386719,1.9231027832,0.139547361718,0.175658869194,0.973056373871,-0.0532145686312
2021/03/16/11:56:41.140704,154671,1615892201,138171196,mocap,-2.7304699707,10.3314794922,1.92253088379,0.139485401147,0.176169171133,0.973009803583,-0.0525373526781
2021/03/16/11:56:41.149493,154672,1615892201,148171186,mocap,-2.73009863281,10.3304238281,1.92189416504,0.138796524058,0.176693524284,0.973055217681,-0.0517539309902
2021/03/16/11:56:41.159803,154673,1615892201,158171177,mocap,-2.72975244141,10.3293554688,1.92124609375,0.138856815368,0.177328492377,0.972958092791,-0.0512439819344
2021/03/16/11:56:41.169754,154674,1615892201,168171167,mocap,-2.7294128418,10.3282480469,1.92064526367,0.138244865739,0.177826070535,0.972987972515,-0.0506028842209
2021/03/16/11:56:41.179923,154675,1615892201,178171158,mocap,-2.72906713867,10.3270966797,1.91995605469,0.138220444403,0.178151167848,0.972965130154,-0.0499611638189
2021/03/16/11:56:41.189464,154676,1615892201,188171148,mocap,-2.72871337891,10.3259677734,1.91926818848,0.13814003733,0.178535382154,0.972933863659,-0.0494180493577
2021/03/16/11:56:41.199665,154677,1615892201,198171139,mocap,-2.72843847656,10.3247333984,1.91865539551,0.13796901988,0.178410364269,0.973013479057,-0.0487755552099
2021/03/16/11:56:41.209305,154678,1615892201,208171129,mocap,-2.72813891602,10.3235009766,1.91805761719,0.137545149335,0.17833984001,0.973105437952,-0.0483947668004
2021/03/16/11:56:41.219882,154679,1615892201,218171120,mocap,-2.7278684082,10.3222304687,1.91745935059,0.137595345666,0.1784528324,0.973106410327,-0.0478122853337
2021/03/16/11:56:41.229246,154680,1615892201,228171110,mocap,-2.72758618164,10.3209111328,1.91692736816,0.137333369732,0.178854623635,0.97308911416,-0.047414459379
2021/03/16/11:56:41.240574,154681,1615892201,238171101,mocap,-2.72741064453,10.3194970703,1.91646130371,0.138275538997,0.179385559307,0.972892564003,-0.0466986570704
2021/03/16/11:56:41.249581,154682,1615892201,248171091,mocap,-2.7271315918,10.3181220703,1.91600354004,0.138026530743,0.179230060421,0.972969341826,-0.0464318617726
2021/03/16/11:56:41.259655,154683,1615892201,258171082,mocap,-2.72693066406,10.3166044922,1.91557019043,0.137913435852,0.179110437902,0.973026932704,-0.0460208026416
2021/03/16/11:56:41.270499,154684,1615892201,268171072,mocap,-2.72675927734,10.3149990234,1.91511096191,0.138903160924,0.179955850842,0.972752485915,-0.0455457375651
2021/03/16/11:56:41.280420,154685,1615892201,278171062,mocap,-2.72657763672,10.3134140625,1.91467126465,0.139320707954,0.180486533745,0.972614555538,-0.0451140860635
2021/03/16/11:56:41.289262,154686,1615892201,288171053,mocap,-2.72650390625,10.311765625,1.9142956543,0.139606940699,0.181231249748,0.972462699967,-0.0445132417037
2021/03/16/11:56:41.300296,154687,1615892201,298171043,mocap,-2.72642407227,10.3100507813,1.91391174316,0.13981667204,0.182084777024,0.972300996976,-0.043899819159
2021/03/16/11:56:41.309202,154688,1615892201,308171034,mocap,-2.72635498047,10.3082109375,1.9135435791,0.139923676033,0.183329296498,0.972072564066,-0.0434356447537
2021/03/16/11:56:41.319706,154689,1615892201,318171024,mocap,-2.72636352539,10.3062392578,1.91328808594,0.140328322634,0.184280013158,0.971867038167,-0.0427000823905
2021/03/16/11:56:41.329334,154690,1615892201,328171015,mocap,-2.72640844727,10.3040869141,1.91309692383,0.14073305139,0.18523859128,0.971659268112,-0.041942109618
2021/03/16/11:56:41.339341,154691,1615892201,338171005,mocap,-2.72644921875,10.3018603516,1.91291674805,0.141062257495,0.18609216252,0.971472713338,-0.0413751277028
2021/03/16/11:56:41.349405,154692,1615892201,348170996,mocap,-2.72652246094,10.2994404297,1.91271374512,0.141271210478,0.186857100887,0.97132540431,-0.0406672282833
2021/03/16/11:56:41.361113,154693,1615892201,358170986,mocap,-2.72671484375,10.2967626953,1.9126340332,0.141791172313,0.187651952027,0.971152372424,-0.0393075573493
2021/03/16/11:56:41.369378,154694,1615892201,368170977,mocap,-2.72685302734,10.2940341797,1.91252441406,0.141993080825,0.18835273591,0.971004301204,-0.0388826162295
2021/03/16/11:56:41.381269,154695,1615892201,378171206,mocap,-2.72702392578,10.2911367187,1.91234997559,0.14223788944,0.189158814577,0.970839147421,-0.0381925018471
2021/03/16/11:56:41.389113,154696,1615892201,388171196,mocap,-2.7272878418,10.2881103516,1.91223937988,0.142763029367,0.189665793143,0.970678785852,-0.0377927811574
2021/03/16/11:56:41.401277,154697,1615892201,398171186,mocap,-2.72757666016,10.2849140625,1.91208496094,0.142861252925,0.190155144302,0.97058158436,-0.0374575715051
2021/03/16/11:56:41.409266,154698,1615892201,408171177,mocap,-2.72788549805,10.2815517578,1.91186242676,0.143148498881,0.190869476516,0.970421832831,-0.0368622214619
2021/03/16/11:56:41.421275,154699,1615892201,418171167,mocap,-2.7282434082,10.2781132813,1.91164404297,0.143036839085,0.191017745349,0.970431283999,-0.0362739681973
2021/03/16/11:56:41.429348,154700,1615892201,428171158,mocap,-2.72863720703,10.2744560547,1.91133679199,0.142765022851,0.191316384088,0.970422193682,-0.0360133898392
2021/03/16/11:56:41.440926,154701,1615892201,438171148,mocap,-2.72903857422,10.2706738281,1.91095727539,0.143016665872,0.191538427157,0.970357752864,-0.0355680454876
2021/03/16/11:56:41.449393,154702,1615892201,448171139,mocap,-2.72951147461,10.2667636719,1.91056799316,0.142572989107,0.191676566392,0.970403536766,-0.0353555162929
2021/03/16/11:56:41.460192,154703,1615892201,458171129,mocap,-2.72990820312,10.2627910156,1.91012841797,0.141977849944,0.191558865597,0.970505400693,-0.0355914437664
2021/03/16/11:56:41.469399,154704,1615892201,468171120,mocap,-2.73050195313,10.2585439453,1.9095859375,0.14178251445,0.19171182281,0.970532369658,-0.034802422845
2021/03/16/11:56:41.481150,154705,1615892201,478171110,mocap,-2.73110375977,10.2543164063,1.90911804199,0.141622167935,0.192115970646,0.970490238478,-0.0343994247103
2021/03/16/11:56:41.489548,154706,1615892201,488171101,mocap,-2.73171435547,10.2499355469,1.90857421875,0.14184684251,0.192375481436,0.970413318255,-0.03419264724
2021/03/16/11:56:41.501025,154707,1615892201,498171091,mocap,-2.73234106445,10.2454404297,1.90807739258,0.141151204174,0.192810472253,0.970436151584,-0.0339725370956
2021/03/16/11:56:41.509281,154708,1615892201,508171082,mocap,-2.732984375,10.2407158203,1.90745361328,0.141415103038,0.192865115635,0.970390169595,-0.0338781397428
2021/03/16/11:56:41.519901,154709,1615892201,518171072,mocap,-2.73371240234,10.2359462891,1.90685766602,0.141219781152,0.193194597978,0.970361016085,-0.0336498857613
2021/03/16/11:56:41.529455,154710,1615892201,528171062,mocap,-2.73439526367,10.2309560547,1.90617175293,0.140768676342,0.193169776004,0.970434677491,-0.0335581757604
2021/03/16/11:56:41.540671,154711,1615892201,538171053,mocap,-2.7351862793,10.2258515625,1.9054597168,0.14044397218,0.193453038034,0.970434070963,-0.0333037031096
2021/03/16/11:56:41.549370,154712,1615892201,548171043,mocap,-2.73599926758,10.2206054687,1.90479528809,0.140313330902,0.19316372818,0.970518443847,-0.0330740146935
2021/03/16/11:56:41.560978,154713,1615892201,558171034,mocap,-2.73677905273,10.2154785156,1.90430541992,0.139442672353,0.192850977538,0.970675032457,-0.0339738747413
2021/03/16/11:56:41.569269,154714,1615892201,568171024,mocap,-2.73775927734,10.2098603516,1.90360412598,0.139674423947,0.192681383657,0.970707783985,-0.0330353193257
2021/03/16/11:56:41.580530,154715,1615892201,578171015,mocap,-2.738609375,10.2043642578,1.90300549316,0.139107224723,0.192377175962,0.970826645789,-0.0337020577224
2021/03/16/11:56:41.589072,154716,1615892201,588171005,mocap,-2.73952050781,10.1987060547,1.90231494141,0.138787610654,0.192256522392,0.97089269771,-0.0338052162228
2021/03/16/11:56:41.600845,154717,1615892201,598170996,mocap,-2.74053442383,10.1929287109,1.90174047852,0.138334603223,0.192001959216,0.971012580407,-0.0336653323668
2021/03/16/11:56:41.609334,154718,1615892201,608170986,mocap,-2.74148120117,10.1870517578,1.90104589844,0.138135171646,0.19189872857,0.97105019273,-0.0339864589008
2021/03/16/11:56:41.620773,154719,1615892201,618170977,mocap,-2.74254174805,10.1811875,1.90042382813,0.138067403269,0.191705108887,0.971097486125,-0.0340032938032
2021/03/16/11:56:41.629355,154720,1615892201,628171206,mocap,-2.74357202148,10.1751201172,1.89960546875,0.137594920704,0.191872537076,0.971131527658,-0.0340019520247
2021/03/16/11:56:41.639705,154721,1615892201,638171196,mocap,-2.7446184082,10.1690742187,1.89885546875,0.137533969922,0.192040792243,0.971105227475,-0.0340496854799
2021/03/16/11:56:41.649509,154722,1615892201,648171186,mocap,-2.74574536133,10.1629658203,1.89815441895,0.137067191149,0.192154470353,0.971140327472,-0.0342886054239
2021/03/16/11:56:41.660591,154723,1615892201,658171177,mocap,-2.74682861328,10.1567685547,1.89742785645,0.137359436009,0.192711228096,0.970991356654,-0.0342132195855
2021/03/16/11:56:41.669165,154724,1615892201,668171167,mocap,-2.74800756836,10.1505507813,1.89669641113,0.137041757995,0.192812224854,0.971002781935,-0.0345919697232
2021/03/16/11:56:41.680564,154725,1615892201,678171158,mocap,-2.74912573242,10.1441914063,1.8959576416,0.136955500473,0.193367090109,0.970901898731,-0.0346678625221
2021/03/16/11:56:41.690747,154726,1615892201,688171148,mocap,-2.75037475586,10.1377333984,1.89524658203,0.136674966753,0.193686553257,0.970870934148,-0.0348584659839
2021/03/16/11:56:41.699336,154727,1615892201,698171139,mocap,-2.75154858398,10.1312783203,1.89455163574,0.136474489947,0.194247259468,0.970783844322,-0.0349491195659
2021/03/16/11:56:41.709538,154728,1615892201,708171129,mocap,-2.75271606445,10.1246953125,1.89379467773,0.135469482421,0.194898251597,0.970804681205,-0.0346549054275
2021/03/16/11:56:41.719200,154729,1615892201,718171120,mocap,-2.75394970703,10.1181132813,1.89319750977,0.13510043789,0.195357039458,0.970758202447,-0.0348137059717
2021/03/16/11:56:41.730410,154730,1615892201,728171110,mocap,-2.7551105957,10.1113935547,1.89245861816,0.135257816178,0.195960632644,0.970617033366,-0.0347465763438
2021/03/16/11:56:41.739570,154731,1615892201,738171101,mocap,-2.75630957031,10.1047001953,1.89192333984,0.134853132286,0.196421123773,0.970564534907,-0.0351831239953
2021/03/16/11:56:41.751353,154732,1615892201,748171091,mocap,-2.7574921875,10.0979160156,1.89145324707,0.134793381533,0.196591578733,0.970532561578,-0.0353417415971
2021/03/16/11:56:41.759327,154733,1615892201,758171082,mocap,-2.75859155273,10.0910634766,1.89091503906,0.134710672172,0.19709372812,0.9704239058,-0.035840370552
2021/03/16/11:56:41.769252,154734,1615892201,768171072,mocap,-2.75975854492,10.0842558594,1.89064196777,0.13422333109,0.197580526172,0.970393417351,-0.0358140514857
2021/03/16/11:56:41.779687,154735,1615892201,778171062,mocap,-2.7608840332,10.0773398437,1.89072302246,0.134001514522,0.199022642432,0.970129607344,-0.0358067634928
2021/03/16/11:56:41.789435,154736,1615892201,788171053,mocap,-2.76202709961,10.0704072266,1.89118640137,0.133975126017,0.200755912312,0.969774527386,-0.0358481371176
2021/03/16/11:56:41.799445,154737,1615892201,798171043,mocap,-2.76317236328,10.0633535156,1.89187548828,0.13424722256,0.201860799941,0.96948644118,-0.0364134831987
2021/03/16/11:56:41.809273,154738,1615892201,808171034,mocap,-2.76412084961,10.0561142578,1.89268029785,0.134707424734,0.202452322915,0.969262933297,-0.0373677240547
2021/03/16/11:56:41.820314,154739,1615892201,818171024,mocap,-2.76503222656,10.0487167969,1.8936081543,0.135295870587,0.20287608876,0.969045755401,-0.0385570090102
2021/03/16/11:56:41.829221,154740,1615892201,828171015,mocap,-2.76594848633,10.0412832031,1.89478137207,0.136082748955,0.203811650086,0.968699823126,-0.0395341303855
2021/03/16/11:56:41.840295,154741,1615892201,838171005,mocap,-2.76682861328,10.0338193359,1.89625036621,0.136764758156,0.20446051936,0.968406485596,-0.0409899719091
2021/03/16/11:56:41.851262,154742,1615892201,848170996,mocap,-2.76778222656,10.0264228516,1.89795703125,0.137515572219,0.204746351334,0.968175825579,-0.0424731247101
2021/03/16/11:56:41.861252,154743,1615892201,858170986,mocap,-2.76869824219,10.018921875,1.89974133301,0.138167406331,0.20547014373,0.967877679748,-0.0436416473183
2021/03/16/11:56:41.869519,154744,1615892201,868170977,mocap,-2.76958740234,10.0113359375,1.90165161133,0.138693925265,0.205514868347,0.967719252654,-0.0452447123884
2021/03/16/11:56:41.880870,154745,1615892201,878171206,mocap,-2.77047143555,10.0037734375,1.90354528809,0.139245635117,0.20557416374,0.967557588559,-0.046714405299
2021/03/16/11:56:41.889634,154746,1615892201,888171196,mocap,-2.77135424805,9.99628222656,1.90547973633,0.139945387898,0.205279910354,0.967443323274,-0.0482584037654
2021/03/16/11:56:41.900092,154747,1615892201,898171186,mocap,-2.7722097168,9.98879101563,1.90721765137,0.140504941012,0.205339132193,0.96729209624,-0.0493984799089
2021/03/16/11:56:41.909786,154748,1615892201,908171177,mocap,-2.77303198242,9.9814375,1.90887463379,0.141201807404,0.205298208691,0.967122687724,-0.050876396319
2021/03/16/11:56:41.921015,154749,1615892201,918171167,mocap,-2.77380175781,9.97425,1.91038635254,0.14166731856,0.205438095626,0.966944943273,-0.0523741030388
2021/03/16/11:56:41.929132,154750,1615892201,928171158,mocap,-2.77465185547,9.96717480469,1.91180053711,0.142077082064,0.206056349316,0.966688269478,-0.0535600526093
2021/03/16/11:56:41.940895,154751,1615892201,938171148,mocap,-2.77543530273,9.9601484375,1.913015625,0.142786603195,0.206956685214,0.966326296559,-0.0547213309516
2021/03/16/11:56:41.949119,154752,1615892201,948171139,mocap,-2.77624853516,9.95321289063,1.91409619141,0.142930623955,0.207977381966,0.96602869052,-0.0557209085962
2021/03/16/11:56:41.960707,154753,1615892201,958171129,mocap,-2.77705859375,9.94633496094,1.91508666992,0.143069876129,0.209180567309,0.965691537632,-0.0566953203111
2021/03/16/11:56:41.969291,154754,1615892201,968171120,mocap,-2.77785375977,9.93945117187,1.91596850586,0.143410661363,0.210166181552,0.965370304813,-0.0576517559004
2021/03/16/11:56:41.979853,154755,1615892201,978171110,mocap,-2.77863305664,9.93263671875,1.91682568359,0.142982348808,0.21167403224,0.965062884878,-0.0583419582339
2021/03/16/11:56:41.989216,154756,1615892201,988171101,mocap,-2.77940234375,9.92571386719,1.91756567383,0.14246780343,0.212269585707,0.964963511706,-0.0590760237079
2021/03/16/11:56:41.999948,154757,1615892201,998171091,mocap,-2.78018139648,9.91876757812,1.91815087891,0.142450581882,0.212975446542,0.964762927543,-0.0598480718459
2021/03/16/11:56:42.009591,154758,1615892202,8171082,mocap,-2.78094018555,9.91183886719,1.9187755127,0.142151960043,0.213572951012,0.964630613068,-0.0605573922553
2021/03/16/11:56:42.019525,154759,1615892202,18171072,mocap,-2.78163012695,9.90479492188,1.9193359375,0.141688124923,0.213917181477,0.964597431201,-0.0609566209554
2021/03/16/11:56:42.030815,154760,1615892202,28171062,mocap,-2.78223217773,9.89778125,1.91977294922,0.141052829783,0.213974591085,0.964630559001,-0.0616997435193
2021/03/16/11:56:42.039456,154761,1615892202,38171053,mocap,-2.78285864258,9.89069628906,1.92027502441,0.140995523069,0.214090541467,0.964559698571,-0.0625306678903
2021/03/16/11:56:42.049586,154762,1615892202,48171043,mocap,-2.78337451172,9.88351660156,1.92076281738,0.140822906237,0.214205139462,0.964540395268,-0.0628243703561
2021/03/16/11:56:42.059572,154763,1615892202,58171034,mocap,-2.78393530273,9.87630371094,1.92129064941,0.140873942489,0.214231027734,0.964477639487,-0.0635804927408
2021/03/16/11:56:42.069487,154764,1615892202,68171024,mocap,-2.78443505859,9.86908886719,1.92187036133,0.141126919178,0.214307813174,0.964371955827,-0.0643590214026
2021/03/16/11:56:42.079429,154765,1615892202,78171015,mocap,-2.78486669922,9.86178222656,1.92245996094,0.141385725966,0.21436829986,0.964250443932,-0.0654017767877
2021/03/16/11:56:42.090563,154766,1615892202,88171005,mocap,-2.78528076172,9.85443359375,1.92306103516,0.141219799564,0.214045483826,0.964298433959,-0.0661061737296
2021/03/16/11:56:42.099284,154767,1615892202,98170996,mocap,-2.78573071289,9.84703417969,1.92362548828,0.141343764895,0.213603701966,0.964317340339,-0.0669885896297
2021/03/16/11:56:42.109384,154768,1615892202,108170986,mocap,-2.78611938477,9.83956445312,1.92415576172,0.141406323038,0.213330309615,0.964327809384,-0.0675745004546
2021/03/16/11:56:42.119306,154769,1615892202,118170977,mocap,-2.78653759766,9.83205664062,1.92465124512,0.141583822266,0.212892933232,0.96434774275,-0.0682938438582
2021/03/16/11:56:42.130555,154770,1615892202,128171206,mocap,-2.78693969727,9.82449316406,1.92511572266,0.141440980087,0.212389860454,0.964424567342,-0.0690669227748
2021/03/16/11:56:42.139348,154771,1615892202,138171196,mocap,-2.78734936523,9.81691503906,1.92552246094,0.141129849291,0.211818760231,0.96455122494,-0.0696857989636
2021/03/16/11:56:42.149208,154772,1615892202,148171186,mocap,-2.78771020508,9.80929296875,1.92584753418,0.141100081479,0.211118594189,0.96465563002,-0.0704217156357
2021/03/16/11:56:42.159316,154773,1615892202,158171177,mocap,-2.78806933594,9.80166699219,1.92605151367,0.140795710307,0.210680622825,0.964762000818,-0.0708839304682
2021/03/16/11:56:42.171325,154774,1615892202,168171167,mocap,-2.78840991211,9.79397949219,1.92621899414,0.140688365951,0.210031428374,0.9648884288,-0.0713014210974
2021/03/16/11:56:42.179255,154775,1615892202,178171158,mocap,-2.78875244141,9.78620117187,1.92623950195,0.140440157427,0.209719423597,0.964945420997,-0.071935079322
2021/03/16/11:56:42.190279,154776,1615892202,188171148,mocap,-2.78898266602,9.77844824219,1.92619396973,0.140173692424,0.209009505981,0.965103423353,-0.0723999012864
2021/03/16/11:56:42.199378,154777,1615892202,198171139,mocap,-2.78917919922,9.77064648437,1.92602746582,0.140351865979,0.208731471574,0.965111915295,-0.0727427888207
2021/03/16/11:56:42.210284,154778,1615892202,208171129,mocap,-2.78938476562,9.76276367187,1.92578015137,0.140096077077,0.207939331023,0.965287450167,-0.0731741546245
2021/03/16/11:56:42.221425,154779,1615892202,218171120,mocap,-2.78953540039,9.75490820312,1.92551745605,0.140178266001,0.20765153429,0.96531664113,-0.073448387358
2021/03/16/11:56:42.231441,154780,1615892202,228171110,mocap,-2.7896953125,9.74703417969,1.92512915039,0.140257846124,0.207123783971,0.965389437167,-0.0738288918477
2021/03/16/11:56:42.239446,154781,1615892202,238171101,mocap,-2.7897277832,9.73905273438,1.92456103516,0.14015305092,0.207048252386,0.965405335487,-0.0740316223931
2021/03/16/11:56:42.250101,154782,1615892202,248171091,mocap,-2.78973144531,9.73113476563,1.92396240234,0.140122534155,0.206780389707,0.965452110529,-0.0742277855495
2021/03/16/11:56:42.261034,154783,1615892202,258171082,mocap,-2.78977026367,9.72316113281,1.92328198242,0.139951788586,0.206925356169,0.965438180894,-0.0743270495859
2021/03/16/11:56:42.269579,154784,1615892202,268171072,mocap,-2.78971826172,9.71523535156,1.92246704102,0.140128957094,0.207387562993,0.965282325063,-0.0747281947777
2021/03/16/11:56:42.280071,154785,1615892202,278171062,mocap,-2.78967553711,9.70721875,1.92149816895,0.140160624399,0.207627883344,0.965240396985,-0.0745428298387
2021/03/16/11:56:42.290073,154786,1615892202,288171053,mocap,-2.78955395508,9.69916210937,1.92052001953,0.140477987625,0.208126918235,0.965075468895,-0.0746891535925
2021/03/16/11:56:42.299491,154787,1615892202,298171043,mocap,-2.78941015625,9.69108691406,1.91940930176,0.140273306802,0.208640825166,0.964999746152,-0.0746183119931
2021/03/16/11:56:42.311090,154788,1615892202,308171034,mocap,-2.78911328125,9.68290527344,1.91814587402,0.140628344726,0.209192898286,0.964812351596,-0.0748272219249
2021/03/16/11:56:42.319255,154789,1615892202,318171024,mocap,-2.78885351563,9.67466503906,1.91696252441,0.140758478054,0.209466783946,0.964714898838,-0.0750724878341
2021/03/16/11:56:42.330906,154790,1615892202,328171015,mocap,-2.78854541016,9.66634375,1.91557641602,0.140957672387,0.209979299165,0.9645837055,-0.0749526702767
2021/03/16/11:56:42.339336,154791,1615892202,338171005,mocap,-2.78821362305,9.65809179688,1.91427416992,0.141338549937,0.21030190219,0.964435313336,-0.0752399796987
2021/03/16/11:56:42.351076,154792,1615892202,348170996,mocap,-2.7877956543,9.64970410156,1.91288513184,0.141130487477,0.210827030782,0.964372411652,-0.0749666375117
2021/03/16/11:56:42.359246,154793,1615892202,358170986,mocap,-2.78732641602,9.64125585938,1.91145812988,0.141745931362,0.211306228897,0.964153328486,-0.0752736691662
2021/03/16/11:56:42.370537,154794,1615892202,368170977,mocap,-2.78682617188,9.63275390625,1.91001147461,0.142032854308,0.211957179129,0.963990571725,-0.0749867076456
2021/03/16/11:56:42.379494,154795,1615892202,378171206,mocap,-2.78630493164,9.62424804687,1.9085032959,0.142365760038,0.212777369489,0.963789615002,-0.07461469284
2021/03/16/11:56:42.390680,154796,1615892202,388171196,mocap,-2.78573999023,9.6156171875,1.90705688477,0.142892755132,0.213102876782,0.96366508398,-0.0742860933229
