time,.header.seq,.header.stamp.secs,.header.stamp.nsecs,.header.frame_id,.pose.position.x,.pose.position.y,.pose.position.z,.pose.orientation.x,.pose.orientation.y,.pose.orientation.z,.pose.orientation.w
2021/03/16/15:07:58.202115,11686,1615903678,202450037,mocap,-2.81913769531,10.3366074219,1.93164331055,0.150491239764,0.258741937386,0.951094622285,-0.0763152006035
2021/03/16/15:07:58.211216,11687,1615903678,212450027,mocap,-2.81930664062,10.3365664063,1.93163427734,0.149579646852,0.259221082574,0.950858485549,-0.0793631685397
2021/03/16/15:07:58.221059,11688,1615903678,222450256,mocap,-2.81952612305,10.3365322266,1.93168835449,0.148584725217,0.259488234004,0.950654298305,-0.0827335681396
2021/03/16/15:07:58.232162,11689,1615903678,232450247,mocap,-2.81972314453,10.3364609375,1.9316697998,0.147776496289,0.260096223176,0.950316104876,-0.0860892256068
2021/03/16/15:07:58.241015,11690,1615903678,242450237,mocap,-2.81994726563,10.3363837891,1.93166992187,0.146378215057,0.260532114557,0.950072207028,-0.0897733178201
2021/03/16/15:07:58.252394,11691,1615903678,252450228,mocap,-2.82021606445,10.3364277344,1.93184179687,0.145271209213,0.261404927439,0.949638831036,-0.0935405544102
2021/03/16/15:07:58.261141,11692,1615903678,262450218,mocap,-2.8204296875,10.3363945313,1.93177416992,0.1437864515,0.261862000322,0.949350018314,-0.0974078576066
2021/03/16/15:07:58.272397,11693,1615903678,272450209,mocap,-2.82066186523,10.3363876953,1.93171130371,0.142106674641,0.261971492381,0.949145490857,-0.101486256144
2021/03/16/15:07:58.281438,11694,1615903678,282450199,mocap,-2.8208269043,10.3363076172,1.93155419922,0.139787283761,0.261545240463,0.949156747371,-0.105617565844
2021/03/16/15:07:58.292365,11695,1615903678,292450190,mocap,-2.82110620117,10.3362988281,1.9315949707,0.138396394337,0.261931831962,0.948786900246,-0.10973409092
2021/03/16/15:07:58.301095,11696,1615903678,302450180,mocap,-2.82136962891,10.3363203125,1.93164746094,0.136778660242,0.2623444649,0.948399429563,-0.114041708031
2021/03/16/15:07:58.312249,11697,1615903678,312450171,mocap,-2.82164916992,10.3363447266,1.93170446777,0.135036357585,0.262658377474,0.948022598943,-0.11844367747
2021/03/16/15:07:58.323244,11698,1615903678,322450161,mocap,-2.82188745117,10.3363925781,1.93166271973,0.133506220212,0.263279985321,0.947543600924,-0.122559611425
2021/03/16/15:07:58.331078,11699,1615903678,332450151,mocap,-2.82212646484,10.3364423828,1.9316640625,0.131764351469,0.264089387024,0.94700936066,-0.126760517833
2021/03/16/15:07:58.342350,11700,1615903678,342450142,mocap,-2.82238623047,10.3365175781,1.93172363281,0.130134191924,0.264825284803,0.946483013484,-0.130776763882
2021/03/16/15:07:58.351895,11701,1615903678,352450132,mocap,-2.82262109375,10.3365878906,1.93174768066,0.128653517488,0.265259540003,0.946041850423,-0.134500771382
2021/03/16/15:07:58.361259,11702,1615903678,362450123,mocap,-2.8228269043,10.3366474609,1.93168664551,0.12726271784,0.265809554897,0.945450465325,-0.138826825711
2021/03/16/15:07:58.373025,11703,1615903678,372450113,mocap,-2.82304833984,10.3366962891,1.93169042969,0.125512589471,0.266438481252,0.944946438871,-0.142595050471
2021/03/16/15:07:58.381066,11704,1615903678,382450104,mocap,-2.82327929688,10.3367978516,1.9317800293,0.124482225795,0.267054499907,0.944339416876,-0.146318612558
2021/03/16/15:07:58.392112,11705,1615903678,392450094,mocap,-2.82342797852,10.3368681641,1.93174951172,0.123161170894,0.267672601675,0.943753730691,-0.150038658167
2021/03/16/15:07:58.402905,11706,1615903678,402450085,mocap,-2.82352514648,10.3368828125,1.93160009766,0.120720409493,0.268678190449,0.943321401017,-0.152916135296
2021/03/16/15:07:58.411209,11707,1615903678,412450075,mocap,-2.82372485352,10.3369902344,1.93172937012,0.119200576082,0.269091153269,0.942899951464,-0.155951430036
2021/03/16/15:07:58.422777,11708,1615903678,422450066,mocap,-2.82391186523,10.3371074219,1.93179614258,0.117542304659,0.269362132024,0.942534826796,-0.15892122123
2021/03/16/15:07:58.431000,11709,1615903678,432450056,mocap,-2.82401293945,10.3371533203,1.93166503906,0.117393130135,0.270006147689,0.941849054373,-0.161974942325
2021/03/16/15:07:58.441880,11710,1615903678,442450047,mocap,-2.82416821289,10.3372460938,1.93174182129,0.116870997324,0.270584617324,0.941277040027,-0.164689614795
2021/03/16/15:07:58.451004,11711,1615903678,452450037,mocap,-2.82424731445,10.3373408203,1.93174414062,0.115713730386,0.271221018969,0.940882248094,-0.16670360266
2021/03/16/15:07:58.462635,11712,1615903678,462450027,mocap,-2.82431738281,10.3374804687,1.93174145508,0.115479316248,0.271700618173,0.940371423424,-0.168952301906
2021/03/16/15:07:58.471102,11713,1615903678,472450256,mocap,-2.82439916992,10.3375859375,1.93183850098,0.113699699465,0.271703135048,0.940259908243,-0.170766189235
2021/03/16/15:07:58.482634,11714,1615903678,482450247,mocap,-2.82445654297,10.3376884766,1.93184155273,0.113186457375,0.272225062029,0.939873456604,-0.172395560569
2021/03/16/15:07:58.491238,11715,1615903678,492450237,mocap,-2.82449682617,10.3378095703,1.93183728027,0.112773260784,0.272598017412,0.939532207246,-0.173930288004
2021/03/16/15:07:58.501536,11716,1615903678,502450228,mocap,-2.82455493164,10.3379003906,1.9318215332,0.112656501975,0.272953494699,0.939162362005,-0.17543931208
2021/03/16/15:07:58.512508,11717,1615903678,512450218,mocap,-2.82456298828,10.3379912109,1.93182849121,0.112432043403,0.273270001017,0.938859089546,-0.176709221044
2021/03/16/15:07:58.520970,11718,1615903678,522450209,mocap,-2.82456762695,10.3380830078,1.93179162598,0.112341923642,0.273606361736,0.938549082611,-0.177888935901
2021/03/16/15:07:58.532727,11719,1615903678,532450199,mocap,-2.82455224609,10.3381728516,1.93177160645,0.112279795335,0.273932804479,0.938276390616,-0.178861662957
2021/03/16/15:07:58.541289,11720,1615903678,542450190,mocap,-2.82452563477,10.3382363281,1.93180505371,0.112010054937,0.274205936814,0.938099192824,-0.179540411212
2021/03/16/15:07:58.551693,11721,1615903678,552450180,mocap,-2.82447949219,10.3383125,1.93175817871,0.112081556997,0.274284323201,0.937957898213,-0.180113336119
2021/03/16/15:07:58.560997,11722,1615903678,562450171,mocap,-2.82444018555,10.33840625,1.93175158691,0.112294530497,0.274499990568,0.937754914277,-0.180708076566
2021/03/16/15:07:58.571199,11723,1615903678,572450161,mocap,-2.82439648437,10.3384814453,1.93179211426,0.1124102045,0.274816929393,0.93755608232,-0.181185525042
2021/03/16/15:07:58.581143,11724,1615903678,582450151,mocap,-2.82436621094,10.3385371094,1.93173291016,0.112441086949,0.275080327553,0.937398849435,-0.181579797772
2021/03/16/15:07:58.592496,11725,1615903678,592450142,mocap,-2.82435620117,10.3386044922,1.93171777344,0.112601089449,0.275241542634,0.937270017071,-0.181901080478
2021/03/16/15:07:58.601090,11726,1615903678,602450132,mocap,-2.82435424805,10.3386455078,1.93170861816,0.112093814369,0.275428234011,0.937231836113,-0.182128407391
2021/03/16/15:07:58.612909,11727,1615903678,612450123,mocap,-2.82441259766,10.3387226563,1.93173852539,0.112241369242,0.275751596589,0.937030197685,-0.182585176263
2021/03/16/15:07:58.620785,11728,1615903678,622450113,mocap,-2.82445019531,10.3387763672,1.93168774414,0.112234658176,0.275951970446,0.936894626666,-0.182981837668
2021/03/16/15:07:58.632185,11729,1615903678,632450104,mocap,-2.82451855469,10.3388232422,1.93169372559,0.111938745719,0.276175547916,0.936772946722,-0.18344817562
2021/03/16/15:07:58.640938,11730,1615903678,642450094,mocap,-2.82462280273,10.3388837891,1.93171032715,0.111679114206,0.276416480771,0.936701036784,-0.183610657803
2021/03/16/15:07:58.652317,11731,1615903678,652450085,mocap,-2.82470678711,10.338921875,1.93167810059,0.111557490786,0.276722069474,0.936572386862,-0.183880317138
2021/03/16/15:07:58.662169,11732,1615903678,662450075,mocap,-2.82480004883,10.3389394531,1.93166333008,0.111302387911,0.27694103418,0.936512315543,-0.184011216191
2021/03/16/15:07:58.671033,11733,1615903678,672450066,mocap,-2.82492382813,10.3389628906,1.93165771484,0.111171658633,0.277161992166,0.936441491513,-0.184117966897
2021/03/16/15:07:58.682074,11734,1615903678,682450056,mocap,-2.82499316406,10.338984375,1.93164562988,0.111060679377,0.277366393344,0.936394978008,-0.184113697644
2021/03/16/15:07:58.692067,11735,1615903678,692450047,mocap,-2.82509033203,10.3389560547,1.93160913086,0.110850400688,0.277515266365,0.93639077688,-0.184037431205
2021/03/16/15:07:58.701275,11736,1615903678,702450037,mocap,-2.82518286133,10.3389228516,1.93161279297,0.111041769238,0.277485713114,0.936398677849,-0.183926411012
2021/03/16/15:07:58.712127,11737,1615903678,712450027,mocap,-2.82528979492,10.3389160156,1.93167712402,0.110993647572,0.277687985868,0.936398224321,-0.183652290518
2021/03/16/15:07:58.721110,11738,1615903678,722450256,mocap,-2.82538354492,10.3389130859,1.93176782227,0.110281594671,0.276914369068,0.936753786655,-0.183435933088
2021/03/16/15:07:58.731996,11739,1615903678,732450247,mocap,-2.82542602539,10.3387890625,1.93158728027,0.110691822819,0.277527035418,0.936569220704,-0.183205225422
2021/03/16/15:07:58.741210,11740,1615903678,742450237,mocap,-2.82551391602,10.3387060547,1.93162805176,0.110756060412,0.277611568605,0.936607030931,-0.182844689312
2021/03/16/15:07:58.751918,11741,1615903678,752450228,mocap,-2.82557739258,10.3386230469,1.93160217285,0.110857081832,0.277431664927,0.936716777745,-0.18249398223
2021/03/16/15:07:58.761945,11742,1615903678,762450218,mocap,-2.82566894531,10.3385253906,1.93163012695,0.111231423778,0.277335912185,0.936758590627,-0.182196883068
2021/03/16/15:07:58.771953,11743,1615903678,772450209,mocap,-2.82577172852,10.3384121094,1.93170068359,0.111139112521,0.27731564778,0.93689069021,-0.181603849687
2021/03/16/15:07:58.781150,11744,1615903678,782450199,mocap,-2.82583911133,10.33828125,1.93166088867,0.11103045899,0.277164535518,0.93707426259,-0.180952699265
2021/03/16/15:07:58.791751,11745,1615903678,792450190,mocap,-2.82590136719,10.3381767578,1.93177392578,0.110517063968,0.277728296371,0.93716852368,-0.179911448638
2021/03/16/15:07:58.800834,11746,1615903678,802450180,mocap,-2.8259699707,10.3380585938,1.93186254883,0.111016870897,0.276197179798,0.937624112497,-0.179586692074
2021/03/16/15:07:58.811157,11747,1615903678,812450171,mocap,-2.82599682617,10.3379082031,1.93183728027,0.111069789703,0.276133204979,0.937781307613,-0.178830059437
2021/03/16/15:07:58.821844,11748,1615903678,822450161,mocap,-2.82597949219,10.3377080078,1.93163098145,0.111724209724,0.276471333474,0.937721718955,-0.178211360588
2021/03/16/15:07:58.832940,11749,1615903678,832450151,mocap,-2.82602587891,10.3375703125,1.93169262695,0.11237428728,0.276244230377,0.937848534964,-0.177485945095
2021/03/16/15:07:58.842774,11750,1615903678,842450142,mocap,-2.82609863281,10.3374628906,1.9318347168,0.111831816457,0.275515717665,0.938351689346,-0.176297585996
2021/03/16/15:07:58.851227,11751,1615903678,852450132,mocap,-2.82613305664,10.3372714844,1.9317869873,0.112192002032,0.275118573792,0.938605919853,-0.175332964404
2021/03/16/15:07:58.861069,11752,1615903678,862450123,mocap,-2.82616113281,10.3370595703,1.93173681641,0.112165709833,0.274798973737,0.938935650844,-0.174081042288
2021/03/16/15:07:58.871990,11753,1615903678,872450113,mocap,-2.82620556641,10.336890625,1.93171557617,0.112991797969,0.274630008077,0.939094720945,-0.172951789139
2021/03/16/15:07:58.881775,11754,1615903678,882450104,mocap,-2.82615136719,10.3366425781,1.93140893555,0.114880167211,0.275394989064,0.938797974104,-0.172100251673
2021/03/16/15:07:58.890904,11755,1615903678,892450094,mocap,-2.82620996094,10.3365253906,1.93161657715,0.114684593255,0.274793281654,0.939231846499,-0.170820472402
2021/03/16/15:07:58.901739,11756,1615903678,902450085,mocap,-2.82628442383,10.3363779297,1.93173156738,0.115278824711,0.275525571151,0.939171691424,-0.16956705359
2021/03/16/15:07:58.911157,11757,1615903678,912450075,mocap,-2.8262890625,10.3362177734,1.9315826416,0.114802641476,0.274140886406,0.939833129988,-0.168466077525
2021/03/16/15:07:58.921307,11758,1615903678,922450066,mocap,-2.82638330078,10.3360771484,1.93165527344,0.114426965323,0.27389265234,0.940231397408,-0.166895752676
2021/03/16/15:07:58.931328,11759,1615903678,932450056,mocap,-2.82639990234,10.3358623047,1.93153967285,0.115277807697,0.274368210271,0.94020214081,-0.165689563785
2021/03/16/15:07:58.941247,11760,1615903678,942450047,mocap,-2.82645678711,10.3356943359,1.93150061035,0.115560454308,0.274221749492,0.940447869526,-0.164335078261
2021/03/16/15:07:58.952764,11761,1615903678,952450037,mocap,-2.82649243164,10.3355556641,1.93150061035,0.115837229122,0.273973833241,0.940730370674,-0.162930759745
2021/03/16/15:07:58.961257,11762,1615903678,962450027,mocap,-2.82648706055,10.3353544922,1.9314074707,0.11675140267,0.274105039262,0.940778008243,-0.161778492382
2021/03/16/15:07:58.971432,11763,1615903678,972450256,mocap,-2.82654052734,10.3352011719,1.93141821289,0.117296840535,0.274454476081,0.940813487359,-0.160580731494
2021/03/16/15:07:58.981505,11764,1615903678,982450247,mocap,-2.82656982422,10.335078125,1.93139501953,0.117560820693,0.274576049649,0.940951344285,-0.159367580434
2021/03/16/15:07:58.991142,11765,1615903678,992450237,mocap,-2.82666772461,10.3349267578,1.9314317627,0.117766393179,0.274670911731,0.941129928811,-0.157991844395
2021/03/16/15:07:59.001607,11766,1615903679,2450228,mocap,-2.82671899414,10.3347744141,1.93145812988,0.118226807624,0.274997313937,0.941190971991,-0.156711372898
2021/03/16/15:07:59.012186,11767,1615903679,12450218,mocap,-2.82677905273,10.3345839844,1.9314029541,0.118649463404,0.275164650358,0.941309793366,-0.155378856613
2021/03/16/15:07:59.020982,11768,1615903679,22450209,mocap,-2.8268527832,10.3344121094,1.93142346191,0.118925477372,0.275439661914,0.94139886592,-0.15413599893
2021/03/16/15:07:59.032731,11769,1615903679,32450199,mocap,-2.82691455078,10.3342568359,1.93147277832,0.119129863168,0.275908246366,0.941417369539,-0.153023055954
2021/03/16/15:07:59.040879,11770,1615903679,42450190,mocap,-2.82698144531,10.3340673828,1.93145056152,0.119327929173,0.276162002629,0.941505743444,-0.151862817636
2021/03/16/15:07:59.052097,11771,1615903679,52450180,mocap,-2.82707055664,10.3338603516,1.93146728516,0.119597116184,0.276580872114,0.941538306823,-0.15068233657
2021/03/16/15:07:59.060936,11772,1615903679,62450171,mocap,-2.82715600586,10.3336337891,1.93148571777,0.119865272283,0.276892986769,0.94159346021,-0.149547152217
2021/03/16/15:07:59.072101,11773,1615903679,72450161,mocap,-2.82726318359,10.333390625,1.93152099609,0.120317370881,0.277381719772,0.941576582192,-0.148380107748
2021/03/16/15:07:59.081002,11774,1615903679,82450151,mocap,-2.82736938477,10.3330839844,1.93152709961,0.120581845825,0.277930957235,0.941581472338,-0.147101046027
2021/03/16/15:07:59.091000,11775,1615903679,92450142,mocap,-2.82748974609,10.3327841797,1.93162145996,0.120683222744,0.278523362569,0.941614365426,-0.145680065478
2021/03/16/15:07:59.100766,11776,1615903679,102450132,mocap,-2.82759814453,10.3324335938,1.93162792969,0.120763953829,0.279005967382,0.941657218879,-0.144407135594
2021/03/16/15:07:59.111823,11777,1615903679,112450123,mocap,-2.8276887207,10.3320869141,1.93164697266,0.120881026714,0.279469643597,0.941670716996,-0.143320472794
2021/03/16/15:07:59.120735,11778,1615903679,122450113,mocap,-2.82776977539,10.33165625,1.93166357422,0.120874632378,0.280316297764,0.941589764955,-0.14219992372
2021/03/16/15:07:59.130998,11779,1615903679,132450104,mocap,-2.82788745117,10.3312314453,1.93173901367,0.121087846448,0.281298502706,0.941467314833,-0.140883574906
2021/03/16/15:07:59.141180,11780,1615903679,142450094,mocap,-2.82799072266,10.3307617188,1.93167553711,0.121288861407,0.28183659733,0.941452444692,-0.139729873011
2021/03/16/15:07:59.152084,11781,1615903679,152450085,mocap,-2.82808374023,10.3302099609,1.93165161133,0.121607511057,0.282382429318,0.941454684329,-0.138328799645
2021/03/16/15:07:59.162077,11782,1615903679,162450075,mocap,-2.82820385742,10.3296210937,1.93164135742,0.121871448797,0.283209474205,0.941372938081,-0.136955244086
2021/03/16/15:07:59.171948,11783,1615903679,172450066,mocap,-2.82831787109,10.3290283203,1.93164526367,0.122065384743,0.283883522702,0.941335058093,-0.135641110528
2021/03/16/15:07:59.181175,11784,1615903679,182450056,mocap,-2.828421875,10.3283417969,1.93161853027,0.122210364446,0.284447690261,0.941330681138,-0.1343528043
2021/03/16/15:07:59.192050,11785,1615903679,192450047,mocap,-2.82849243164,10.3275673828,1.93159753418,0.122368395233,0.284919353347,0.941338801837,-0.133147289923
2021/03/16/15:07:59.201080,11786,1615903679,202450037,mocap,-2.82858569336,10.3267138672,1.93158984375,0.122385191756,0.285215782291,0.941426518329,-0.13187092874
2021/03/16/15:07:59.212104,11787,1615903679,212450027,mocap,-2.82862207031,10.3258125,1.93151281738,0.122360840275,0.285447869046,0.941527228279,-0.130666849969
2021/03/16/15:07:59.221032,11788,1615903679,222450256,mocap,-2.82872631836,10.3248242188,1.93155187988,0.122335544841,0.285616782545,0.941695964127,-0.129096000572
2021/03/16/15:07:59.232704,11789,1615903679,232450247,mocap,-2.82881933594,10.32375,1.93152978516,0.122263313198,0.285759443898,0.941859251067,-0.127649420556
2021/03/16/15:07:59.240984,11790,1615903679,242450237,mocap,-2.82885546875,10.3226074219,1.93151794434,0.122264864959,0.285481340479,0.942141170849,-0.126181246783
2021/03/16/15:07:59.251102,11791,1615903679,252450228,mocap,-2.8288762207,10.3213681641,1.93147521973,0.122411007864,0.285265452331,0.942368802772,-0.124820710866
2021/03/16/15:07:59.262251,11792,1615903679,262450218,mocap,-2.82886767578,10.3201015625,1.93146020508,0.122453329087,0.285182579322,0.94255319745,-0.1235700073
2021/03/16/15:07:59.271469,11793,1615903679,272450209,mocap,-2.82881567383,10.3187011719,1.93134265137,0.122596245296,0.284801451246,0.942821696966,-0.122251948361
2021/03/16/15:07:59.280783,11794,1615903679,282450199,mocap,-2.82885449219,10.3173466797,1.93152441406,0.123824731999,0.283914144697,0.943003419493,-0.121674717931
2021/03/16/15:07:59.292058,11795,1615903679,292450190,mocap,-2.82870776367,10.3157988281,1.9313840332,0.122469906488,0.283589165055,0.943529970528,-0.119705836785
2021/03/16/15:07:59.301061,11796,1615903679,302450180,mocap,-2.82866235352,10.3143134766,1.93144824219,0.123979254112,0.282458680254,0.943757314843,-0.119031013539
2021/03/16/15:07:59.313084,11797,1615903679,312450171,mocap,-2.82851342773,10.3126552734,1.93132421875,0.124484296395,0.281692555973,0.944070267808,-0.117831624382
2021/03/16/15:07:59.320843,11798,1615903679,322450161,mocap,-2.8283449707,10.3110478516,1.93131555176,0.12423783949,0.280726073932,0.94455802381,-0.11648164234
2021/03/16/15:07:59.333004,11799,1615903679,332450151,mocap,-2.82813818359,10.3093818359,1.93126696777,0.124223581473,0.280201889157,0.944876207602,-0.115170913873
2021/03/16/15:07:59.340888,11800,1615903679,342450142,mocap,-2.82787548828,10.30765625,1.93113916016,0.124824844424,0.279216655992,0.945223882951,-0.114055448903
2021/03/16/15:07:59.353750,11801,1615903679,352450132,mocap,-2.8276003418,10.3058798828,1.93102050781,0.124934369647,0.278011059026,0.945702819005,-0.112904530422
2021/03/16/15:07:59.361237,11802,1615903679,362450123,mocap,-2.82734765625,10.3042119141,1.93112890625,0.125107887985,0.277254901521,0.946040235938,-0.111739023726
2021/03/16/15:07:59.372779,11803,1615903679,372450113,mocap,-2.82702783203,10.3023525391,1.93087805176,0.125226469716,0.276466799872,0.946368006512,-0.110779243351
2021/03/16/15:07:59.380995,11804,1615903679,382450104,mocap,-2.82670849609,10.3005732422,1.93078991699,0.125369137727,0.275836597456,0.946681221878,-0.109505299799
2021/03/16/15:07:59.392709,11805,1615903679,392450094,mocap,-2.8263762207,10.2988007812,1.93078222656,0.125699213845,0.274812688293,0.947043087962,-0.108568350917
2021/03/16/15:07:59.401512,11806,1615903679,402450085,mocap,-2.82599926758,10.2970146484,1.93063232422,0.125797781686,0.274323166408,0.947304368947,-0.107406466557
2021/03/16/15:07:59.412693,11807,1615903679,412450075,mocap,-2.8256027832,10.2952363281,1.93056347656,0.125708264269,0.273436823492,0.947707586321,-0.106207663647
2021/03/16/15:07:59.420815,11808,1615903679,422450066,mocap,-2.82517944336,10.2934394531,1.93042980957,0.126300322211,0.272963028936,0.947886076982,-0.105125601044
2021/03/16/15:07:59.432944,11809,1615903679,432450056,mocap,-2.8247746582,10.2916757812,1.93033117676,0.126192922924,0.272417837666,0.948173056851,-0.104075514684
2021/03/16/15:07:59.441029,11810,1615903679,442450047,mocap,-2.82433300781,10.2898554687,1.93009082031,0.125869481587,0.272155523095,0.948426767882,-0.102834384381
2021/03/16/15:07:59.451705,11811,1615903679,452450037,mocap,-2.82390673828,10.28809375,1.9299362793,0.125807849674,0.272079305267,0.948589241798,-0.101605596069
2021/03/16/15:07:59.461143,11812,1615903679,462450027,mocap,-2.82340429688,10.2863232422,1.92975280762,0.125830341419,0.271974021422,0.948754169445,-0.100311400268
2021/03/16/15:07:59.472807,11813,1615903679,472450256,mocap,-2.82292236328,10.2845078125,1.92958850098,0.125859579004,0.271788909548,0.948914647938,-0.0992529488178
2021/03/16/15:07:59.481553,11814,1615903679,482450247,mocap,-2.82243505859,10.2827421875,1.92944885254,0.125454793483,0.271496405538,0.949186348068,-0.0979595578171
2021/03/16/15:07:59.492612,11815,1615903679,492450237,mocap,-2.82189599609,10.2809023438,1.92926977539,0.125361598384,0.271889799566,0.949210586827,-0.0967453575788
2021/03/16/15:07:59.500880,11816,1615903679,502450228,mocap,-2.82133789063,10.2790712891,1.92913122559,0.125628042378,0.27158406345,0.949347098821,-0.0959155074348
2021/03/16/15:07:59.512558,11817,1615903679,512450218,mocap,-2.82074853516,10.2771826172,1.92892578125,0.125877651057,0.271512510049,0.949455388717,-0.0947112947947
2021/03/16/15:07:59.521329,11818,1615903679,522450209,mocap,-2.82017724609,10.2753007812,1.92881518555,0.125737257319,0.271213147974,0.949642243909,-0.0938785608391
2021/03/16/15:07:59.532370,11819,1615903679,532450199,mocap,-2.81959594727,10.2734013672,1.92863647461,0.12547920939,0.271311722384,0.949776167915,-0.092575098439
2021/03/16/15:07:59.541229,11820,1615903679,542450190,mocap,-2.81893579102,10.2713720703,1.92822290039,0.12540037729,0.271588595604,0.949808267331,-0.0915349063297
2021/03/16/15:07:59.552467,11821,1615903679,552450180,mocap,-2.81834326172,10.2694755859,1.92805505371,0.125939602413,0.27097622669,0.949971932386,-0.0909088824089
2021/03/16/15:07:59.560950,11822,1615903679,562450171,mocap,-2.81767260742,10.2674863281,1.92771911621,0.126048809897,0.271086918285,0.950026886334,-0.0898471515864
2021/03/16/15:07:59.572205,11823,1615903679,572450161,mocap,-2.81704467773,10.2655166016,1.92734729004,0.126143497982,0.271216469122,0.95006284349,-0.08893840274
2021/03/16/15:07:59.580899,11824,1615903679,582450151,mocap,-2.81635693359,10.2634658203,1.92684484863,0.126364720196,0.271173366746,0.950106727415,-0.0882845595415
2021/03/16/15:07:59.592363,11825,1615903679,592450142,mocap,-2.8156875,10.2613984375,1.92630322266,0.126415384759,0.27157786566,0.950062388643,-0.0874418101958
2021/03/16/15:07:59.602313,11826,1615903679,602450132,mocap,-2.81504589844,10.2593642578,1.9257265625,0.126354345011,0.27182437305,0.950084824916,-0.0865154166075
2021/03/16/15:07:59.611154,11827,1615903679,612450123,mocap,-2.8143828125,10.2572558594,1.92506677246,0.126331028118,0.272077085681,0.950120466211,-0.0853559190949
2021/03/16/15:07:59.622674,11828,1615903679,622450113,mocap,-2.81372924805,10.2550810547,1.92431433105,0.126619602932,0.272334048591,0.950083076145,-0.0845209984892
2021/03/16/15:07:59.631139,11829,1615903679,632450104,mocap,-2.81307373047,10.2528662109,1.92342700195,0.126280218048,0.272688607574,0.950129342999,-0.0833573675141
2021/03/16/15:07:59.641314,11830,1615903679,642450094,mocap,-2.81239990234,10.2506201172,1.92253771973,0.126373508511,0.272897963725,0.950145096741,-0.0823452744236
2021/03/16/15:07:59.652148,11831,1615903679,652450085,mocap,-2.81177441406,10.2483203125,1.92164501953,0.126777998261,0.273406356031,0.950031285963,-0.0813440541348
2021/03/16/15:07:59.661416,11832,1615903679,662450075,mocap,-2.81112988281,10.2459765625,1.92075061035,0.126507906953,0.273741446714,0.950075139977,-0.0801161599721
2021/03/16/15:07:59.671336,11833,1615903679,672450066,mocap,-2.81051000977,10.2435263672,1.91980371094,0.126878301749,0.274193365353,0.949982881078,-0.079072301572
2021/03/16/15:07:59.680976,11834,1615903679,682450056,mocap,-2.80990039063,10.2410332031,1.91902648926,0.126853882548,0.274528657201,0.949997068702,-0.0777668199725
2021/03/16/15:07:59.692445,11835,1615903679,692450047,mocap,-2.80932177734,10.2384101562,1.91833337402,0.127337504974,0.275218744625,0.949821304468,-0.0766766151334
2021/03/16/15:07:59.701006,11836,1615903679,702450037,mocap,-2.80870947266,10.2356953125,1.91758874512,0.127692477768,0.275468130886,0.949782506302,-0.075664587033
2021/03/16/15:07:59.713056,11837,1615903679,712450027,mocap,-2.80810083008,10.2328857422,1.91693457031,0.127877153422,0.275328061422,0.949892040756,-0.0744782050385
2021/03/16/15:07:59.721211,11838,1615903679,722450256,mocap,-2.80746948242,10.2299804688,1.91620410156,0.128263072221,0.275445806738,0.949897460674,-0.0733008534499
2021/03/16/15:07:59.732160,11839,1615903679,732450247,mocap,-2.80687988281,10.2270253906,1.91553942871,0.128704000491,0.275149857741,0.95000120966,-0.0722878780294
2021/03/16/15:07:59.741066,11840,1615903679,742450237,mocap,-2.80630151367,10.2239658203,1.91474255371,0.129246251136,0.275258333423,0.949974591141,-0.0712498119364
2021/03/16/15:07:59.753146,11841,1615903679,752450228,mocap,-2.80576904297,10.2208623047,1.91419384766,0.129656524851,0.275002260007,0.950056201126,-0.070399982833
2021/03/16/15:07:59.762820,11842,1615903679,762450218,mocap,-2.80523974609,10.2176669922,1.91354248047,0.130197534612,0.275210468096,0.950004668287,-0.0692742335174
2021/03/16/15:07:59.771115,11843,1615903679,772450209,mocap,-2.80471679688,10.2143583984,1.91298852539,0.130754921106,0.275018488949,0.95005025668,-0.068355719648
2021/03/16/15:07:59.782994,11844,1615903679,782450199,mocap,-2.80422290039,10.2109863281,1.91259924316,0.13068947195,0.275061810442,0.950133898986,-0.0671329889375
2021/03/16/15:07:59.791367,11845,1615903679,792450190,mocap,-2.8037746582,10.2074873047,1.91223217773,0.13120336191,0.274648929848,0.950256204565,-0.0660816541808
2021/03/16/15:07:59.802982,11846,1615903679,802450180,mocap,-2.80330859375,10.2038183594,1.91187438965,0.13170704049,0.274167287542,0.950388419278,-0.0651720266423
2021/03/16/15:07:59.811033,11847,1615903679,812450171,mocap,-2.80288891602,10.2000898437,1.91162561035,0.132323752141,0.273493036532,0.950560230153,-0.0642435270167
2021/03/16/15:07:59.821740,11848,1615903679,822450161,mocap,-2.80252563477,10.1962822266,1.91148876953,0.132579237116,0.272709724968,0.950818805063,-0.0632118796913
2021/03/16/15:07:59.832695,11849,1615903679,832450151,mocap,-2.80220507813,10.1923828125,1.9115065918,0.13228496359,0.271673486228,0.951226759625,-0.0621438229552
2021/03/16/15:07:59.841257,11850,1615903679,842450142,mocap,-2.80185522461,10.1882363281,1.91126611328,0.133508653693,0.271438868565,0.951182402566,-0.0612243508674
2021/03/16/15:07:59.851725,11851,1615903679,852450132,mocap,-2.80154760742,10.1840986328,1.91124731445,0.133928003275,0.270616058041,0.95142679108,-0.0601439248486
2021/03/16/15:07:59.861119,11852,1615903679,862450123,mocap,-2.80127832031,10.1798652344,1.91134594727,0.133409398132,0.268915308127,0.952055495201,-0.0589645487742
2021/03/16/15:07:59.872535,11853,1615903679,872450113,mocap,-2.80096801758,10.1754501953,1.9112220459,0.134411257483,0.268413588884,0.952115814433,-0.057993417825
2021/03/16/15:07:59.880951,11854,1615903679,882450104,mocap,-2.80070385742,10.1709619141,1.91117883301,0.134753462766,0.267414774522,0.952401793591,-0.0571109728557
2021/03/16/15:07:59.892552,11855,1615903679,892450094,mocap,-2.8004831543,10.1664375,1.91117626953,0.134939268034,0.266363326175,0.952733530104,-0.056042758049
2021/03/16/15:07:59.901192,11856,1615903679,902450085,mocap,-2.80031835937,10.1617675781,1.9111184082,0.135182836012,0.265345721511,0.953046998756,-0.0549424785163
2021/03/16/15:07:59.912269,11857,1615903679,912450075,mocap,-2.80015625,10.1570263672,1.91105310059,0.135591732893,0.264256039631,0.953356448979,-0.0538062265346
2021/03/16/15:07:59.921214,11858,1615903679,922450066,mocap,-2.80004638672,10.1521689453,1.91091003418,0.135990906148,0.263312742346,0.953622789624,-0.0526920036739
2021/03/16/15:07:59.932381,11859,1615903679,932450056,mocap,-2.7999543457,10.1473017578,1.91073803711,0.136416856893,0.262149182963,0.953935153783,-0.0517299022488
2021/03/16/15:07:59.940967,11860,1615903679,942450047,mocap,-2.79982836914,10.1422207031,1.91040734863,0.135967844595,0.261753527042,0.954185974073,-0.050268987119
2021/03/16/15:07:59.952275,11861,1615903679,952450037,mocap,-2.79970410156,10.1371796875,1.9100435791,0.136034720017,0.261249245584,0.95436917069,-0.0492226628529
2021/03/16/15:07:59.960907,11862,1615903679,962450027,mocap,-2.79964038086,10.1320498047,1.90964526367,0.136501731157,0.260756460717,0.954486960406,-0.0482492560097
2021/03/16/15:07:59.972673,11863,1615903679,972450256,mocap,-2.79966455078,10.1269296875,1.90933154297,0.136688128141,0.26033898335,0.954630444534,-0.0471243076638
2021/03/16/15:07:59.980912,11864,1615903679,982450247,mocap,-2.79965332031,10.1216679687,1.9088067627,0.1371128887,0.260270515377,0.95464197197,-0.0460218161809
2021/03/16/15:07:59.992260,11865,1615903679,992450237,mocap,-2.79966967773,10.1163769531,1.90823376465,0.137530209487,0.260437156358,0.954576840519,-0.0451773051002
2021/03/16/15:08:00.002289,11866,1615903680,2450228,mocap,-2.79979003906,10.1110058594,1.90767578125,0.137533966711,0.261005793515,0.954463815785,-0.0442630111587
2021/03/16/15:08:00.012087,11867,1615903680,12450218,mocap,-2.79989916992,10.1055615234,1.90706079102,0.137839580557,0.261246486254,0.954403036039,-0.0431898621103
2021/03/16/15:08:00.022243,11868,1615903680,22450209,mocap,-2.79999072266,10.0999873047,1.90634558105,0.138092916967,0.2615732068,0.954317636533,-0.0422804925181
2021/03/16/15:08:00.030717,11869,1615903680,32450199,mocap,-2.80011523438,10.0943027344,1.9055880127,0.138638745717,0.261985764582,0.954169810733,-0.0412641808787
2021/03/16/15:08:00.042407,11870,1615903680,42450190,mocap,-2.80025292969,10.08853125,1.90487719727,0.138766830064,0.262576371041,0.954014035196,-0.0406772086558
2021/03/16/15:08:00.051082,11871,1615903680,52450180,mocap,-2.80048461914,10.0826533203,1.90414880371,0.139565089177,0.263386885613,0.953715266699,-0.0397003819556
2021/03/16/15:08:00.061112,11872,1615903680,62450171,mocap,-2.80078344727,10.0766640625,1.90333435059,0.140141209432,0.263749990095,0.953563956505,-0.0388864984753
2021/03/16/15:08:00.071318,11873,1615903680,72450161,mocap,-2.80101220703,10.0704824219,1.90242053223,0.139454029776,0.263616143752,0.953732187697,-0.0381314841534
2021/03/16/15:08:00.080959,11874,1615903680,82450151,mocap,-2.80129174805,10.0642988281,1.90159387207,0.140486309987,0.264150457701,0.953449866166,-0.0377026292303
2021/03/16/15:08:00.091175,11875,1615903680,92450142,mocap,-2.8016340332,10.0579345703,1.90063708496,0.140932276573,0.263828488927,0.9534937036,-0.0371805047944
2021/03/16/15:08:00.101048,11876,1615903680,102450132,mocap,-2.80202709961,10.0515039062,1.89975366211,0.140949091662,0.264209637833,0.953409871539,-0.0365545943731
2021/03/16/15:08:00.112896,11877,1615903680,112450123,mocap,-2.80247119141,10.0450537109,1.89892004395,0.141087755787,0.264264680147,0.953387529145,-0.0362027603655
2021/03/16/15:08:00.122092,11878,1615903680,122450113,mocap,-2.8029128418,10.0384277344,1.89800390625,0.141689298895,0.264554901649,0.953245217918,-0.0354738167642
2021/03/16/15:08:00.131007,11879,1615903680,132450104,mocap,-2.8034206543,10.0316826172,1.89721240234,0.142125580126,0.264717572888,0.953146355812,-0.0351702908249
2021/03/16/15:08:00.141948,11880,1615903680,142450094,mocap,-2.80402270508,10.0248916016,1.89653381348,0.143113576483,0.265079125455,0.952907162146,-0.0349214794601
2021/03/16/15:08:00.153015,11881,1615903680,152450085,mocap,-2.80462231445,10.0179863281,1.89590063477,0.143629694062,0.264832799155,0.952914066112,-0.0344801343417
2021/03/16/15:08:00.160975,11882,1615903680,162450075,mocap,-2.80527587891,10.0110136719,1.89541064453,0.14334327346,0.265111621288,0.952895074221,-0.0340516955287
2021/03/16/15:08:00.171969,11883,1615903680,172450066,mocap,-2.80601367188,10.0038720703,1.89489196777,0.143766527011,0.264723567181,0.952952330223,-0.0336819486308
2021/03/16/15:08:00.180970,11884,1615903680,182450056,mocap,-2.80672290039,9.99667285156,1.89446875,0.144256459635,0.264449801149,0.952950062879,-0.0338016337623
2021/03/16/15:08:00.191212,11885,1615903680,192450047,mocap,-2.80746875,9.98939355469,1.89406213379,0.14507496888,0.264142834423,0.952908483521,-0.0338712050999
2021/03/16/15:08:00.201140,11886,1615903680,202450037,mocap,-2.80828369141,9.98200976562,1.89367126465,0.145002327159,0.263396420439,0.953123553853,-0.0339432670999
2021/03/16/15:08:00.211996,11887,1615903680,212450027,mocap,-2.80916113281,9.97465429688,1.89352307129,0.145913046325,0.263659398039,0.95289930423,-0.0342932080454
2021/03/16/15:08:00.221084,11888,1615903680,222450256,mocap,-2.81007104492,9.96720996094,1.89339086914,0.146869753749,0.263698393333,0.952743868372,-0.0342279883762
2021/03/16/15:08:00.232963,11889,1615903680,232450247,mocap,-2.81097949219,9.95969726562,1.89324401855,0.146798263932,0.263310905045,0.952842623671,-0.0347644196151
2021/03/16/15:08:00.241027,11890,1615903680,242450237,mocap,-2.81197802734,9.95219042969,1.89321203613,0.147739337083,0.263117401586,0.952741444129,-0.0350150102779
2021/03/16/15:08:00.252667,11891,1615903680,252450228,mocap,-2.81300634766,9.94465625,1.89332226562,0.148062517299,0.263171126394,0.95265707662,-0.0355379266637
2021/03/16/15:08:00.261169,11892,1615903680,262450218,mocap,-2.81404077148,9.93707226562,1.89350366211,0.148545265219,0.263446597658,0.952495429561,-0.0358142638334
2021/03/16/15:08:00.271865,11893,1615903680,272450209,mocap,-2.81517333984,9.92956738281,1.89408068848,0.148829489275,0.264374921263,0.95218721751,-0.0359886878001
2021/03/16/15:08:00.282943,11894,1615903680,282450199,mocap,-2.81628613281,9.92204101563,1.8948885498,0.149160123365,0.265258821652,0.95186957555,-0.0365146482179
2021/03/16/15:08:00.291061,11895,1615903680,292450190,mocap,-2.81740063477,9.91441308594,1.8958873291,0.14972202041,0.265881272752,0.951588878047,-0.0370010584458
2021/03/16/15:08:00.302778,11896,1615903680,302450180,mocap,-2.81850732422,9.90672363281,1.89703735352,0.150447554769,0.265830515043,0.951447276639,-0.0380492247878
2021/03/16/15:08:00.311179,11897,1615903680,312450171,mocap,-2.81960961914,9.89900683594,1.8981529541,0.151505239826,0.266261855991,0.951113485624,-0.0391655122341
2021/03/16/15:08:00.322601,11898,1615903680,322450161,mocap,-2.82072363281,9.8911796875,1.89921801758,0.151309993765,0.266522293486,0.95104171207,-0.0398851837793
2021/03/16/15:08:00.332406,11899,1615903680,332450151,mocap,-2.82183569336,9.88348046875,1.90064855957,0.153515570735,0.266778395151,0.95053315699,-0.0418207265191
2021/03/16/15:08:00.341171,11900,1615903680,342450142,mocap,-2.82304077148,9.87581933594,1.90213867187,0.154226006022,0.267240639684,0.950245705941,-0.0427769684548
2021/03/16/15:08:00.352279,11901,1615903680,352450132,mocap,-2.8242043457,9.86809277344,1.90362426758,0.154264314928,0.267591264589,0.950091882704,-0.043850269111
2021/03/16/15:08:00.361062,11902,1615903680,362450123,mocap,-2.82532226563,9.86030078125,1.90508239746,0.154322322754,0.267083266259,0.950165068879,-0.045138462481
2021/03/16/15:08:00.372540,11903,1615903680,372450113,mocap,-2.8265456543,9.85262304687,1.90666040039,0.154899886239,0.266887338506,0.950065643151,-0.0463944529603
2021/03/16/15:08:00.380918,11904,1615903680,382450104,mocap,-2.82765722656,9.84488769531,1.90800830078,0.155149887656,0.266347952938,0.950113228274,-0.0476667863568
2021/03/16/15:08:00.392581,11905,1615903680,392450094,mocap,-2.82888647461,9.83721679687,1.90933813477,0.154005433041,0.266377742934,0.950263598224,-0.0482112563438
2021/03/16/15:08:00.401037,11906,1615903680,402450085,mocap,-2.82996435547,9.8296484375,1.91051123047,0.154276944687,0.265573199583,0.950379976087,-0.0494711887211
2021/03/16/15:08:00.412514,11907,1615903680,412450075,mocap,-2.83111865234,9.82213964844,1.91144311523,0.154095151392,0.26515081473,0.95046788508,-0.0506017734908
2021/03/16/15:08:00.420893,11908,1615903680,422450066,mocap,-2.83221850586,9.81472558594,1.91226806641,0.153577906161,0.264688831193,0.950634469682,-0.0514563256745
2021/03/16/15:08:00.432402,11909,1615903680,432450056,mocap,-2.83329907227,9.80739453125,1.91294482422,0.152975795926,0.264882209246,0.950634540219,-0.0522473627803
2021/03/16/15:08:00.440977,11910,1615903680,442450047,mocap,-2.83433520508,9.80010058594,1.91340246582,0.1515955614,0.26528981284,0.95071803708,-0.052681371057
2021/03/16/15:08:00.452270,11911,1615903680,452450037,mocap,-2.83533374023,9.79292285156,1.91386486816,0.151259916078,0.265847862714,0.950570090424,-0.0534962949163
2021/03/16/15:08:00.460961,11912,1615903680,462450027,mocap,-2.83625952148,9.78582421875,1.91436560059,0.150466283167,0.266563526097,0.950463746155,-0.0540597724875
2021/03/16/15:08:00.472079,11913,1615903680,472450256,mocap,-2.83712451172,9.77877832031,1.9148782959,0.150003848799,0.26690318697,0.950401377901,-0.0547609207116
2021/03/16/15:08:00.480921,11914,1615903680,482450247,mocap,-2.83785864258,9.77151953125,1.91499035645,0.149891429899,0.267526042225,0.950187800692,-0.0557271289734
2021/03/16/15:08:00.492113,11915,1615903680,492450237,mocap,-2.8385793457,9.76438378906,1.91543530273,0.149546679451,0.267582892514,0.950177324836,-0.0565529715195
2021/03/16/15:08:00.500955,11916,1615903680,502450228,mocap,-2.83919506836,9.75723535156,1.91587268066,0.148965801254,0.268014247026,0.950099489373,-0.0573456140364
2021/03/16/15:08:00.511023,11917,1615903680,512450218,mocap,-2.83977075195,9.75008105469,1.91640686035,0.147755219162,0.268841007318,0.950025725644,-0.0578276005677
2021/03/16/15:08:00.520963,11918,1615903680,522450209,mocap,-2.84025512695,9.74278808594,1.9168001709,0.147986267557,0.268667307286,0.949988441648,-0.0586506831168
2021/03/16/15:08:00.531253,11919,1615903680,532450199,mocap,-2.84066748047,9.73547460938,1.91734814453,0.147650437892,0.268508395573,0.950036281596,-0.0594446065125
2021/03/16/15:08:00.543084,11920,1615903680,542450190,mocap,-2.84103125,9.72817089844,1.91802502441,0.147457202788,0.268233011087,0.950080605902,-0.0604505111636
2021/03/16/15:08:00.551323,11921,1615903680,552450180,mocap,-2.84129345703,9.72073339844,1.91870397949,0.14716305969,0.267873576661,0.950166974326,-0.0613963657012
2021/03/16/15:08:00.561192,11922,1615903680,562450171,mocap,-2.84154223633,9.71331347656,1.91955627441,0.145697958349,0.268140885371,0.950309942531,-0.0615108819831
2021/03/16/15:08:00.573004,11923,1615903680,572450161,mocap,-2.84168969727,9.70583984375,1.92033081055,0.14575545613,0.267110324746,0.950537758071,-0.0623329827902
2021/03/16/15:08:00.580956,11924,1615903680,582450151,mocap,-2.84176098633,9.69831640625,1.92108679199,0.145546872936,0.26650663943,0.950691422958,-0.0630565430849
2021/03/16/15:08:00.592993,11925,1615903680,592450142,mocap,-2.84180761719,9.69077441406,1.92188305664,0.144661484382,0.266183827109,0.950883261506,-0.0635628846223
2021/03/16/15:08:00.600993,11926,1615903680,602450132,mocap,-2.84174462891,9.68319042969,1.92252050781,0.144796759098,0.265660521443,0.950951106087,-0.0644234764099
2021/03/16/15:08:00.611904,11927,1615903680,612450123,mocap,-2.84161279297,9.67555664063,1.92295593262,0.145439290194,0.264286351588,0.951165514539,-0.065454541801
2021/03/16/15:08:00.620991,11928,1615903680,622450113,mocap,-2.84143408203,9.66796875,1.92350720215,0.144798474174,0.264201108723,0.951254102846,-0.0659303439104
2021/03/16/15:08:00.633081,11929,1615903680,632450104,mocap,-2.84116503906,9.6602421875,1.92374975586,0.145545532065,0.26324522903,0.951340372565,-0.0668575973538
2021/03/16/15:08:00.641005,11930,1615903680,642450094,mocap,-2.84087084961,9.65262304688,1.92416491699,0.145206895197,0.263433343102,0.951299654859,-0.0674299806371
2021/03/16/15:08:00.652685,11931,1615903680,652450085,mocap,-2.84051025391,9.64491210937,1.92434667969,0.145567837186,0.263282399567,0.951211720911,-0.0684735734962
2021/03/16/15:08:00.661168,11932,1615903680,662450075,mocap,-2.84006005859,9.63708300781,1.92426501465,0.146211552472,0.262618479983,0.951219757253,-0.0695318765907
2021/03/16/15:08:00.671907,11933,1615903680,672450066,mocap,-2.83961962891,9.62937109375,1.92430419922,0.147099547057,0.262299685744,0.951089624377,-0.0706337071853
2021/03/16/15:08:00.680767,11934,1615903680,682450056,mocap,-2.83911767578,9.621578125,1.92416918945,0.147639589856,0.262345373289,0.950919476181,-0.0716212918577
2021/03/16/15:08:00.692672,11935,1615903680,692450047,mocap,-2.83859399414,9.61372558594,1.9239276123,0.147753570166,0.263091896619,0.950640277238,-0.0723504878834
2021/03/16/15:08:00.701548,11936,1615903680,702450037,mocap,-2.83804223633,9.60586328125,1.92352038574,0.148424546425,0.263311930646,0.950404411746,-0.073269665275
2021/03/16/15:08:00.711451,11937,1615903680,712450027,mocap,-2.83745410156,9.59786328125,1.92286303711,0.149402240893,0.262933646182,0.950257357133,-0.0745373402725
2021/03/16/15:08:00.722433,11938,1615903680,722450256,mocap,-2.83684887695,9.58994433594,1.9222767334,0.14926328659,0.263947320061,0.949957909091,-0.0750483315556
2021/03/16/15:08:00.731188,11939,1615903680,732450247,mocap,-2.83625830078,9.58208398438,1.92166967773,0.149590900363,0.264213091766,0.949766346469,-0.075880815765
2021/03/16/15:08:00.742517,11940,1615903680,742450237,mocap,-2.83561279297,9.57394433594,1.92046728516,0.150397680672,0.265471013298,0.949224228706,-0.0766749607124
2021/03/16/15:08:00.751020,11941,1615903680,752450228,mocap,-2.83498242187,9.56587695313,1.91941479492,0.150645687947,0.265247791662,0.949179652472,-0.0775078960229
2021/03/16/15:08:00.761351,11942,1615903680,762450218,mocap,-2.83431811523,9.55775976563,1.91819824219,0.151002011794,0.267491046644,0.948454168258,-0.0779847535852
2021/03/16/15:08:00.772580,11943,1615903680,772450209,mocap,-2.83363354492,9.54960449219,1.91685314941,0.1516466975,0.268359507884,0.948049028643,-0.0786733942373
2021/03/16/15:08:00.780907,11944,1615903680,782450199,mocap,-2.8328840332,9.54135351562,1.91539074707,0.152397636231,0.26945570465,0.947546659644,-0.0795230307407
2021/03/16/15:08:00.791815,11945,1615903680,792450190,mocap,-2.83215844727,9.53305664063,1.91391003418,0.151746421221,0.270048951985,0.947446101978,-0.0799529383015
2021/03/16/15:08:00.801383,11946,1615903680,802450180,mocap,-2.83140234375,9.52469726563,1.91230065918,0.153133676209,0.270960516893,0.94688020711,-0.0809219111292
2021/03/16/15:08:00.811525,11947,1615903680,812450171,mocap,-2.83059277344,9.51619824219,1.91043701172,0.153694496828,0.272348888296,0.946338475121,-0.0815326310506
2021/03/16/15:08:00.821193,11948,1615903680,822450161,mocap,-2.82981005859,9.50783496094,1.90894274902,0.152978026227,0.273610432244,0.946074297049,-0.0817220502063
2021/03/16/15:08:00.831463,11949,1615903680,832450151,mocap,-2.82899487305,9.49927636719,1.90707458496,0.154012019958,0.27523263614,0.945380263619,-0.0823616895906
2021/03/16/15:08:00.841582,11950,1615903680,842450142,mocap,-2.82815844727,9.49073339844,1.90537036133,0.153428516184,0.275788535383,0.945308827165,-0.0824110813404
2021/03/16/15:08:00.852136,11951,1615903680,852450132,mocap,-2.82731933594,9.48210449219,1.90358776855,0.153884321597,0.277184892043,0.944797288772,-0.0827419986328
2021/03/16/15:08:00.861181,11952,1615903680,862450123,mocap,-2.82647509766,9.47350195312,1.90195227051,0.154182054174,0.278419890106,0.944362667617,-0.0830024294444
2021/03/16/15:08:00.872059,11953,1615903680,872450113,mocap,-2.82560473633,9.46475585937,1.90032849121,0.154462717978,0.279500256303,0.943985456816,-0.0831405023394
2021/03/16/15:08:00.882296,11954,1615903680,882450104,mocap,-2.82472460938,9.455890625,1.89881530762,0.153935438412,0.28024303698,0.943891394994,-0.0826846790136
2021/03/16/15:08:00.891408,11955,1615903680,892450094,mocap,-2.82385058594,9.44702246094,1.89760827637,0.153418917909,0.281171051542,0.943745141301,-0.0821619482209
2021/03/16/15:08:00.900857,11956,1615903680,902450085,mocap,-2.82291430664,9.43807617188,1.89647021484,0.15288027904,0.281529731718,0.943776182734,-0.0815791567871
2021/03/16/15:08:00.912725,11957,1615903680,912450075,mocap,-2.82201318359,9.429,1.89564978027,0.15300127469,0.282051507345,0.943668457007,-0.0807923886439
2021/03/16/15:08:00.921023,11958,1615903680,922450066,mocap,-2.82107250977,9.419875,1.89490441895,0.153465503135,0.282107181684,0.943646231372,-0.0799729400145
2021/03/16/15:08:00.930903,11959,1615903680,932450056,mocap,-2.82009643555,9.41075097656,1.89428320313,0.151749977364,0.282862343103,0.943813325324,-0.0785953437115
2021/03/16/15:08:00.941409,11960,1615903680,942450047,mocap,-2.81908374023,9.40156347656,1.8938782959,0.151964202848,0.283663903224,0.943617783373,-0.0776346368499
2021/03/16/15:08:00.952950,11961,1615903680,952450037,mocap,-2.81806469727,9.39244335937,1.89401977539,0.151128886393,0.283992281089,0.943762256846,-0.076297188907
2021/03/16/15:08:00.960974,11962,1615903680,962450027,mocap,-2.81703881836,9.38328125,1.89427294922,0.15039130055,0.284722028438,0.943785577066,-0.0747302048871
2021/03/16/15:08:00.973031,11963,1615903680,972450256,mocap,-2.81586352539,9.37403613281,1.89478466797,0.149560750704,0.285394407372,0.943831260606,-0.0732404068224
2021/03/16/15:08:00.981466,11964,1615903680,982450247,mocap,-2.81468481445,9.36462890625,1.89543908691,0.148630215051,0.285575434481,0.944045344616,-0.0716527696443
2021/03/16/15:08:00.993084,11965,1615903680,992450237,mocap,-2.81354711914,9.35537890625,1.89644067383,0.14911721812,0.286085831881,0.943902595764,-0.0704757411933
2021/03/16/15:08:01.000999,11966,1615903681,2450228,mocap,-2.81228955078,9.34606738281,1.89748083496,0.148480353156,0.286511521958,0.944017326944,-0.0685275655308
2021/03/16/15:08:01.011114,11967,1615903681,12450218,mocap,-2.81106665039,9.33674414062,1.89873217773,0.147722339055,0.287200438595,0.944046268002,-0.0668629943294
2021/03/16/15:08:01.022771,11968,1615903681,22450209,mocap,-2.80983666992,9.32751855469,1.90024963379,0.148283933374,0.287547365075,0.943942669597,-0.065579049414
2021/03/16/15:08:01.031080,11969,1615903681,32450199,mocap,-2.80852172852,9.31823925781,1.90171508789,0.148178361742,0.287991965109,0.943930766812,-0.0640195361504
2021/03/16/15:08:01.043021,11970,1615903681,42450190,mocap,-2.80724609375,9.3089375,1.90321984863,0.1480998109,0.287805112538,0.94409833126,-0.062553999724
2021/03/16/15:08:01.051116,11971,1615903681,52450180,mocap,-2.80602978516,9.29966894531,1.90462145996,0.148432946361,0.287888320451,0.944096942312,-0.0613916699636
2021/03/16/15:08:01.063007,11972,1615903681,62450171,mocap,-2.80473706055,9.29049707031,1.90590686035,0.149403074433,0.287455360202,0.944146146115,-0.0603008709432
2021/03/16/15:08:01.071147,11973,1615903681,72450161,mocap,-2.80349023437,9.28139746094,1.9070324707,0.149963656058,0.287413094161,0.944141324492,-0.0591757113594
2021/03/16/15:08:01.082814,11974,1615903681,82450151,mocap,-2.80240112305,9.27240234375,1.90801611328,0.150821714221,0.287829577715,0.943925517858,-0.0584086571051
2021/03/16/15:08:01.091212,11975,1615903681,92450142,mocap,-2.80130908203,9.26353222656,1.90883691406,0.151304737102,0.288433449421,0.943731901804,-0.0572985104476
2021/03/16/15:08:01.102281,11976,1615903681,102450132,mocap,-2.80025439453,9.25469238281,1.90957678223,0.151866398245,0.289415131939,0.943401525278,-0.0562942306513
2021/03/16/15:08:01.110962,11977,1615903681,112450123,mocap,-2.79930200195,9.24595214844,1.91028649902,0.152546900835,0.290532168468,0.943001610184,-0.0553937475079
2021/03/16/15:08:01.121396,11978,1615903681,122450113,mocap,-2.79843481445,9.23729003906,1.91097192383,0.153728641504,0.291708689718,0.942481862926,-0.0547857998853
2021/03/16/15:08:01.132470,11979,1615903681,132450104,mocap,-2.79765991211,9.22861523438,1.91167333984,0.154485454305,0.292850644102,0.942042978315,-0.0541088890101
2021/03/16/15:08:01.141114,11980,1615903681,142450094,mocap,-2.79688110352,9.21986230469,1.91232019043,0.155387452038,0.293831671175,0.941644931151,-0.0531273513113
2021/03/16/15:08:01.152443,11981,1615903681,152450085,mocap,-2.79625073242,9.21114257812,1.91305029297,0.15642925566,0.294521482303,0.94130544004,-0.0522593946221
2021/03/16/15:08:01.161151,11982,1615903681,162450075,mocap,-2.79569189453,9.20239648438,1.91373059082,0.157503400961,0.295055295026,0.941015304812,-0.0512371663389
2021/03/16/15:08:01.172434,11983,1615903681,172450066,mocap,-2.79524658203,9.19360253906,1.91447351074,0.158320898067,0.295061860871,0.940929672097,-0.0502428050901
2021/03/16/15:08:01.181190,11984,1615903681,182450056,mocap,-2.79488623047,9.18477246094,1.91521447754,0.158869185961,0.295412493331,0.940801267805,-0.0488365613778
2021/03/16/15:08:01.192233,11985,1615903681,192450047,mocap,-2.79463574219,9.17592871094,1.91598156738,0.159232915081,0.295359506032,0.94081849234,-0.0476255777973
2021/03/16/15:08:01.201018,11986,1615903681,202450037,mocap,-2.79449145508,9.16711035156,1.91678283691,0.15980898856,0.294883945068,0.940928128024,-0.0464630439095
2021/03/16/15:08:01.212369,11987,1615903681,212450027,mocap,-2.79438525391,9.15814355469,1.9174708252,0.160193907032,0.294116766051,0.941175836248,-0.0449587257653
2021/03/16/15:08:01.221063,11988,1615903681,222450256,mocap,-2.794390625,9.14917480469,1.91814025879,0.160337714317,0.29285068309,0.941612585099,-0.0435434737306
2021/03/16/15:08:01.232078,11989,1615903681,232450247,mocap,-2.79447875977,9.14023242187,1.91878869629,0.160469059378,0.291481388732,0.942064324357,-0.0424628444933
2021/03/16/15:08:01.241194,11990,1615903681,242450237,mocap,-2.79462207031,9.13124804687,1.91938549805,0.160665190651,0.28999926001,0.942534866321,-0.041414377892
2021/03/16/15:08:01.252206,11991,1615903681,252450228,mocap,-2.7948671875,9.12226757812,1.91987988281,0.161009235404,0.288136128036,0.943092964101,-0.0403641241886
2021/03/16/15:08:01.261281,11992,1615903681,262450218,mocap,-2.7951965332,9.11327734375,1.92035583496,0.160821841996,0.286324954114,0.943725909627,-0.0391887070999
2021/03/16/15:08:01.272237,11993,1615903681,272450209,mocap,-2.7954675293,9.10425683594,1.92075756836,0.160705225602,0.284391897693,0.944382493805,-0.0379049767146
2021/03/16/15:08:01.281312,11994,1615903681,282450199,mocap,-2.79586083984,9.09529785156,1.92107092285,0.160476953955,0.282457082163,0.945055374927,-0.0365442986993
2021/03/16/15:08:01.291018,11995,1615903681,292450190,mocap,-2.79634667969,9.08630664063,1.9213260498,0.159769766674,0.280691274757,0.945740271953,-0.0355157975356
2021/03/16/15:08:01.302315,11996,1615903681,302450180,mocap,-2.79690380859,9.07735644531,1.92149914551,0.159732939758,0.278868389086,0.946319666191,-0.0345962469805
2021/03/16/15:08:01.313483,11997,1615903681,312450171,mocap,-2.7974362793,9.06837597656,1.92156591797,0.158881846214,0.277047572413,0.947042198968,-0.0333507163248
2021/03/16/15:08:01.323327,11998,1615903681,322450161,mocap,-2.79798803711,9.05946777344,1.92154516602,0.158220877483,0.275304928876,0.947696776439,-0.0323136959128
2021/03/16/15:08:01.331211,11999,1615903681,332450151,mocap,-2.79867675781,9.05052832031,1.92142492676,0.158454504045,0.274032063392,0.948053154534,-0.0315247452807
2021/03/16/15:08:01.342302,12000,1615903681,342450142,mocap,-2.79929052734,9.04159375,1.92118701172,0.157294699694,0.273008168464,0.94857811993,-0.030405104208
2021/03/16/15:08:01.351129,12001,1615903681,352450132,mocap,-2.80000048828,9.03276464844,1.92085913086,0.157133986277,0.271850086921,0.948961113082,-0.0296519295937
2021/03/16/15:08:01.363139,12002,1615903681,362450123,mocap,-2.80076318359,9.02391601562,1.9205045166,0.156507805741,0.271048660079,0.949314818996,-0.0289709951125
2021/03/16/15:08:01.371310,12003,1615903681,372450113,mocap,-2.80145678711,9.01498632812,1.91993798828,0.155638713041,0.270337149001,0.94969181941,-0.0279259288274
2021/03/16/15:08:01.382098,12004,1615903681,382450104,mocap,-2.80230688477,9.0061171875,1.91929602051,0.155402323213,0.269641776362,0.949942160088,-0.027446748379
2021/03/16/15:08:01.392207,12005,1615903681,392450094,mocap,-2.80304443359,8.99724707031,1.91856860352,0.154739578128,0.269127333632,0.950220191998,-0.026603219754
2021/03/16/15:08:01.401131,12006,1615903681,402450085,mocap,-2.80392749023,8.9883203125,1.91777905273,0.154738355498,0.268685708249,0.950358377796,-0.0261338109767
2021/03/16/15:08:01.411226,12007,1615903681,412450075,mocap,-2.80466992187,8.97955175781,1.91678356934,0.15349001452,0.268434457692,0.950632055734,-0.0261238145689
2021/03/16/15:08:01.422072,12008,1615903681,422450066,mocap,-2.80555419922,8.97046972656,1.91585839844,0.153778368241,0.268171373454,0.950697049916,-0.0247274316779
2021/03/16/15:08:01.431199,12009,1615903681,432450056,mocap,-2.80640649414,8.96148144531,1.91472119141,0.15289551955,0.267740446686,0.950963594791,-0.0246223066987
2021/03/16/15:08:01.441815,12010,1615903681,442450047,mocap,-2.80718017578,8.95259667969,1.9134666748,0.152361212712,0.267360189669,0.951163250769,-0.0243528516016
2021/03/16/15:08:01.450885,12011,1615903681,452450037,mocap,-2.80811303711,8.94354980469,1.91218505859,0.152081873356,0.26684790161,0.951347812619,-0.0245079848878
2021/03/16/15:08:01.462744,12012,1615903681,462450027,mocap,-2.80897802734,8.93455175781,1.91071801758,0.152118645737,0.266587747461,0.951424543594,-0.0241294373854
2021/03/16/15:08:01.471249,12013,1615903681,472450256,mocap,-2.80990185547,8.92552246094,1.90925012207,0.151906747246,0.26660908168,0.951449852964,-0.0242306649703
2021/03/16/15:08:01.481621,12014,1615903681,482450247,mocap,-2.81076220703,8.91647753906,1.90770617676,0.151701097043,0.266568714635,0.95149409576,-0.0242258012281
2021/03/16/15:08:01.491108,12015,1615903681,492450237,mocap,-2.81177929688,8.90745019531,1.90623083496,0.151516396655,0.266735242258,0.951468850211,-0.0245378555934
2021/03/16/15:08:01.502539,12016,1615903681,502450228,mocap,-2.81267993164,8.89843066406,1.90476403809,0.151533727404,0.266382015066,0.95155517876,-0.0249178332082
2021/03/16/15:08:01.511260,12017,1615903681,512450218,mocap,-2.81372802734,8.88926171875,1.90340734863,0.151544516793,0.26655902634,0.951487087525,-0.0255514923521
2021/03/16/15:08:01.522599,12018,1615903681,522450209,mocap,-2.81466552734,8.88004980469,1.90221020508,0.151754593491,0.26571706531,0.951670012954,-0.0262521654316
2021/03/16/15:08:01.531302,12019,1615903681,532450199,mocap,-2.81575830078,8.87080273437,1.90111694336,0.15214715982,0.265492546231,0.951639902321,-0.0273213023658
2021/03/16/15:08:01.541606,12020,1615903681,542450190,mocap,-2.8167734375,8.86148339844,1.90026257324,0.151815447561,0.264856024262,0.951855721106,-0.0278217402962
2021/03/16/15:08:01.551893,12021,1615903681,552450180,mocap,-2.81785205078,8.85219140625,1.89939050293,0.152292271395,0.264330092066,0.951881989587,-0.0292805437472
2021/03/16/15:08:01.561390,12022,1615903681,562450171,mocap,-2.81891577148,8.84280859375,1.89865246582,0.153087928339,0.263754337921,0.951876651414,-0.0304725678774
2021/03/16/15:08:01.571412,12023,1615903681,572450161,mocap,-2.82001708984,8.83349511719,1.89811572266,0.153402227902,0.263318450235,0.951911693387,-0.0315480878671
2021/03/16/15:08:01.581106,12024,1615903681,582450151,mocap,-2.8211027832,8.82420117187,1.89762817383,0.153974769179,0.263062786632,0.951831667121,-0.0332599162392
2021/03/16/15:08:01.592726,12025,1615903681,592450142,mocap,-2.8222175293,8.8149375,1.89742346191,0.154598951433,0.263444658366,0.951592487495,-0.0341733728894
2021/03/16/15:08:01.601163,12026,1615903681,602450132,mocap,-2.82340136719,8.80566113281,1.89752502441,0.155336780476,0.264027953114,0.951261825538,-0.035505969621
2021/03/16/15:08:01.612377,12027,1615903681,612450123,mocap,-2.82459838867,8.79646972656,1.89803588867,0.155616872439,0.265099092122,0.950882438786,-0.0364480775731
2021/03/16/15:08:01.621116,12028,1615903681,622450113,mocap,-2.82584985352,8.78721582031,1.89875805664,0.156380849451,0.265872210166,0.95049724898,-0.0375763648817
2021/03/16/15:08:01.632308,12029,1615903681,632450104,mocap,-2.82701733398,8.77784082031,1.89970056152,0.156393083245,0.266137966431,0.950370921328,-0.0388188096326
2021/03/16/15:08:01.641387,12030,1615903681,642450094,mocap,-2.82822265625,8.76837695312,1.90071789551,0.157395255096,0.266606237211,0.950017710571,-0.0401769130907
2021/03/16/15:08:01.651154,12031,1615903681,652450085,mocap,-2.82949243164,8.75906640625,1.90214160156,0.158032860364,0.26714905865,0.949705721111,-0.041425213924
2021/03/16/15:08:01.662364,12032,1615903681,662450075,mocap,-2.83073461914,8.74967089844,1.9036817627,0.158479102979,0.267839740462,0.949375296662,-0.0428111123697
2021/03/16/15:08:01.671333,12033,1615903681,672450066,mocap,-2.83194677734,8.74023144531,1.90538916016,0.158552262568,0.268080589446,0.949251323502,-0.043770945974
2021/03/16/15:08:01.681255,12034,1615903681,682450056,mocap,-2.83315405273,8.73078710937,1.90717297363,0.159701045431,0.267635753335,0.949102441703,-0.0455108706115
2021/03/16/15:08:01.691258,12035,1615903681,692450047,mocap,-2.83427734375,8.72115039063,1.90888244629,0.160142543212,0.267088942966,0.949110174052,-0.0469865643196
2021/03/16/15:08:01.700943,12036,1615903681,702450037,mocap,-2.83544970703,8.71154882813,1.91059838867,0.160521356206,0.265858904957,0.949323310902,-0.0483444549417
2021/03/16/15:08:01.712428,12037,1615903681,712450027,mocap,-2.8364934082,8.70198144531,1.91215063477,0.16145045064,0.26418890522,0.949542120023,-0.0500773239096
2021/03/16/15:08:01.721048,12038,1615903681,722450256,mocap,-2.83755932617,8.6923828125,1.91355493164,0.162443000129,0.262599554746,0.949745220603,-0.0513592295794
2021/03/16/15:08:01.732119,12039,1615903681,732450247,mocap,-2.83867773438,8.68297753906,1.91488977051,0.162439923884,0.261081214406,0.950087208886,-0.0527651356354
2021/03/16/15:08:01.740946,12040,1615903681,742450237,mocap,-2.839734375,8.6736953125,1.91594116211,0.162197474518,0.259996178545,0.950368506711,-0.0537929479512
2021/03/16/15:08:01.752988,12041,1615903681,752450228,mocap,-2.84093237305,8.66458886719,1.91692565918,0.162005140735,0.259304957766,0.95053399569,-0.0547758195709
2021/03/16/15:08:01.761104,12042,1615903681,762450218,mocap,-2.84202270508,8.65564550781,1.91770458984,0.161138220771,0.258926643096,0.950751327194,-0.0553478645043
2021/03/16/15:08:01.771853,12043,1615903681,772450209,mocap,-2.84324804687,8.64703027344,1.91849731445,0.160177950194,0.259626164901,0.950687551466,-0.055950523571
2021/03/16/15:08:01.782867,12044,1615903681,782450199,mocap,-2.84437255859,8.63854296875,1.91911584473,0.159175295004,0.260558747351,0.950587192814,-0.0561815425788
2021/03/16/15:08:01.790880,12045,1615903681,792450190,mocap,-2.84552294922,8.63011132813,1.9196574707,0.157531629674,0.262051040687,0.95041508892,-0.0567819720915
2021/03/16/15:08:01.803181,12046,1615903681,802450180,mocap,-2.84652197266,8.62179492188,1.92028320312,0.156826476524,0.263252073844,0.950156411985,-0.0575031135005
2021/03/16/15:08:01.811140,12047,1615903681,812450171,mocap,-2.84752124023,8.61354394531,1.92088574219,0.155876320992,0.264477985697,0.949925751984,-0.0582668584432
2021/03/16/15:08:01.823069,12048,1615903681,822450161,mocap,-2.84834570313,8.60516113281,1.9214387207,0.155584406285,0.265391715769,0.949657064266,-0.0592637330244
2021/03/16/15:08:01.831112,12049,1615903681,832450151,mocap,-2.84915283203,8.59680761719,1.92214990234,0.155206907552,0.265940932578,0.949498280626,-0.0603261028286
2021/03/16/15:08:01.842701,12050,1615903681,842450142,mocap,-2.84982080078,8.58845019531,1.92280847168,0.154522852557,0.266443453406,0.949399514902,-0.0614094918008
