time,.header.seq,.header.stamp.secs,.header.stamp.nsecs,.header.frame_id,.pose.position.x,.pose.position.y,.pose.position.z,.pose.orientation.x,.pose.orientation.y,.pose.orientation.z,.pose.orientation.w
2021/03/16/15:00:15.675455,995914,1615903215,678170204,mocap,-2.80419287109,10.3660263672,1.93173840332,0.167185566694,0.214683701334,0.959426040099,-0.0739023563755
2021/03/16/15:00:15.683419,995915,1615903215,688171148,mocap,-2.80418286133,10.3660693359,1.93170056152,0.167234911232,0.21466059346,0.959428214483,-0.0738296732788
2021/03/16/15:00:15.695716,995916,1615903215,698170185,mocap,-2.80420947266,10.3661318359,1.93175158691,0.167121004695,0.214600073744,0.959460581153,-0.0738428687685
2021/03/16/15:00:15.704008,995917,1615903215,708171129,mocap,-2.80425146484,10.3662695312,1.9318972168,0.168007739327,0.214782382592,0.959244360712,-0.0741092870622
2021/03/16/15:00:15.715355,995918,1615903215,718171120,mocap,-2.80421386719,10.366234375,1.93170410156,0.167321282071,0.214457692117,0.959434574527,-0.0741401959563
2021/03/16/15:00:15.723484,995919,1615903215,728171110,mocap,-2.80424658203,10.3663388672,1.93174597168,0.167263790226,0.214407934873,0.959450851076,-0.0742032362473
2021/03/16/15:00:15.735168,995920,1615903215,738171101,mocap,-2.80425292969,10.3664091797,1.93175964355,0.16736862839,0.214492185032,0.959411518197,-0.0742320160911
2021/03/16/15:00:15.743349,995921,1615903215,748171091,mocap,-2.80426928711,10.3664853516,1.93175256348,0.167293770076,0.214545417022,0.959408334221,-0.0742879665823
2021/03/16/15:00:15.755256,995922,1615903215,758171082,mocap,-2.80430541992,10.3665917969,1.93178637695,0.167373983825,0.21447064976,0.959396444696,-0.0744764862109
2021/03/16/15:00:15.763419,995923,1615903215,768170118,mocap,-2.80431738281,10.3666806641,1.93180053711,0.167153029718,0.214458866198,0.959438736877,-0.0744618869134
2021/03/16/15:00:15.774367,995924,1615903215,778171062,mocap,-2.80433837891,10.3667724609,1.93177307129,0.167108206565,0.214507147467,0.959432229314,-0.0745072869252
2021/03/16/15:00:15.783671,995925,1615903215,788170099,mocap,-2.80434936523,10.3668554687,1.93175354004,0.166969961962,0.214634544897,0.959421838866,-0.0745840365377
2021/03/16/15:00:15.795026,995926,1615903215,798171043,mocap,-2.80436547852,10.3669511719,1.93179443359,0.167053774265,0.214578188812,0.959411285224,-0.0746942322115
2021/03/16/15:00:15.803711,995927,1615903215,808171034,mocap,-2.80437524414,10.3670761719,1.93180725098,0.16700445851,0.214589530198,0.959415540864,-0.0747173204519
2021/03/16/15:00:15.814995,995928,1615903215,818171024,mocap,-2.80437963867,10.3671572266,1.93176660156,0.167150343771,0.214635113633,0.95937677346,-0.0747577565922
2021/03/16/15:00:15.823489,995929,1615903215,828171015,mocap,-2.80439331055,10.3672382812,1.93180957031,0.167080240177,0.214668629707,0.959378241245,-0.0747994682284
2021/03/16/15:00:15.834106,995930,1615903215,838171005,mocap,-2.80439013672,10.3673339844,1.93177416992,0.167152494415,0.214652140369,0.959363672022,-0.0748721985308
2021/03/16/15:00:15.845158,995931,1615903215,848170996,mocap,-2.80441821289,10.3674208984,1.93175671387,0.166912319446,0.214685456451,0.959395846721,-0.0749001687774
2021/03/16/15:00:15.853685,995932,1615903215,858170033,mocap,-2.80442578125,10.3675,1.93179089355,0.16703008858,0.214771497661,0.959370024727,-0.074721544859
2021/03/16/15:00:15.865190,995933,1615903215,868170977,mocap,-2.80442456055,10.3676044922,1.93177770996,0.167037802996,0.214788665442,0.959365147593,-0.0747175717906
2021/03/16/15:00:15.874431,995934,1615903215,878170013,mocap,-2.80442333984,10.3677148438,1.93177294922,0.167111562615,0.215025349003,0.95930283769,-0.0746718134939
2021/03/16/15:00:15.883783,995935,1615903215,888171196,mocap,-2.80442626953,10.3677998047,1.93177819824,0.167162597073,0.215168710207,0.959263483208,-0.0746502498065
2021/03/16/15:00:15.895068,995936,1615903215,898171186,mocap,-2.80446606445,10.3678867188,1.93178894043,0.167127828343,0.215296894248,0.959247366588,-0.0745655725986
2021/03/16/15:00:15.903544,995937,1615903215,908171177,mocap,-2.80452099609,10.3679980469,1.93176916504,0.167411955846,0.215468953565,0.959155516105,-0.0746127544824
2021/03/16/15:00:15.915084,995938,1615903215,918171167,mocap,-2.8045612793,10.3680771484,1.93177441406,0.167389692877,0.215598354586,0.959138737393,-0.0745044514342
2021/03/16/15:00:15.923809,995939,1615903215,928170204,mocap,-2.80463989258,10.3681464844,1.93182788086,0.16720625806,0.215749660845,0.959151267079,-0.0743169128852
2021/03/16/15:00:15.935003,995940,1615903215,938171148,mocap,-2.80471582031,10.3682080078,1.93182214355,0.167156975016,0.215845026938,0.959143398176,-0.0742523844205
2021/03/16/15:00:15.943563,995941,1615903215,948170185,mocap,-2.80478466797,10.3682529297,1.93183886719,0.167096391493,0.215884659385,0.959148711441,-0.0742049034457
2021/03/16/15:00:15.954900,995942,1615903215,958171129,mocap,-2.80484960938,10.3682822266,1.93186767578,0.166880452633,0.215762216196,0.959224290224,-0.0740698710303
2021/03/16/15:00:15.963856,995943,1615903215,968171120,mocap,-2.80490869141,10.3683066406,1.93186987305,0.166806986129,0.21565275699,0.959259506506,-0.0740979848793
2021/03/16/15:00:15.974775,995944,1615903215,978171110,mocap,-2.80496191406,10.3682998047,1.93184997559,0.166762678217,0.215647629334,0.959272088983,-0.0740497144147
2021/03/16/15:00:15.983762,995945,1615903215,988171101,mocap,-2.80502246094,10.3683261719,1.93188354492,0.166691131527,0.215587138473,0.959300057221,-0.0740247214557
2021/03/16/15:00:15.994701,995946,1615903215,998171091,mocap,-2.80506982422,10.3683564453,1.93190588379,0.166512849496,0.215505946459,0.959353156571,-0.0739742053507
2021/03/16/15:00:16.003757,995947,1615903216,8171082,mocap,-2.80511743164,10.3683681641,1.93187792969,0.166614853871,0.215389698326,0.959358911348,-0.0740083542424
2021/03/16/15:00:16.015921,995948,1615903216,18170118,mocap,-2.80516137695,10.3683837891,1.93188452148,0.16653753473,0.215421349683,0.959374249486,-0.0738913476525
2021/03/16/15:00:16.023870,995949,1615903216,28171062,mocap,-2.80522949219,10.368421875,1.93191210938,0.166478032199,0.215386036505,0.959396530121,-0.073839234801
2021/03/16/15:00:16.033650,995950,1615903216,38170099,mocap,-2.80524047852,10.3684589844,1.93186755371,0.166558337427,0.215394086122,0.959381153509,-0.0738343064055
2021/03/16/15:00:16.045771,995951,1615903216,48171043,mocap,-2.8052565918,10.3684814453,1.9318503418,0.166653712205,0.21547994877,0.959343285611,-0.0738606091627
2021/03/16/15:00:16.053708,995952,1615903216,58171034,mocap,-2.80528125,10.3685244141,1.93188500977,0.166668580839,0.215531984828,0.959325337445,-0.0739083899226
2021/03/16/15:00:16.065451,995953,1615903216,68171024,mocap,-2.80528491211,10.3685654297,1.93182556152,0.166712685276,0.215577895654,0.959306798679,-0.0739156470702
2021/03/16/15:00:16.073733,995954,1615903216,78171015,mocap,-2.80529223633,10.3685800781,1.93180419922,0.166787568327,0.215543947363,0.959298193215,-0.0739573979176
2021/03/16/15:00:16.085637,995955,1615903216,88171005,mocap,-2.80531616211,10.3686025391,1.93181152344,0.166975911133,0.215599914312,0.959257898733,-0.0738917877473
2021/03/16/15:00:16.093826,995956,1615903216,98170996,mocap,-2.80529760742,10.368625,1.93178601074,0.167256427979,0.215675753945,0.959185895704,-0.0739707442952
2021/03/16/15:00:16.105354,995957,1615903216,108170033,mocap,-2.80530224609,10.3686259766,1.93175671387,0.167227170436,0.215678969217,0.95918904158,-0.0739867126374
2021/03/16/15:00:16.113765,995958,1615903216,118170977,mocap,-2.80531152344,10.3686035156,1.9317791748,0.167103544657,0.215536280499,0.959246139384,-0.0739416283854
2021/03/16/15:00:16.125539,995959,1615903216,128170013,mocap,-2.8052878418,10.36859375,1.93174926758,0.167323626292,0.215515777484,0.959213944128,-0.0739213595173
2021/03/16/15:00:16.133626,995960,1615903216,138171196,mocap,-2.80530639648,10.3685800781,1.93172705078,0.16739976471,0.215330029847,0.959230441904,-0.0740760641921
2021/03/16/15:00:16.145220,995961,1615903216,148171186,mocap,-2.80530444336,10.3685449219,1.93173840332,0.167463404936,0.215252175867,0.959244438383,-0.0739772417163
2021/03/16/15:00:16.153671,995962,1615903216,158171177,mocap,-2.80532250977,10.3684990234,1.93175097656,0.16730434522,0.215183212261,0.95928930807,-0.0739557528957
2021/03/16/15:00:16.165095,995963,1615903216,168171167,mocap,-2.8053449707,10.3684697266,1.93172802734,0.167408698436,0.215065106802,0.959287801315,-0.0740825938382
2021/03/16/15:00:16.173756,995964,1615903216,178170204,mocap,-2.80535571289,10.3684423828,1.93176782227,0.167523207781,0.215012136535,0.959285067403,-0.0740128920694
2021/03/16/15:00:16.185320,995965,1615903216,188171148,mocap,-2.80537353516,10.3683857422,1.93179736328,0.167381720672,0.214777242565,0.95936184697,-0.074019788704
2021/03/16/15:00:16.193556,995966,1615903216,198170185,mocap,-2.8053659668,10.3683574219,1.93175622559,0.167447383841,0.214743908684,0.959355261224,-0.0740534314837
2021/03/16/15:00:16.205252,995967,1615903216,208171129,mocap,-2.80537817383,10.3683388672,1.93177172852,0.167418843466,0.214669177001,0.959376975377,-0.0740533746118
2021/03/16/15:00:16.213408,995968,1615903216,218171120,mocap,-2.80539404297,10.3683232422,1.93180725098,0.167334789947,0.214654556703,0.959399869454,-0.0739890863549
2021/03/16/15:00:16.224291,995969,1615903216,228171110,mocap,-2.80539404297,10.3683271484,1.93181835938,0.167231142384,0.214664047562,0.959417358047,-0.0739690804786
2021/03/16/15:00:16.235220,995970,1615903216,238171101,mocap,-2.80538427734,10.3683154297,1.9317890625,0.167300794478,0.214814972905,0.959357987169,-0.0741432761563
2021/03/16/15:00:16.243368,995971,1615903216,248171091,mocap,-2.80539453125,10.3683535156,1.9318548584,0.167252366724,0.214874660983,0.959354810782,-0.0741206675364
2021/03/16/15:00:16.255639,995972,1615903216,258171082,mocap,-2.80538012695,10.3683701172,1.93184985352,0.167191494271,0.215009358346,0.959344520457,-0.0740004690784
2021/03/16/15:00:16.263686,995973,1615903216,268170118,mocap,-2.80536474609,10.3684101563,1.93182263184,0.167327541575,0.215300859557,0.959250186045,-0.0740683238805
2021/03/16/15:00:16.275285,995974,1615903216,278171062,mocap,-2.80533422852,10.3684384766,1.93180859375,0.167293197686,0.215521506559,0.959207908854,-0.0740517213049
2021/03/16/15:00:16.283765,995975,1615903216,288170099,mocap,-2.80530419922,10.3684619141,1.93183496094,0.167117837584,0.215709159091,0.959207567087,-0.0739056364476
2021/03/16/15:00:16.294784,995976,1615903216,298171043,mocap,-2.8052487793,10.3684882813,1.93179748535,0.167317800893,0.215909746285,0.959121500067,-0.0739843216801
2021/03/16/15:00:16.303868,995977,1615903216,308171034,mocap,-2.80517602539,10.3684628906,1.9317878418,0.167210594429,0.216019389889,0.959113203668,-0.0740141525932
2021/03/16/15:00:16.314935,995978,1615903216,318171024,mocap,-2.80513354492,10.3684365234,1.93186999512,0.167232552972,0.216076771888,0.959102211606,-0.0739395280676
2021/03/16/15:00:16.323337,995979,1615903216,328171015,mocap,-2.80502880859,10.3683632812,1.93185266113,0.16743931367,0.216149653269,0.95905037243,-0.0739309860002
2021/03/16/15:00:16.333816,995980,1615903216,338171005,mocap,-2.80492382813,10.3682529297,1.9319329834,0.167658446723,0.21586100681,0.959073429673,-0.0739785484223
2021/03/16/15:00:16.343758,995981,1615903216,348170996,mocap,-2.80479125977,10.3681503906,1.93204272461,0.167591548268,0.21579900109,0.959117196513,-0.0737433142405
2021/03/16/15:00:16.353661,995982,1615903216,358170033,mocap,-2.80464282227,10.3680615234,1.93213842773,0.167992890283,0.215641529547,0.959079100676,-0.0737861267614
2021/03/16/15:00:16.363986,995983,1615903216,368170977,mocap,-2.8044831543,10.3679638672,1.93221276855,0.168316879404,0.215600985873,0.959027990526,-0.0738306262855
2021/03/16/15:00:16.374676,995984,1615903216,378170013,mocap,-2.80430200195,10.3679052734,1.93235119629,0.168687411426,0.215749083072,0.958937828348,-0.0737232964034
2021/03/16/15:00:16.383472,995985,1615903216,388171196,mocap,-2.80414868164,10.3678535156,1.9324552002,0.16901761851,0.216033374319,0.958824944694,-0.0736027189551
2021/03/16/15:00:16.394966,995986,1615903216,398171186,mocap,-2.80395239258,10.3678095703,1.93250866699,0.169073269877,0.216277319728,0.958770836948,-0.0734631174903
2021/03/16/15:00:16.403595,995987,1615903216,408171177,mocap,-2.80380639648,10.3677685547,1.93260058594,0.169287260248,0.216585413507,0.958669296061,-0.073387658796
2021/03/16/15:00:16.413790,995988,1615903216,418171167,mocap,-2.80363525391,10.3677070312,1.93265795898,0.169479948507,0.216780672642,0.958587735382,-0.0734319413245
2021/03/16/15:00:16.425597,995989,1615903216,428170204,mocap,-2.80344750977,10.3676640625,1.93266589355,0.169791904871,0.217079351579,0.958461572353,-0.0734756259131
2021/03/16/15:00:16.433559,995990,1615903216,438171148,mocap,-2.80326123047,10.3676455078,1.93266247559,0.169904102151,0.217284718939,0.958397314624,-0.0734474136204
2021/03/16/15:00:16.445431,995991,1615903216,448170185,mocap,-2.80309643555,10.3676416016,1.93263916016,0.170009094532,0.217772684952,0.958268094261,-0.0734453501011
2021/03/16/15:00:16.453915,995992,1615903216,458171129,mocap,-2.80293139648,10.3676669922,1.93259692383,0.170134087039,0.218257125928,0.958132464497,-0.0734873606919
2021/03/16/15:00:16.465708,995993,1615903216,468171120,mocap,-2.802765625,10.3677226563,1.93255554199,0.170388236458,0.219026091774,0.95790398178,-0.0735892668899
2021/03/16/15:00:16.473448,995994,1615903216,478171110,mocap,-2.8025949707,10.3677929688,1.93252185059,0.170239309536,0.219655345671,0.957790462869,-0.0735359538259
2021/03/16/15:00:16.485516,995995,1615903216,488171101,mocap,-2.80240429687,10.3678583984,1.93243591309,0.170430905309,0.220423314799,0.957575374766,-0.0735953369528
2021/03/16/15:00:16.493684,995996,1615903216,498171091,mocap,-2.8022277832,10.3679296875,1.93236132813,0.170806077405,0.221069502407,0.95736327348,-0.0735467249434
2021/03/16/15:00:16.505508,995997,1615903216,508171082,mocap,-2.80206176758,10.367984375,1.93228869629,0.170804463091,0.221694614221,0.957235571401,-0.0733306652188
2021/03/16/15:00:16.513739,995998,1615903216,518170118,mocap,-2.80189379883,10.368,1.93218688965,0.170890792358,0.222306319625,0.957082653611,-0.0732735786855
2021/03/16/15:00:16.525410,995999,1615903216,528171062,mocap,-2.80173608398,10.3680244141,1.93200341797,0.170738622355,0.223001247739,0.956980427541,-0.0728507231484
2021/03/16/15:00:16.533859,996000,1615903216,538170099,mocap,-2.80159301758,10.3680029297,1.93190942383,0.170664071253,0.223147072446,0.956982288276,-0.0725538120632
2021/03/16/15:00:16.544418,996001,1615903216,548171043,mocap,-2.80144311523,10.3679365234,1.93180163574,0.1708699119,0.223086533137,0.956965152249,-0.0724815253365
2021/03/16/15:00:16.553568,996002,1615903216,558171034,mocap,-2.80128051758,10.3677919922,1.93165795898,0.170741056935,0.222728045738,0.957084732118,-0.0723085662386
2021/03/16/15:00:16.565217,996003,1615903216,568171024,mocap,-2.80112988281,10.3674941406,1.93162219238,0.171080122313,0.221642261615,0.957267444036,-0.0724247059217
2021/03/16/15:00:16.573539,996004,1615903216,578171015,mocap,-2.80098242188,10.367125,1.9316105957,0.17082903368,0.220307082705,0.957632514322,-0.0722646885751
2021/03/16/15:00:16.585069,996005,1615903216,588171005,mocap,-2.8008527832,10.3667431641,1.93161901855,0.17087680663,0.218642135348,0.957997842128,-0.0723662427193
2021/03/16/15:00:16.593496,996006,1615903216,598170996,mocap,-2.80069506836,10.3663125,1.93154431152,0.170814325397,0.216956459379,0.958384378601,-0.0724688736204
2021/03/16/15:00:16.604996,996007,1615903216,608170033,mocap,-2.80057958984,10.3658505859,1.93144958496,0.170456779241,0.215392536194,0.958794895573,-0.0725457639944
2021/03/16/15:00:16.613837,996008,1615903216,618170977,mocap,-2.80048974609,10.3654921875,1.93136413574,0.170195603983,0.213850094839,0.959156487087,-0.0729412402941
2021/03/16/15:00:16.625300,996009,1615903216,628170013,mocap,-2.80037548828,10.3651679688,1.93124072266,0.169938037483,0.212691925284,0.959442782726,-0.0731625824325
2021/03/16/15:00:16.633777,996010,1615903216,638171196,mocap,-2.80025073242,10.3649140625,1.9311427002,0.169566913118,0.211706688084,0.959691356166,-0.0736195611553
2021/03/16/15:00:16.645488,996011,1615903216,648171186,mocap,-2.80007641602,10.3647236328,1.93100927734,0.169395828283,0.211006518514,0.959833907049,-0.0741631416652
2021/03/16/15:00:16.653745,996012,1615903216,658171177,mocap,-2.79988378906,10.3646484375,1.93085595703,0.169494724995,0.210689979512,0.959833223961,-0.0748429490649
2021/03/16/15:00:16.665004,996013,1615903216,668171167,mocap,-2.79969921875,10.3646591797,1.93078027344,0.169301399374,0.210472266446,0.959863038761,-0.0755076007763
2021/03/16/15:00:16.673421,996014,1615903216,678170204,mocap,-2.79950927734,10.3647529297,1.93071276855,0.169304582709,0.210638953679,0.959775019946,-0.076151842987
2021/03/16/15:00:16.685117,996015,1615903216,688171148,mocap,-2.79929174805,10.3649199219,1.93062084961,0.169330467115,0.210787823927,0.959679609892,-0.0768813172891
2021/03/16/15:00:16.693430,996016,1615903216,698170185,mocap,-2.79908349609,10.3651152344,1.93052185059,0.169692792685,0.211080827005,0.959497279659,-0.0775513079759
2021/03/16/15:00:16.704827,996017,1615903216,708171129,mocap,-2.79888891602,10.3653388672,1.93047900391,0.169660537983,0.211459103079,0.959388406952,-0.0779373405469
2021/03/16/15:00:16.713727,996018,1615903216,718171120,mocap,-2.79871191406,10.3656660156,1.93053308105,0.170399541596,0.212201910381,0.959054256775,-0.0784173001671
2021/03/16/15:00:16.724948,996019,1615903216,728171110,mocap,-2.79848339844,10.3658193359,1.93027526855,0.169817081425,0.212160463249,0.959117895648,-0.0790123077768
2021/03/16/15:00:16.733783,996020,1615903216,738171101,mocap,-2.79829150391,10.3660634766,1.9302833252,0.16963086725,0.212508572421,0.959044258439,-0.0793699339933
2021/03/16/15:00:16.744809,996021,1615903216,748171091,mocap,-2.79809326172,10.3663935547,1.93038342285,0.170272648388,0.21315851922,0.958752201978,-0.0797801733593
2021/03/16/15:00:16.753525,996022,1615903216,758171082,mocap,-2.79782421875,10.3665166016,1.9301472168,0.169734138932,0.213242882196,0.95880422823,-0.0800765199633
2021/03/16/15:00:16.764811,996023,1615903216,768170118,mocap,-2.79758911133,10.3667587891,1.93014123535,0.169804530868,0.213625960996,0.958677526356,-0.0804224745495
2021/03/16/15:00:16.773674,996024,1615903216,778171062,mocap,-2.79738134766,10.3670888672,1.93029455566,0.170382559715,0.214193031908,0.958410351533,-0.0808747201993
2021/03/16/15:00:16.784938,996025,1615903216,788170099,mocap,-2.79711816406,10.3673408203,1.93027319336,0.170443003435,0.214557250898,0.958293759351,-0.081163039155
2021/03/16/15:00:16.793474,996026,1615903216,798171043,mocap,-2.79689819336,10.3676123047,1.93031652832,0.170574044259,0.21496654984,0.958149159743,-0.0815111106055
2021/03/16/15:00:16.804660,996027,1615903216,808171034,mocap,-2.79665527344,10.3677988281,1.93020239258,0.16986296798,0.214926791278,0.958247886698,-0.0819391994312
2021/03/16/15:00:16.813606,996028,1615903216,818171024,mocap,-2.79642919922,10.3680712891,1.93020898438,0.169877376288,0.215284409064,0.958131305851,-0.0823328489351
2021/03/16/15:00:16.823870,996029,1615903216,828171015,mocap,-2.79626391602,10.3684130859,1.93042529297,0.17032741578,0.215917462081,0.957867175559,-0.0828172429468
2021/03/16/15:00:16.833381,996030,1615903216,838171005,mocap,-2.79602026367,10.3685527344,1.93027233887,0.169791079844,0.216125587922,0.957888713437,-0.0831259400662
2021/03/16/15:00:16.844657,996031,1615903216,848170996,mocap,-2.79583569336,10.3688886719,1.93044897461,0.170700833165,0.216796383966,0.957539536317,-0.0835379558035
2021/03/16/15:00:16.853362,996032,1615903216,858170033,mocap,-2.79563720703,10.3691005859,1.93047058105,0.170807104954,0.217134765836,0.957396161323,-0.0840833103717
2021/03/16/15:00:16.865711,996033,1615903216,868170977,mocap,-2.79539575195,10.3692792969,1.93047265625,0.171019521544,0.217338107202,0.957282784552,-0.0844165281535
2021/03/16/15:00:16.873551,996034,1615903216,878170013,mocap,-2.79520239258,10.3694267578,1.93049035645,0.171256278007,0.217415036454,0.957199058612,-0.0846872862797
2021/03/16/15:00:16.884469,996035,1615903216,888171196,mocap,-2.7949855957,10.3695214844,1.93045141602,0.171450950911,0.217566241865,0.95710218517,-0.0849994756007
2021/03/16/15:00:16.895495,996036,1615903216,898171186,mocap,-2.79480249023,10.3696279297,1.93047888184,0.17153870632,0.217401074727,0.957106482215,-0.0851963372541
2021/03/16/15:00:16.903744,996037,1615903216,908171177,mocap,-2.79459448242,10.3696914063,1.93045556641,0.171566286462,0.217397996982,0.957087028591,-0.0853670929993
2021/03/16/15:00:16.914470,996038,1615903216,918171167,mocap,-2.79440307617,10.3697509766,1.9304276123,0.171653588269,0.217464110074,0.957037563692,-0.0855775130977
2021/03/16/15:00:16.923559,996039,1615903216,928170204,mocap,-2.79422729492,10.3698085937,1.93040808105,0.171853332876,0.217703423857,0.956930848129,-0.0857612624965
2021/03/16/15:00:16.935419,996040,1615903216,938171148,mocap,-2.79409277344,10.3698759766,1.93043212891,0.171696985572,0.217954992336,0.956886794418,-0.0859269200079
2021/03/16/15:00:16.943849,996041,1615903216,948170185,mocap,-2.7939140625,10.3699365234,1.93035852051,0.17175382202,0.218363157689,0.956763615457,-0.0861483812283
2021/03/16/15:00:16.955426,996042,1615903216,958171129,mocap,-2.79373779297,10.3699453125,1.93036206055,0.171952068083,0.218516104211,0.956664750904,-0.0864624209886
2021/03/16/15:00:16.963768,996043,1615903216,968171120,mocap,-2.79359155273,10.3699375,1.93039526367,0.171728798151,0.218440165747,0.956723198651,-0.0864513701943
2021/03/16/15:00:16.975400,996044,1615903216,978171110,mocap,-2.79342260742,10.3698623047,1.93039416504,0.171834350211,0.218208485337,0.956727497398,-0.0867784256313
2021/03/16/15:00:16.983672,996045,1615903216,988171101,mocap,-2.79324536133,10.3697333984,1.93040429687,0.171881318509,0.217766002442,0.956803867031,-0.0869548292297
2021/03/16/15:00:16.995422,996046,1615903216,998171091,mocap,-2.79310546875,10.3695400391,1.93045471191,0.171728325107,0.217242463671,0.956926059781,-0.0872215888245
2021/03/16/15:00:17.003688,996047,1615903217,8171082,mocap,-2.79295239258,10.3693417969,1.9305144043,0.17185763134,0.21686010876,0.956941942992,-0.0877426029444
2021/03/16/15:00:17.015401,996048,1615903217,18170118,mocap,-2.79277099609,10.3691699219,1.93052563477,0.172039421197,0.216521908554,0.95694441888,-0.0881934872936
2021/03/16/15:00:17.023866,996049,1615903217,28171062,mocap,-2.79259423828,10.3690537109,1.93057324219,0.171811193778,0.216315749196,0.957005792396,-0.088477822257
2021/03/16/15:00:17.035167,996050,1615903217,38170099,mocap,-2.79242602539,10.3690234375,1.93059753418,0.171971772872,0.216437692928,0.956927811618,-0.0887107545103
2021/03/16/15:00:17.043626,996051,1615903217,48171043,mocap,-2.7922421875,10.3690556641,1.93056018066,0.172239303351,0.216802756698,0.956767166448,-0.0890324376752
2021/03/16/15:00:17.055068,996052,1615903217,58171034,mocap,-2.7920859375,10.3690957031,1.9305657959,0.172206286492,0.217210869934,0.956675654152,-0.0890848862639
2021/03/16/15:00:17.063732,996053,1615903217,68171024,mocap,-2.79193505859,10.3691533203,1.93055737305,0.172249879543,0.217708300941,0.956538949581,-0.0892541691436
2021/03/16/15:00:17.075171,996054,1615903217,78171015,mocap,-2.7917746582,10.3692148437,1.93054077148,0.172457922616,0.218024625325,0.956409018515,-0.0894725215878
2021/03/16/15:00:17.083676,996055,1615903217,88171005,mocap,-2.79164575195,10.3692558594,1.93055737305,0.172404806777,0.218372407077,0.956330077552,-0.0895704441005
2021/03/16/15:00:17.095005,996056,1615903217,98170996,mocap,-2.79147802734,10.3692578125,1.93060876465,0.172301166056,0.218670502756,0.956250467799,-0.0898919413757
2021/03/16/15:00:17.103945,996057,1615903217,108170033,mocap,-2.79130566406,10.3691943359,1.93057763672,0.172433478465,0.218812999627,0.956162895649,-0.0902223881963
2021/03/16/15:00:17.115073,996058,1615903217,118170977,mocap,-2.79113647461,10.3691347656,1.93057470703,0.172281532427,0.219036496163,0.956113328392,-0.0904953267364
2021/03/16/15:00:17.123561,996059,1615903217,128170013,mocap,-2.79099560547,10.3690488281,1.93061767578,0.172206579298,0.219143046946,0.956083022605,-0.090699912328
2021/03/16/15:00:17.134933,996060,1615903217,138171196,mocap,-2.79085961914,10.3689560547,1.93062658691,0.17234339337,0.219172533341,0.956015347382,-0.0910812796574
2021/03/16/15:00:17.143768,996061,1615903217,148171186,mocap,-2.79074731445,10.3688408203,1.93062731934,0.17239728779,0.219296802652,0.955951151244,-0.0913535225077
2021/03/16/15:00:17.154321,996062,1615903217,158171177,mocap,-2.79060961914,10.3686914063,1.93069421387,0.172479392165,0.219268096996,0.955920505167,-0.091587964542
2021/03/16/15:00:17.163527,996063,1615903217,168171167,mocap,-2.79047851562,10.3685419922,1.93070727539,0.172616413378,0.219331448122,0.955870262804,-0.0917024167503
2021/03/16/15:00:17.175290,996064,1615903217,178170204,mocap,-2.79034277344,10.3683847656,1.9306854248,0.173023342394,0.219214183342,0.955782725976,-0.0921273126222
2021/03/16/15:00:17.183816,996065,1615903217,188171148,mocap,-2.79024291992,10.3682167969,1.93075146484,0.172994233792,0.219262622044,0.955777089982,-0.0921252035206
2021/03/16/15:00:17.193557,996066,1615903217,198170185,mocap,-2.79011987305,10.3680371094,1.93073828125,0.173068744037,0.21910908902,0.955791152621,-0.0922045770862
2021/03/16/15:00:17.204781,996067,1615903217,208171129,mocap,-2.79001098633,10.3678720703,1.93070727539,0.173338506307,0.218982622808,0.955759293119,-0.092328501678
2021/03/16/15:00:17.213455,996068,1615903217,218171120,mocap,-2.78992797852,10.3676523438,1.93071716309,0.173565293332,0.218945625887,0.955733871795,-0.0922533399671
2021/03/16/15:00:17.224679,996069,1615903217,228171110,mocap,-2.78984033203,10.3674306641,1.93070239258,0.173571199161,0.218636719766,0.95580445893,-0.0922434829816
2021/03/16/15:00:17.233567,996070,1615903217,238171101,mocap,-2.78975219727,10.3671933594,1.93068139648,0.173940675271,0.218461192027,0.955773550903,-0.0922836633904
2021/03/16/15:00:17.243593,996071,1615903217,248171091,mocap,-2.78973193359,10.3669306641,1.9307232666,0.17332117772,0.218056995149,0.956007024027,-0.0919863354086
2021/03/16/15:00:17.253535,996072,1615903217,258171082,mocap,-2.78967041016,10.36659375,1.93064208984,0.17374416937,0.217684660497,0.956016142305,-0.0919754552815
2021/03/16/15:00:17.264665,996073,1615903217,268170118,mocap,-2.78965136719,10.3662792969,1.93064562988,0.173238448566,0.217343305431,0.956219620939,-0.091620738796
2021/03/16/15:00:17.274035,996074,1615903217,278171062,mocap,-2.78959887695,10.3659492187,1.93056420898,0.173695488531,0.217015870807,0.956197562369,-0.0917617427338
2021/03/16/15:00:17.285653,996075,1615903217,288170099,mocap,-2.78957348633,10.3656552734,1.93060131836,0.173601092604,0.216636349279,0.956315399564,-0.0916089468278
2021/03/16/15:00:17.293673,996076,1615903217,298171043,mocap,-2.78953686523,10.3653779297,1.93060949707,0.173463256055,0.216377416989,0.956398766608,-0.091611787983
2021/03/16/15:00:17.305367,996077,1615903217,308171034,mocap,-2.78950292969,10.3651357422,1.9305814209,0.173753950536,0.216332317285,0.956353348402,-0.0916415517068
2021/03/16/15:00:17.313609,996078,1615903217,318171024,mocap,-2.78948388672,10.3648613281,1.93060107422,0.173707780634,0.21618021433,0.956410451904,-0.0914919331681
2021/03/16/15:00:17.325440,996079,1615903217,328171015,mocap,-2.78946142578,10.3646113281,1.93059399414,0.173462374048,0.216145453047,0.956475918081,-0.091355109223
2021/03/16/15:00:17.333534,996080,1615903217,338171005,mocap,-2.78946728516,10.3643720703,1.93058764648,0.173514176972,0.21629667048,0.9564493707,-0.0911766052847
2021/03/16/15:00:17.345325,996081,1615903217,348170996,mocap,-2.78946484375,10.3641152344,1.9305859375,0.173384650623,0.216319001012,0.956492712347,-0.0909151230115
2021/03/16/15:00:17.354212,996082,1615903217,358170033,mocap,-2.78944628906,10.3638759766,1.93061291504,0.173244929424,0.216377035617,0.956517318997,-0.090784286403
2021/03/16/15:00:17.365269,996083,1615903217,368170977,mocap,-2.78943041992,10.3636259766,1.93057885742,0.173524198537,0.216599428016,0.956415601179,-0.0907923290461
2021/03/16/15:00:17.373700,996084,1615903217,378170013,mocap,-2.78943676758,10.3633964844,1.93059716797,0.173416033952,0.216722459463,0.956434671173,-0.0905040023736
2021/03/16/15:00:17.385265,996085,1615903217,388171196,mocap,-2.7894152832,10.3631455078,1.93063513184,0.173458762508,0.216786014439,0.95642994266,-0.0903197062878
2021/03/16/15:00:17.393495,996086,1615903217,398171186,mocap,-2.7893828125,10.3628798828,1.93061401367,0.173504182184,0.21682276483,0.95642940515,-0.0901498007716
2021/03/16/15:00:17.405247,996087,1615903217,408171177,mocap,-2.7893527832,10.3626103516,1.93063183594,0.173328654266,0.21682791834,0.956489347286,-0.0898384987121
2021/03/16/15:00:17.413574,996088,1615903217,418171167,mocap,-2.78932202148,10.3623242188,1.93067370605,0.173245678272,0.216789759007,0.956560275908,-0.0893340934639
2021/03/16/15:00:17.425272,996089,1615903217,428170204,mocap,-2.78927319336,10.3620175781,1.9306472168,0.173097873082,0.216752859231,0.956635054498,-0.088908388826
2021/03/16/15:00:17.433747,996090,1615903217,438171148,mocap,-2.78922583008,10.3617119141,1.930625,0.17324333493,0.216974542188,0.956588782965,-0.0885815802378
2021/03/16/15:00:17.445025,996091,1615903217,448170185,mocap,-2.78916699219,10.361390625,1.9306126709,0.17306173726,0.217105011548,0.956641113792,-0.0880501831907
2021/03/16/15:00:17.454013,996092,1615903217,458171129,mocap,-2.78908178711,10.3610820312,1.93064135742,0.172946539423,0.217080415386,0.956708456604,-0.0876043216305
2021/03/16/15:00:17.465420,996093,1615903217,468171120,mocap,-2.78898168945,10.3607373047,1.93062109375,0.172915160139,0.217058959344,0.956744707769,-0.0873230787192
2021/03/16/15:00:17.473410,996094,1615903217,478171110,mocap,-2.78885107422,10.3603583984,1.93062341309,0.172920279497,0.217016048656,0.956798377218,-0.0868300490876
2021/03/16/15:00:17.485102,996095,1615903217,488171101,mocap,-2.78870898437,10.3599726562,1.93062451172,0.173034203829,0.216883627781,0.956851981364,-0.0863419842388
2021/03/16/15:00:17.494300,996096,1615903217,498171091,mocap,-2.7885480957,10.3595546875,1.93058557129,0.1733387142,0.216562038544,0.956896760794,-0.086041677235
2021/03/16/15:00:17.503875,996097,1615903217,508171082,mocap,-2.7884296875,10.3591367187,1.93061938477,0.173343254693,0.216370223526,0.956969909259,-0.0857008239291
2021/03/16/15:00:17.514835,996098,1615903217,518170118,mocap,-2.78826025391,10.3587226563,1.93066162109,0.173277390472,0.216197445214,0.957051895853,-0.0853537869456
2021/03/16/15:00:17.523383,996099,1615903217,528171062,mocap,-2.78804150391,10.3582880859,1.93065246582,0.173614031451,0.215987876059,0.957048820801,-0.0852347470481
2021/03/16/15:00:17.534748,996100,1615903217,538170099,mocap,-2.78780566406,10.3578847656,1.93062194824,0.173678118054,0.215882043457,0.957087768131,-0.0849344192037
2021/03/16/15:00:17.543710,996101,1615903217,548171043,mocap,-2.7875793457,10.3574941406,1.93066345215,0.173870024645,0.215823861788,0.957085969879,-0.0847096432307
2021/03/16/15:00:17.553902,996102,1615903217,558171034,mocap,-2.78732202148,10.3570556641,1.93062927246,0.174123304057,0.21592167348,0.957048369274,-0.0843642558304
2021/03/16/15:00:17.564880,996103,1615903217,568171024,mocap,-2.7870480957,10.3566972656,1.93061999512,0.174282034351,0.21582882594,0.957065924191,-0.0840743802673
2021/03/16/15:00:17.574817,996104,1615903217,578171015,mocap,-2.78676708984,10.3562988281,1.93064160156,0.17433324805,0.215945107824,0.957069442921,-0.0836284447232
2021/03/16/15:00:17.583431,996105,1615903217,588171005,mocap,-2.78654736328,10.3559042969,1.93069909668,0.174305762297,0.215965035268,0.957094392834,-0.083348312241
2021/03/16/15:00:17.594642,996106,1615903217,598170996,mocap,-2.78628417969,10.3554921875,1.93064318848,0.174268838445,0.216085224477,0.957095000032,-0.0831065423808
2021/03/16/15:00:17.603472,996107,1615903217,608170033,mocap,-2.78602099609,10.3550966797,1.93066369629,0.174288655699,0.216067468962,0.957110615768,-0.0829311981402
2021/03/16/15:00:17.613874,996108,1615903217,618170977,mocap,-2.78573950195,10.3546757813,1.93066174316,0.174704538124,0.216133306597,0.957029000104,-0.0828264256815
2021/03/16/15:00:17.624607,996109,1615903217,628170013,mocap,-2.78544042969,10.3542646484,1.9305579834,0.175036626517,0.216238626417,0.956939576098,-0.0828835765395
2021/03/16/15:00:17.633486,996110,1615903217,638171196,mocap,-2.78513842773,10.3538369141,1.93051391602,0.175034867906,0.216272649943,0.956947743412,-0.0827039948421
2021/03/16/15:00:17.644712,996111,1615903217,648171186,mocap,-2.78482006836,10.3534169922,1.93052075195,0.174997526383,0.216163438478,0.956978317665,-0.0827148390328
2021/03/16/15:00:17.653861,996112,1615903217,658171177,mocap,-2.78447143555,10.3529589844,1.93043054199,0.174950216807,0.21623186296,0.956988734644,-0.0825153008929
2021/03/16/15:00:17.663726,996113,1615903217,668171167,mocap,-2.78410595703,10.3524912109,1.93036132813,0.17506242291,0.216212340816,0.956966974085,-0.082580733173
2021/03/16/15:00:17.675563,996114,1615903217,678170204,mocap,-2.78379077148,10.3520097656,1.93039550781,0.175180146054,0.216132425362,0.956968990558,-0.0825169332696
2021/03/16/15:00:17.683606,996115,1615903217,688171148,mocap,-2.78346704102,10.3514785156,1.9303425293,0.175379111477,0.215826995716,0.957000786433,-0.0825250347239
2021/03/16/15:00:17.695326,996116,1615903217,698170185,mocap,-2.78311865234,10.3509492187,1.93025024414,0.17549371633,0.215693351246,0.957005558837,-0.0825752821699
2021/03/16/15:00:17.703604,996117,1615903217,708171129,mocap,-2.78280737305,10.3504462891,1.9302611084,0.175763540218,0.215493293342,0.95699054865,-0.0826976874562
2021/03/16/15:00:17.715473,996118,1615903217,718171120,mocap,-2.78245898437,10.3499658203,1.93022790527,0.175551171181,0.215239858212,0.95709825398,-0.0825622403492
2021/03/16/15:00:17.723988,996119,1615903217,728171110,mocap,-2.78212866211,10.3494716797,1.93018310547,0.175705062428,0.215022885358,0.95710716725,-0.0826968163135
2021/03/16/15:00:17.735376,996120,1615903217,738171101,mocap,-2.7817746582,10.3489482422,1.93014147949,0.175760405968,0.214871830846,0.957128512053,-0.0827247451241
2021/03/16/15:00:17.743397,996121,1615903217,748171091,mocap,-2.78139990234,10.3484150391,1.9300892334,0.17568835937,0.214687665955,0.957179926009,-0.0827610133238
2021/03/16/15:00:17.755639,996122,1615903217,758171082,mocap,-2.78102954102,10.3478847656,1.93003796387,0.175789902578,0.2146454673,0.957140538729,-0.083109623327
2021/03/16/15:00:17.763709,996123,1615903217,768170118,mocap,-2.78068432617,10.3473662109,1.9300032959,0.176094523491,0.214643213668,0.957082692535,-0.0831368347613
2021/03/16/15:00:17.775742,996124,1615903217,778171062,mocap,-2.78035229492,10.3468271484,1.93002844238,0.175842600273,0.214238969263,0.957208975035,-0.0832588464848
2021/03/16/15:00:17.783464,996125,1615903217,788170099,mocap,-2.78002514648,10.3462949219,1.93003149414,0.175100122301,0.213699450705,0.957462976352,-0.083289512414
2021/03/16/15:00:17.795472,996126,1615903217,798171043,mocap,-2.77969116211,10.34571875,1.92999829102,0.174975329624,0.213330662886,0.957556693189,-0.0834197116438
2021/03/16/15:00:17.803828,996127,1615903217,808171034,mocap,-2.77933837891,10.3450859375,1.92991540527,0.175183332318,0.212993366125,0.957576098369,-0.0836220302367
2021/03/16/15:00:17.815195,996128,1615903217,818171024,mocap,-2.77902368164,10.344484375,1.92999169922,0.174997881189,0.212447737901,0.957721189033,-0.083736651786
2021/03/16/15:00:17.823781,996129,1615903217,828171015,mocap,-2.77865698242,10.3438525391,1.92990771484,0.175686713745,0.212064487975,0.957637190216,-0.0842249435161
2021/03/16/15:00:17.835429,996130,1615903217,838171005,mocap,-2.77831152344,10.3432509766,1.92992431641,0.175012311324,0.211522813236,0.957882327573,-0.0842035367958
2021/03/16/15:00:17.843485,996131,1615903217,848170996,mocap,-2.77794140625,10.3426269531,1.92992126465,0.174948320218,0.210877261803,0.958018607138,-0.0844050646461
2021/03/16/15:00:17.855070,996132,1615903217,858170033,mocap,-2.77754345703,10.3419980469,1.92982922363,0.174659878252,0.21047552974,0.958140341704,-0.0846230470525
2021/03/16/15:00:17.863900,996133,1615903217,868170977,mocap,-2.7771887207,10.3413779297,1.92985449219,0.174424879982,0.209860779162,0.958318832882,-0.0846134139879
2021/03/16/15:00:17.875026,996134,1615903217,878170013,mocap,-2.7768059082,10.34078125,1.92986901855,0.174423321112,0.209612476869,0.958354820999,-0.0848242623494
2021/03/16/15:00:17.883900,996135,1615903217,888171196,mocap,-2.77640527344,10.3401933594,1.92983911133,0.174290472762,0.209265243868,0.95843809616,-0.0850136516194
2021/03/16/15:00:17.894942,996136,1615903217,898171186,mocap,-2.77602416992,10.3396503906,1.92983337402,0.174243880016,0.209157256668,0.958462582905,-0.0850987621657
2021/03/16/15:00:17.903744,996137,1615903217,908171177,mocap,-2.77562597656,10.3391113281,1.92983508301,0.174317066072,0.208857365916,0.958500244629,-0.0852610257168
2021/03/16/15:00:17.915006,996138,1615903217,918171167,mocap,-2.77522265625,10.3385927734,1.92982531738,0.174384206008,0.208641924344,0.958522530034,-0.0854005778047
2021/03/16/15:00:17.923264,996139,1615903217,928170204,mocap,-2.77478613281,10.3380693359,1.9297421875,0.175026560295,0.208662337877,0.958387659268,-0.0855501699238
2021/03/16/15:00:17.934852,996140,1615903217,938171148,mocap,-2.77432324219,10.3375615234,1.92969299316,0.174918262624,0.208664140215,0.958406767761,-0.0855531616373
2021/03/16/15:00:17.943355,996141,1615903217,948170185,mocap,-2.77391967773,10.3370908203,1.92971850586,0.174775441712,0.208421066817,0.958496451317,-0.0854328106929
2021/03/16/15:00:17.954742,996142,1615903217,958171129,mocap,-2.77347460938,10.3365869141,1.92966906738,0.175205349986,0.208552435101,0.95839687928,-0.085348600764
2021/03/16/15:00:17.963592,996143,1615903217,968171120,mocap,-2.77303613281,10.3360947266,1.92967895508,0.175056486609,0.208484982801,0.95846369451,-0.0850680885026
2021/03/16/15:00:17.974650,996144,1615903217,978171110,mocap,-2.7726015625,10.3355878906,1.92961901855,0.17503371141,0.208490476229,0.958484503841,-0.0848667886443
2021/03/16/15:00:17.983447,996145,1615903217,988171101,mocap,-2.77219213867,10.3351689453,1.92958154297,0.175120744065,0.208554321936,0.958467767795,-0.0847192694483
2021/03/16/15:00:17.994620,996146,1615903217,998171091,mocap,-2.77177294922,10.334703125,1.92954870605,0.175151617244,0.208665595364,0.958463997675,-0.0844236340701
2021/03/16/15:00:18.003879,996147,1615903218,8171082,mocap,-2.7713293457,10.3342841797,1.92950292969,0.175454198112,0.209045294007,0.958337204172,-0.0842952031598
2021/03/16/15:00:18.013530,996148,1615903218,18170118,mocap,-2.77085644531,10.3338408203,1.9294206543,0.175647068014,0.209291177735,0.958269672594,-0.08405081472
2021/03/16/15:00:18.024732,996149,1615903218,28171062,mocap,-2.77045507812,10.3334033203,1.92946887207,0.175916996256,0.209509148595,0.958187961264,-0.0838746527306
2021/03/16/15:00:18.033532,996150,1615903218,38170099,mocap,-2.76996606445,10.3329179687,1.92938098145,0.176406367355,0.209799129681,0.958038407361,-0.0838303484229
2021/03/16/15:00:18.045600,996151,1615903218,48171043,mocap,-2.76952172852,10.3324443359,1.92934179687,0.176338990679,0.210030818582,0.958019042654,-0.0836130075819
2021/03/16/15:00:18.055738,996152,1615903218,58171034,mocap,-2.76915014648,10.3319619141,1.929390625,0.17583257215,0.210135445418,0.958125224876,-0.0831988944845
2021/03/16/15:00:18.063873,996153,1615903218,68171024,mocap,-2.76874707031,10.3314130859,1.92930554199,0.176435754641,0.210387637805,0.957983772995,-0.0829129079712
2021/03/16/15:00:18.075468,996154,1615903218,78171015,mocap,-2.76838476563,10.330921875,1.92933935547,0.176053193354,0.210320116005,0.958099819669,-0.0825558118507
2021/03/16/15:00:18.083323,996155,1615903218,88171005,mocap,-2.76797436523,10.3303857422,1.92930249023,0.176226037313,0.210428626065,0.958050578152,-0.0824818941594
2021/03/16/15:00:18.095545,996156,1615903218,98170996,mocap,-2.76756933594,10.3298388672,1.92935583496,0.176257843779,0.210320235378,0.958089640289,-0.082236258446
2021/03/16/15:00:18.103883,996157,1615903218,108170033,mocap,-2.76714208984,10.3292431641,1.92926611328,0.176204155013,0.210592822454,0.958063930847,-0.0819527802023
2021/03/16/15:00:18.115436,996158,1615903218,118170977,mocap,-2.76674243164,10.328640625,1.9292232666,0.176414607694,0.210617922687,0.958024572134,-0.0818956282239
2021/03/16/15:00:18.123543,996159,1615903218,128170013,mocap,-2.76625366211,10.3280605469,1.92913513184,0.176715798735,0.21085103108,0.957928388844,-0.0817714612527
2021/03/16/15:00:18.135367,996160,1615903218,138171196,mocap,-2.76586303711,10.3274814453,1.92913232422,0.176438791114,0.210708361157,0.9580231956,-0.0816266410176
2021/03/16/15:00:18.143260,996161,1615903218,148171186,mocap,-2.76547558594,10.3268720703,1.92911071777,0.175909769059,0.210561676439,0.958175994389,-0.0813529269959
2021/03/16/15:00:18.155393,996162,1615903218,158171177,mocap,-2.76505761719,10.3262265625,1.9290513916,0.176526393911,0.210670586817,0.958035296591,-0.0813922960306
2021/03/16/15:00:18.163901,996163,1615903218,168171167,mocap,-2.76461279297,10.3256005859,1.92903540039,0.176386190649,0.210601318481,0.958094267293,-0.0811810896415
2021/03/16/15:00:18.175322,996164,1615903218,178170204,mocap,-2.76412158203,10.3249296875,1.92892480469,0.176658700491,0.210637364012,0.958049691594,-0.0810209955783
2021/03/16/15:00:18.183654,996165,1615903218,188171148,mocap,-2.76367700195,10.3242675781,1.92888317871,0.176799590299,0.210533223068,0.958043470118,-0.0810579563649
2021/03/16/15:00:18.195299,996166,1615903218,198170185,mocap,-2.76323999023,10.3236005859,1.92889379883,0.1766280949,0.210536168002,0.958092105435,-0.0808489800975
2021/03/16/15:00:18.203717,996167,1615903218,208171129,mocap,-2.76278564453,10.32290625,1.92880151367,0.176196453323,0.210374299298,0.9582360061,-0.0805060499681
2021/03/16/15:00:18.215143,996168,1615903218,218171120,mocap,-2.76228662109,10.3221816406,1.92871191406,0.176246310974,0.210347004748,0.958233541324,-0.0804975797797
2021/03/16/15:00:18.223643,996169,1615903218,228171110,mocap,-2.76182788086,10.3215009766,1.92870129395,0.176233966438,0.210383561704,0.958247435735,-0.0802632999473
2021/03/16/15:00:18.235278,996170,1615903218,238171101,mocap,-2.76134399414,10.3208203125,1.92865808105,0.176277906166,0.210454209682,0.958226714561,-0.0802289500443
2021/03/16/15:00:18.243667,996171,1615903218,248171091,mocap,-2.76079882812,10.3200625,1.92857910156,0.176504197433,0.210392814736,0.958201786356,-0.0801902018146
2021/03/16/15:00:18.254998,996172,1615903218,258171082,mocap,-2.76028686523,10.3192695313,1.92846936035,0.177017470783,0.210673572665,0.95806260103,-0.079984443867
2021/03/16/15:00:18.263599,996173,1615903218,268170118,mocap,-2.75975097656,10.3185048828,1.92842480469,0.177061986178,0.210721907918,0.958047949585,-0.0799340813814
2021/03/16/15:00:18.273927,996174,1615903218,278171062,mocap,-2.75919726563,10.3177509766,1.92837683105,0.177398139527,0.210633024892,0.958006288175,-0.0799224270341
2021/03/16/15:00:18.284954,996175,1615903218,288170099,mocap,-2.75870043945,10.3169345703,1.92840283203,0.177385972683,0.210379732029,0.958076365718,-0.0797762795847
2021/03/16/15:00:18.293759,996176,1615903218,298171043,mocap,-2.75818920898,10.3160830078,1.9284119873,0.176968120825,0.210334675907,0.958190667203,-0.0794496555256
2021/03/16/15:00:18.303684,996177,1615903218,308171034,mocap,-2.75763696289,10.3152558594,1.92833972168,0.177082406812,0.21030323796,0.958180574322,-0.0793999558017
2021/03/16/15:00:18.314800,996178,1615903218,318171024,mocap,-2.75706396484,10.3144238281,1.92830102539,0.17695311618,0.210344546339,0.958204927688,-0.0792848830941
2021/03/16/15:00:18.325131,996179,1615903218,328171015,mocap,-2.75652539062,10.3135322266,1.92827709961,0.177371806934,0.210290231751,0.958141624757,-0.0792583735555
2021/03/16/15:00:18.333591,996180,1615903218,338171005,mocap,-2.75592553711,10.3126386719,1.92812390137,0.178064002457,0.210319557055,0.957998145441,-0.0793627815556
2021/03/16/15:00:18.343761,996181,1615903218,348170996,mocap,-2.7553972168,10.3117910156,1.92809838867,0.178095102381,0.210345934953,0.957985476234,-0.0793759404371
2021/03/16/15:00:18.353917,996182,1615903218,358170033,mocap,-2.75484545898,10.3108632813,1.92804248047,0.178140381117,0.2102504059,0.958004009461,-0.0793037043534
2021/03/16/15:00:18.363648,996183,1615903218,368170977,mocap,-2.75427124023,10.309921875,1.92791589355,0.178148960174,0.210237404947,0.958011156673,-0.0792325760546
2021/03/16/15:00:18.375572,996184,1615903218,378170013,mocap,-2.75367578125,10.3090019531,1.92781066895,0.178337366003,0.210097478237,0.957989030473,-0.0794471447275
2021/03/16/15:00:18.383538,996185,1615903218,388171196,mocap,-2.7531484375,10.3080625,1.92777575684,0.178033886839,0.209840179591,0.958113451625,-0.079307223921
2021/03/16/15:00:18.395618,996186,1615903218,398171186,mocap,-2.75261230469,10.3070634766,1.92765441895,0.177606012906,0.209936105984,0.958195371476,-0.0790225617653
2021/03/16/15:00:18.403706,996187,1615903218,408171177,mocap,-2.75207177734,10.3060966797,1.92750024414,0.177849100713,0.20997436907,0.958150808257,-0.0789144959551
2021/03/16/15:00:18.415451,996188,1615903218,418171167,mocap,-2.75153442383,10.3050820313,1.92740942383,0.177913547215,0.209719635217,0.958190597222,-0.0789634463009
2021/03/16/15:00:18.424011,996189,1615903218,428170204,mocap,-2.75100024414,10.3040478516,1.9272824707,0.177801687645,0.209559210384,0.95826538854,-0.0787332835402
2021/03/16/15:00:18.435446,996190,1615903218,438171148,mocap,-2.75038012695,10.3029628906,1.92699621582,0.178301120726,0.209795314604,0.958110519954,-0.0788597756737
2021/03/16/15:00:18.443771,996191,1615903218,448170185,mocap,-2.74984863281,10.3018476563,1.92682067871,0.178178706265,0.209582986655,0.958199834682,-0.0786155141472
2021/03/16/15:00:18.455373,996192,1615903218,458171129,mocap,-2.74929125977,10.300734375,1.92666174316,0.177681751426,0.209374345434,0.958374443244,-0.0781665712748
2021/03/16/15:00:18.463434,996193,1615903218,468171120,mocap,-2.74872094727,10.2996220703,1.92645898437,0.178007481789,0.209308141265,0.958328947631,-0.0781605270246
2021/03/16/15:00:18.475270,996194,1615903218,478171110,mocap,-2.74816625977,10.2984189453,1.92621960449,0.177873529803,0.209308920927,0.958409099935,-0.0774776354778
2021/03/16/15:00:18.483371,996195,1615903218,488171101,mocap,-2.74760961914,10.2972548828,1.92598681641,0.178196486409,0.209495854604,0.958321351861,-0.0773154529514
2021/03/16/15:00:18.495611,996196,1615903218,498171091,mocap,-2.74704467773,10.2960068359,1.92569372559,0.178086650241,0.209620940662,0.958352877411,-0.0768373189539
2021/03/16/15:00:18.503383,996197,1615903218,508171082,mocap,-2.74650170898,10.2948037109,1.9255390625,0.177754820817,0.209540682911,0.958463010445,-0.0764499512011
2021/03/16/15:00:18.515378,996198,1615903218,518170118,mocap,-2.74593530273,10.2935292969,1.92531628418,0.177391524493,0.209652492401,0.958561184306,-0.0757530604797
2021/03/16/15:00:18.523700,996199,1615903218,528171062,mocap,-2.74534228516,10.2922763672,1.92502612305,0.17818195584,0.21036571156,0.958280790831,-0.0754678161967
2021/03/16/15:00:18.535629,996200,1615903218,538170099,mocap,-2.74472949219,10.2909560547,1.92475598145,0.178212840342,0.210624097251,0.958259456143,-0.0749433172275
2021/03/16/15:00:18.543685,996201,1615903218,548171043,mocap,-2.74416772461,10.2895898438,1.92447680664,0.177652421427,0.210703101274,0.958377661751,-0.0745391076105
2021/03/16/15:00:18.555467,996202,1615903218,558171034,mocap,-2.74361425781,10.288265625,1.92422290039,0.177372736486,0.211002461555,0.958420348709,-0.0738058480573
2021/03/16/15:00:18.563708,996203,1615903218,568171024,mocap,-2.74306494141,10.2868603516,1.92389770508,0.177170628039,0.211311134342,0.958430089247,-0.0732798189855
2021/03/16/15:00:18.575324,996204,1615903218,578171015,mocap,-2.74250463867,10.2854257812,1.92361572266,0.176905153213,0.21162031657,0.958467666741,-0.0725336681767
2021/03/16/15:00:18.583735,996205,1615903218,588171005,mocap,-2.74203759766,10.2839775391,1.92331750488,0.176732740848,0.211825666672,0.958496194802,-0.0719755216361
2021/03/16/15:00:18.595092,996206,1615903218,598170996,mocap,-2.74147509766,10.28246875,1.92287536621,0.176677200676,0.212201692253,0.958459341362,-0.071493388134
2021/03/16/15:00:18.603457,996207,1615903218,608170033,mocap,-2.74090698242,10.2809404297,1.9224296875,0.176438057192,0.212460836756,0.958503213974,-0.0707219904663
2021/03/16/15:00:18.614913,996208,1615903218,618170977,mocap,-2.74036791992,10.2793779297,1.92198852539,0.17630888945,0.212917910805,0.958476979264,-0.0700215434628
2021/03/16/15:00:18.623902,996209,1615903218,628170013,mocap,-2.7398737793,10.2778251953,1.921515625,0.176247483415,0.213355907993,0.958447960895,-0.0692356664001
2021/03/16/15:00:18.634919,996210,1615903218,638171196,mocap,-2.73934326172,10.2761630859,1.92096398926,0.176215335785,0.213768988399,0.958406208039,-0.0686186186203
2021/03/16/15:00:18.644013,996211,1615903218,648171186,mocap,-2.73885620117,10.2744824219,1.92049438477,0.175749153626,0.214316171654,0.958443615449,-0.0675769421479
2021/03/16/15:00:18.655025,996212,1615903218,658171177,mocap,-2.73834204102,10.2727304687,1.91992553711,0.175716334941,0.215021542434,0.95834811949,-0.0667711978108
2021/03/16/15:00:18.663728,996213,1615903218,668171167,mocap,-2.73782446289,10.270875,1.91932836914,0.17565056946,0.215583481723,0.958303718869,-0.0657618973396
2021/03/16/15:00:18.674857,996214,1615903218,678170204,mocap,-2.73735620117,10.2689541016,1.918796875,0.176021333033,0.215837772956,0.95820881546,-0.0653177729664
2021/03/16/15:00:18.683769,996215,1615903218,688171148,mocap,-2.7368359375,10.2669101563,1.91821948242,0.175865157794,0.216162281473,0.958227476548,-0.0643849134833
2021/03/16/15:00:18.694813,996216,1615903218,698170185,mocap,-2.73632470703,10.2648164063,1.91759802246,0.175686626286,0.216141555028,0.95832315557,-0.0635119359877
2021/03/16/15:00:18.704279,996217,1615903218,708171129,mocap,-2.73585644531,10.2625986328,1.91689831543,0.176177469215,0.216544439917,0.9581842678,-0.0628721602447
2021/03/16/15:00:18.714642,996218,1615903218,718171120,mocap,-2.7354597168,10.2603632812,1.91631921387,0.176161495403,0.216693219202,0.958201156533,-0.0621427367538
2021/03/16/15:00:18.723705,996219,1615903218,728171110,mocap,-2.73505126953,10.2580527344,1.91562817383,0.175661902329,0.216990819465,0.958288931164,-0.0611571437216
2021/03/16/15:00:18.733397,996220,1615903218,738171101,mocap,-2.73466918945,10.2556728516,1.91502600098,0.175985161371,0.217685171709,0.958116733219,-0.0604543021979
2021/03/16/15:00:18.744794,996221,1615903218,748171091,mocap,-2.73427197266,10.2531728516,1.91451025391,0.175630644472,0.217894924141,0.958187261451,-0.0596057355775
2021/03/16/15:00:18.754598,996222,1615903218,758171082,mocap,-2.73391845703,10.2505654297,1.91389086914,0.175805056716,0.218595167409,0.958046246457,-0.0587886717953
2021/03/16/15:00:18.763481,996223,1615903218,768170118,mocap,-2.73356567383,10.2478544922,1.91338586426,0.176287703712,0.218695649456,0.957980778708,-0.0580317543974
2021/03/16/15:00:18.774990,996224,1615903218,778171062,mocap,-2.73326293945,10.2450439453,1.91297412109,0.175788513526,0.218939782543,0.958062616583,-0.0572695133766
2021/03/16/15:00:18.783665,996225,1615903218,788170099,mocap,-2.73292822266,10.2420517578,1.91260473633,0.175721562756,0.218894210338,0.958127324449,-0.056562191031
2021/03/16/15:00:18.795854,996226,1615903218,798171043,mocap,-2.73265942383,10.2389794922,1.91229187012,0.176264241199,0.218723406796,0.958083652368,-0.0562734953971
2021/03/16/15:00:18.803431,996227,1615903218,808171034,mocap,-2.73235595703,10.2356962891,1.91199719238,0.175949656381,0.218247698502,0.958282547967,-0.0557154950111
2021/03/16/15:00:18.815579,996228,1615903218,818171024,mocap,-2.7320847168,10.2322949219,1.91170117188,0.175742115579,0.21768368577,0.958465676741,-0.0554261911737
2021/03/16/15:00:18.823391,996229,1615903218,828171015,mocap,-2.73188037109,10.2289208984,1.91168359375,0.176810960598,0.217265407693,0.958375267307,-0.0552310826832
2021/03/16/15:00:18.835558,996230,1615903218,838171005,mocap,-2.73172167969,10.2253125,1.91144055176,0.176686329985,0.216284164059,0.958605184386,-0.0554904249031
2021/03/16/15:00:18.843792,996231,1615903218,848170996,mocap,-2.73151318359,10.221734375,1.91152355957,0.177126509724,0.215871548606,0.958641177297,-0.0550705034679
2021/03/16/15:00:18.854245,996232,1615903218,858170033,mocap,-2.73146508789,10.2180478516,1.9113972168,0.177557139972,0.215246352572,0.958691709654,-0.0552509675463
2021/03/16/15:00:18.864625,996233,1615903218,868170977,mocap,-2.73134057617,10.2141914063,1.9112310791,0.177446178755,0.214611508326,0.958872499175,-0.0549387587644
2021/03/16/15:00:18.873652,996234,1615903218,878170013,mocap,-2.73127783203,10.2102050781,1.9108996582,0.176753991022,0.214240803073,0.959097674916,-0.0546858283539
2021/03/16/15:00:18.884548,996235,1615903218,888171196,mocap,-2.73133862305,10.2063886719,1.91089221191,0.17746094812,0.213883539463,0.959044266208,-0.0547314912326
2021/03/16/15:00:18.893946,996236,1615903218,898171186,mocap,-2.73141162109,10.20234375,1.91050683594,0.177029060397,0.213632817809,0.959173552894,-0.054843762435
2021/03/16/15:00:18.905590,996237,1615903218,908171177,mocap,-2.73154296875,10.1983173828,1.91037731934,0.177279268426,0.213706997832,0.959135000982,-0.0544191179937
2021/03/16/15:00:18.913715,996238,1615903218,918171167,mocap,-2.73178930664,10.1942324219,1.91010876465,0.177144500405,0.213559995077,0.959190859193,-0.0544503878825
2021/03/16/15:00:18.924355,996239,1615903218,928170204,mocap,-2.73197875977,10.1900527344,1.90971899414,0.17689274786,0.213798990449,0.959203357129,-0.0541096201646
2021/03/16/15:00:18.933737,996240,1615903218,938171148,mocap,-2.73215844727,10.1857089844,1.90927722168,0.176789339127,0.214307983684,0.959146381065,-0.0534401201643
2021/03/16/15:00:18.944167,996241,1615903218,948170185,mocap,-2.73251074219,10.1814287109,1.90884460449,0.176789684231,0.214610703484,0.959080576684,-0.0534050012938
2021/03/16/15:00:18.955379,996242,1615903218,958171129,mocap,-2.73275,10.1768994141,1.90813305664,0.175897739332,0.214971849039,0.959189484332,-0.0529398804659
2021/03/16/15:00:18.963634,996243,1615903218,968171120,mocap,-2.73323706055,10.1725273437,1.90776599121,0.176061804811,0.215941012939,0.958948744599,-0.0528111297005
2021/03/16/15:00:18.973582,996244,1615903218,978171110,mocap,-2.73357519531,10.1678974609,1.90710827637,0.175531753697,0.216926017704,0.958873563685,-0.0518960498592
2021/03/16/15:00:18.984044,996245,1615903218,988171101,mocap,-2.73399731445,10.1632529297,1.90649133301,0.175467275616,0.21786760673,0.958699310261,-0.0513865405792
2021/03/16/15:00:18.993730,996246,1615903218,998171091,mocap,-2.73441845703,10.1583417969,1.90564819336,0.174765488681,0.218548705825,0.958691126783,-0.0510373283261
2021/03/16/15:00:19.004200,996247,1615903219,8171082,mocap,-2.73503491211,10.1535166016,1.90507165527,0.174956775089,0.220112523771,0.958338160434,-0.0502849033705
2021/03/16/15:00:19.013602,996248,1615903219,18170118,mocap,-2.73553051758,10.1484394531,1.90436828613,0.174995311505,0.220773194109,0.958206397268,-0.0497628664267
2021/03/16/15:00:19.025138,996249,1615903219,28171062,mocap,-2.73614404297,10.1433037109,1.9035802002,0.17508261401,0.221766328895,0.957981758658,-0.0493632582394
2021/03/16/15:00:19.033674,996250,1615903219,38170099,mocap,-2.73681738281,10.1380566406,1.90280859375,0.174560022972,0.222751271814,0.957880507477,-0.0487402673308
2021/03/16/15:00:19.043751,996251,1615903219,48171043,mocap,-2.73745825195,10.1326582031,1.90196411133,0.174680615185,0.223619876522,0.957683372194,-0.0482016463018
2021/03/16/15:00:19.053532,996252,1615903219,58171034,mocap,-2.73817431641,10.1271132813,1.9011953125,0.174865659475,0.224485888519,0.957476119361,-0.0476189164646
2021/03/16/15:00:19.063789,996253,1615903219,68171024,mocap,-2.73896166992,10.1214970703,1.90039147949,0.174523572747,0.225378356652,0.957359942609,-0.0469898448448
2021/03/16/15:00:19.073683,996254,1615903219,78171015,mocap,-2.73973217773,10.1157402344,1.89961877441,0.174491937207,0.226153139993,0.957218097431,-0.0462690321608
2021/03/16/15:00:19.084877,996255,1615903219,88171005,mocap,-2.74061108398,10.1098671875,1.89877197266,0.17410559665,0.226929333374,0.957133852071,-0.0456630584036
2021/03/16/15:00:19.094762,996256,1615903219,98170996,mocap,-2.74146582031,10.1038066406,1.89796520996,0.174358261816,0.227860005535,0.956893809823,-0.0450914886664
2021/03/16/15:00:19.103902,996257,1615903219,108170033,mocap,-2.7423984375,10.097703125,1.8972310791,0.17431765566,0.228255764205,0.956827609136,-0.0446495454822
2021/03/16/15:00:19.114078,996258,1615903219,118170977,mocap,-2.7433918457,10.0914433594,1.89652185059,0.174493340821,0.228730624848,0.956696821675,-0.0443347464045
2021/03/16/15:00:19.124754,996259,1615903219,128170013,mocap,-2.7444140625,10.0850332031,1.89582788086,0.174433787008,0.229228033084,0.956616993212,-0.0437182433374
2021/03/16/15:00:19.133654,996260,1615903219,138171196,mocap,-2.74553686523,10.0785117188,1.89523913574,0.174130195188,0.229584411842,0.956601018931,-0.0434071750689
2021/03/16/15:00:19.144405,996261,1615903219,148171186,mocap,-2.74663452148,10.0719277344,1.89472753906,0.174152396642,0.229775827431,0.956572504449,-0.0429309866988
2021/03/16/15:00:19.153465,996262,1615903219,158171177,mocap,-2.74783129883,10.0652050781,1.8943001709,0.174059953746,0.230001845955,0.956534821348,-0.042935143002
2021/03/16/15:00:19.164524,996263,1615903219,168171167,mocap,-2.74902661133,10.0583291016,1.8938972168,0.173762969556,0.230387976186,0.956530490578,-0.0421572330436
2021/03/16/15:00:19.173538,996264,1615903219,178170204,mocap,-2.75028076172,10.0514003906,1.89363867188,0.173983841868,0.230566483863,0.956445943167,-0.0421885574698
2021/03/16/15:00:19.185522,996265,1615903219,188171148,mocap,-2.75158520508,10.0443994141,1.8934317627,0.173553098321,0.230598075875,0.956532936375,-0.0418161789919
2021/03/16/15:00:19.193303,996266,1615903219,198170185,mocap,-2.75290698242,10.0372675781,1.89335266113,0.173479240781,0.230884723862,0.956480887844,-0.0417312942455
2021/03/16/15:00:19.205557,996267,1615903219,208171129,mocap,-2.75429321289,10.0300742188,1.89332739258,0.173205922507,0.230937423692,0.956528364131,-0.0414861045022
2021/03/16/15:00:19.213563,996268,1615903219,218171120,mocap,-2.7556394043,10.0228525391,1.89338012695,0.173551994644,0.231178586055,0.95639850953,-0.0416901207229
2021/03/16/15:00:19.225421,996269,1615903219,228171110,mocap,-2.75706518555,10.0155380859,1.89350634766,0.173176849851,0.231586331928,0.956375006066,-0.0415257457225
2021/03/16/15:00:19.233673,996270,1615903219,238171101,mocap,-2.75847192383,10.0082050781,1.89379870605,0.172923735793,0.232460996889,0.956224521908,-0.0411573682116
2021/03/16/15:00:19.245327,996271,1615903219,248171091,mocap,-2.75993310547,10.0008222656,1.89427807617,0.172931526577,0.233310985331,0.956014061475,-0.0412041448064
2021/03/16/15:00:19.253776,996272,1615903219,258171082,mocap,-2.76141308594,9.99337011719,1.89507348633,0.172672618602,0.234360175695,0.955818232753,-0.0408775918131
2021/03/16/15:00:19.265351,996273,1615903219,268170118,mocap,-2.76288354492,9.98579589844,1.89605786133,0.172524657592,0.235165636392,0.955647156685,-0.0408765062218
2021/03/16/15:00:19.273787,996274,1615903219,278171062,mocap,-2.76438427734,9.97812792969,1.89709814453,0.172537061636,0.235774234121,0.95549403147,-0.0408978564528
2021/03/16/15:00:19.285246,996275,1615903219,288170099,mocap,-2.76577734375,9.97031152344,1.8982154541,0.172814147355,0.235973609356,0.955378416942,-0.0412771832839
