time,.header.seq,.header.stamp.secs,.header.stamp.nsecs,.header.frame_id,.pose.position.x,.pose.position.y,.pose.position.z,.pose.orientation.x,.pose.orientation.y,.pose.orientation.z,.pose.orientation.w
2021/03/16/14:52:01.804170,951437,1615902721,808171034,mocap,-2.79593115234,10.3622421875,1.93019934082,0.166159865195,0.234112242768,0.955306004523,-0.0705179947684
2021/03/16/14:52:01.815691,951438,1615902721,818171024,mocap,-2.79597460937,10.3622958984,1.93014941406,0.166231035899,0.234221813499,0.955268021878,-0.0705009295116
2021/03/16/14:52:01.823966,951439,1615902721,828171015,mocap,-2.79617041016,10.3624277344,1.93036962891,0.164553220753,0.234699627004,0.955535623077,-0.0692098045487
2021/03/16/14:52:01.835945,951440,1615902721,838171005,mocap,-2.79607177734,10.3624248047,1.93019030762,0.166260351356,0.234232766006,0.9552733255,-0.0703233664052
2021/03/16/14:52:01.843808,951441,1615902721,848170996,mocap,-2.79611523438,10.3624794922,1.93017785645,0.166311598777,0.234293811425,0.955250940894,-0.0703028390544
2021/03/16/14:52:01.855344,951442,1615902721,858170033,mocap,-2.79615429688,10.3625058594,1.93019335938,0.166315318158,0.234287446107,0.955259816804,-0.0701946916866
2021/03/16/14:52:01.863868,951443,1615902721,868170977,mocap,-2.79620483398,10.362546875,1.93018811035,0.16650816891,0.234251349612,0.955231987665,-0.0702366490442
2021/03/16/14:52:01.875372,951444,1615902721,878170013,mocap,-2.79626782227,10.3625576172,1.93017858887,0.1665927359,0.23422426016,0.955226520017,-0.0702007663808
2021/03/16/14:52:01.883762,951445,1615902721,888171196,mocap,-2.79635546875,10.36259375,1.93022949219,0.166357110911,0.234075213505,0.955312111243,-0.0700919262932
2021/03/16/14:52:01.895145,951446,1615902721,898171186,mocap,-2.79643286133,10.3625751953,1.9302467041,0.166226871184,0.234179867598,0.955324496143,-0.0698821680591
2021/03/16/14:52:01.903718,951447,1615902721,908171177,mocap,-2.79651293945,10.3625556641,1.93021691895,0.166457643932,0.234241622978,0.955264114338,-0.0699513659597
2021/03/16/14:52:01.915391,951448,1615902721,918171167,mocap,-2.79658325195,10.3625439453,1.9302232666,0.166275115247,0.234007801675,0.955356448133,-0.0699070621084
2021/03/16/14:52:01.924382,951449,1615902721,928170204,mocap,-2.79665966797,10.3625302734,1.9302722168,0.16622178013,0.233986095772,0.955377153574,-0.0698235089585
2021/03/16/14:52:01.933780,951450,1615902721,938171148,mocap,-2.79672387695,10.3625,1.93022753906,0.166319142016,0.234037514551,0.95534241029,-0.0698946908863
2021/03/16/14:52:01.945153,951451,1615902721,948170185,mocap,-2.79680444336,10.3624765625,1.93022802734,0.166328130841,0.233939741594,0.9553578831,-0.0699890494896
2021/03/16/14:52:01.955258,951452,1615902721,958171129,mocap,-2.79687158203,10.3624433594,1.93025061035,0.166181359214,0.23388639229,0.955396930556,-0.0699829633901
2021/03/16/14:52:01.964006,951453,1615902721,968171120,mocap,-2.79696655273,10.3624082031,1.93025427246,0.166120612186,0.233703331766,0.955443829066,-0.0700983731528
2021/03/16/14:52:01.974993,951454,1615902721,978171110,mocap,-2.79705664063,10.36234375,1.93022827148,0.166027390937,0.233652027793,0.955477282033,-0.0700343487612
2021/03/16/14:52:01.983917,951455,1615902721,988171101,mocap,-2.79713720703,10.3622910156,1.930234375,0.166038266303,0.233602362042,0.955483668375,-0.0700869966826
2021/03/16/14:52:01.994946,951456,1615902721,998171091,mocap,-2.7972121582,10.3622167969,1.93025390625,0.165941516941,0.233398445212,0.955545018755,-0.0701589659162
2021/03/16/14:52:02.003833,951457,1615902722,8171082,mocap,-2.79728100586,10.3621259766,1.93021118164,0.165949339026,0.233251450869,0.955574507331,-0.0702278078004
2021/03/16/14:52:02.015162,951458,1615902722,18170118,mocap,-2.79734912109,10.3620419922,1.93023327637,0.165815998333,0.233056390339,0.955646517382,-0.070210395539
2021/03/16/14:52:02.023868,951459,1615902722,28171062,mocap,-2.79755615234,10.3620195313,1.93045739746,0.164209765917,0.233427954368,0.955913303352,-0.0691106654969
2021/03/16/14:52:02.034024,951460,1615902722,38170099,mocap,-2.79758325195,10.3619121094,1.93039099121,0.164321992083,0.233364074262,0.95589889956,-0.0692588032083
2021/03/16/14:52:02.044217,951461,1615902722,48171043,mocap,-2.79763891602,10.3618154297,1.93039196777,0.164301252992,0.233188672153,0.955934487756,-0.0694074640183
2021/03/16/14:52:02.055982,951462,1615902722,58171034,mocap,-2.79767260742,10.3616962891,1.93040380859,0.164136710212,0.233144270044,0.955975358768,-0.0693830805264
2021/03/16/14:52:02.063870,951463,1615902722,68171024,mocap,-2.79772558594,10.3615966797,1.93040686035,0.164221702304,0.23295877143,0.955994040073,-0.0695473686568
2021/03/16/14:52:02.075787,951464,1615902722,78171015,mocap,-2.79778759766,10.3614833984,1.93038183594,0.164382331756,0.232917782786,0.955959023043,-0.0697860993972
2021/03/16/14:52:02.084044,951465,1615902722,88171005,mocap,-2.79781616211,10.361359375,1.93038769531,0.164263064535,0.232747220216,0.956027185436,-0.0697022013466
2021/03/16/14:52:02.093804,951466,1615902722,98170996,mocap,-2.79786767578,10.3612373047,1.93040673828,0.164398443323,0.232624634347,0.956017022954,-0.0699313314385
2021/03/16/14:52:02.105012,951467,1615902722,108170033,mocap,-2.79790356445,10.3610966797,1.93035705566,0.164411933096,0.232635966986,0.956007826751,-0.0699875469399
2021/03/16/14:52:02.113921,951468,1615902722,118170977,mocap,-2.79796020508,10.3609648438,1.93038928223,0.164565494847,0.232550397164,0.955993112641,-0.070111898634
2021/03/16/14:52:02.126019,951469,1615902722,128170013,mocap,-2.79799926758,10.3608076172,1.93037231445,0.164417499842,0.232463866884,0.956040893705,-0.070094521777
2021/03/16/14:52:02.133880,951470,1615902722,138171196,mocap,-2.79805419922,10.3606826172,1.93037683105,0.16454779567,0.232519230909,0.955990260197,-0.0702954799051
2021/03/16/14:52:02.145814,951471,1615902722,148171186,mocap,-2.79808837891,10.3605107422,1.93034997559,0.164654155818,0.232391325823,0.95600310392,-0.0702947313094
2021/03/16/14:52:02.154073,951472,1615902722,158171177,mocap,-2.79814379883,10.3603623047,1.93038037109,0.164780415466,0.232187465939,0.956009899801,-0.0705794617848
2021/03/16/14:52:02.164952,951473,1615902722,168171167,mocap,-2.79820532227,10.3602167969,1.93038562012,0.165030769001,0.232014530557,0.956001966073,-0.0706706846927
2021/03/16/14:52:02.174095,951474,1615902722,178170204,mocap,-2.79825805664,10.3600556641,1.93037744141,0.164883824326,0.231808458873,0.956074076408,-0.0707144097427
2021/03/16/14:52:02.185395,951475,1615902722,188171148,mocap,-2.79832055664,10.3598544922,1.9303848877,0.164846325906,0.231706427395,0.956103720104,-0.0707353536391
2021/03/16/14:52:02.193864,951476,1615902722,198170185,mocap,-2.79836376953,10.3596923828,1.93037121582,0.164848393628,0.231560655884,0.956130370592,-0.0708476346464
2021/03/16/14:52:02.205259,951477,1615902722,208171129,mocap,-2.79843505859,10.3595273438,1.93037817383,0.164825514241,0.231375771871,0.956175487707,-0.0708960475657
2021/03/16/14:52:02.213998,951478,1615902722,218171120,mocap,-2.7985065918,10.3593603516,1.93042980957,0.164758027479,0.231126628291,0.956243860624,-0.070943299331
2021/03/16/14:52:02.223947,951479,1615902722,228171110,mocap,-2.79843334961,10.359140625,1.93024755859,0.166066138682,0.230462646871,0.956092872675,-0.0720793328308
2021/03/16/14:52:02.234967,951480,1615902722,238171101,mocap,-2.79861230469,10.3590507812,1.93043286133,0.164498648792,0.230878023412,0.956350068547,-0.0709231143961
2021/03/16/14:52:02.243908,951481,1615902722,248171091,mocap,-2.79853588867,10.3588554688,1.93027612305,0.166062459939,0.230265046479,0.956142183845,-0.0720651747243
2021/03/16/14:52:02.253685,951482,1615902722,258171082,mocap,-2.79856518555,10.358703125,1.93026855469,0.165930412231,0.23033230772,0.956155422932,-0.071978727331
2021/03/16/14:52:02.265840,951483,1615902722,268170118,mocap,-2.79861352539,10.3585761719,1.93027319336,0.16606394749,0.230448034291,0.956092522002,-0.0721356881161
2021/03/16/14:52:02.273822,951484,1615902722,278171062,mocap,-2.79880932617,10.3585009766,1.93056347656,0.164537014906,0.230648165503,0.956381736981,-0.0711544959465
2021/03/16/14:52:02.283839,951485,1615902722,288170099,mocap,-2.79885180664,10.3583730469,1.93057519531,0.164352893529,0.230643079047,0.956421015288,-0.0710685297468
2021/03/16/14:52:02.295851,951486,1615902722,298171043,mocap,-2.79887988281,10.35825,1.93052270508,0.164136720556,0.230733784297,0.956444112548,-0.0709628342474
2021/03/16/14:52:02.304857,951487,1615902722,308171034,mocap,-2.79889111328,10.3580761719,1.93048974609,0.164420673741,0.230844582759,0.956364605774,-0.0710165928297
2021/03/16/14:52:02.314065,951488,1615902722,318171024,mocap,-2.798921875,10.3579306641,1.93052612305,0.164116804331,0.230764160757,0.956443871062,-0.0709133202283
2021/03/16/14:52:02.325707,951489,1615902722,328171015,mocap,-2.79892456055,10.3577851562,1.93048791504,0.164296267239,0.230751512166,0.956416255548,-0.0709113656107
2021/03/16/14:52:02.334301,951490,1615902722,338171005,mocap,-2.79893457031,10.3576123047,1.93046557617,0.164213941444,0.23072183528,0.956441300399,-0.0708608141091
2021/03/16/14:52:02.345564,951491,1615902722,348170996,mocap,-2.79893310547,10.3574609375,1.93046105957,0.164177000552,0.230725149293,0.956454558714,-0.0707565450617
2021/03/16/14:52:02.353844,951492,1615902722,358170033,mocap,-2.79891699219,10.3573203125,1.93046411133,0.164222349292,0.230614806956,0.956479758355,-0.0706703664226
2021/03/16/14:52:02.364611,951493,1615902722,368170977,mocap,-2.79891162109,10.3571533203,1.93043884277,0.164436567315,0.230533342347,0.956459886916,-0.0707069703263
2021/03/16/14:52:02.374172,951494,1615902722,378170013,mocap,-2.79890844727,10.3569902344,1.9304329834,0.164432050219,0.230405032386,0.956497806653,-0.0706227062227
2021/03/16/14:52:02.384424,951495,1615902722,388171196,mocap,-2.79887548828,10.3568154297,1.93042016602,0.164502392611,0.230348412526,0.956510285252,-0.0704744787892
2021/03/16/14:52:02.394012,951496,1615902722,398171186,mocap,-2.79882836914,10.3566591797,1.93037585449,0.164598052118,0.230304728717,0.956503820081,-0.0704816910125
2021/03/16/14:52:02.405311,951497,1615902722,408171177,mocap,-2.79879467773,10.3564853516,1.93033984375,0.16481940173,0.230178931799,0.956494426031,-0.0705027741106
2021/03/16/14:52:02.415556,951498,1615902722,418171167,mocap,-2.79877270508,10.3563320313,1.93035644531,0.164858502707,0.230050816941,0.956526074107,-0.0704000677401
2021/03/16/14:52:02.425363,951499,1615902722,428170204,mocap,-2.79872338867,10.3561572266,1.93031542969,0.165202740183,0.230047239442,0.956468790556,-0.070383106843
2021/03/16/14:52:02.433961,951500,1615902722,438171148,mocap,-2.79867431641,10.3559677734,1.93029663086,0.165437150332,0.230080041331,0.956424816832,-0.070322707057
2021/03/16/14:52:02.445413,951501,1615902722,448170185,mocap,-2.79852270508,10.3557216797,1.93008642578,0.167063445426,0.229523031987,0.956197453283,-0.0713821656335
2021/03/16/14:52:02.453673,951502,1615902722,458171129,mocap,-2.7985,10.3555380859,1.93005090332,0.167038183274,0.229370315938,0.956240634935,-0.0713537404634
2021/03/16/14:52:02.465554,951503,1615902722,468171120,mocap,-2.79850927734,10.3553564453,1.93007397461,0.16711934635,0.229294780218,0.956254106401,-0.0712257350489
2021/03/16/14:52:02.473823,951504,1615902722,478171110,mocap,-2.7985,10.3551728516,1.93006518555,0.167022918746,0.229184711367,0.956299389081,-0.0711982880103
2021/03/16/14:52:02.485479,951505,1615902722,488171101,mocap,-2.79852661133,10.3549853516,1.93006567383,0.167017111166,0.229214345101,0.956297355614,-0.0711437236884
2021/03/16/14:52:02.494097,951506,1615902722,498171091,mocap,-2.79853198242,10.3547685547,1.9300859375,0.167123636409,0.228851302648,0.95634961669,-0.0713595525855
2021/03/16/14:52:02.505261,951507,1615902722,508171082,mocap,-2.79854589844,10.3545605469,1.93009838867,0.167150349581,0.228928852951,0.95632653273,-0.071357586114
2021/03/16/14:52:02.513989,951508,1615902722,518170118,mocap,-2.79852807617,10.3543798828,1.93004797363,0.166897240884,0.229046071627,0.956349702387,-0.0712633609458
2021/03/16/14:52:02.525204,951509,1615902722,528171062,mocap,-2.79854345703,10.3541943359,1.93001696777,0.167164201128,0.229165321294,0.956261017368,-0.071444119727
2021/03/16/14:52:02.533751,951510,1615902722,538170099,mocap,-2.79855908203,10.3539853516,1.93000805664,0.166985960366,0.229236217169,0.956281126675,-0.0713642320054
2021/03/16/14:52:02.545242,951511,1615902722,548171043,mocap,-2.79859106445,10.3537666016,1.92995788574,0.166914529123,0.229384453894,0.956254129775,-0.0714167585519
2021/03/16/14:52:02.554100,951512,1615902722,558171034,mocap,-2.79877880859,10.3536474609,1.9301328125,0.165109216183,0.230083896545,0.956485990002,-0.0702488086293
2021/03/16/14:52:02.565194,951513,1615902722,568171024,mocap,-2.79882470703,10.3534365234,1.93011022949,0.165076697239,0.230174254759,0.956467832425,-0.0702765005697
2021/03/16/14:52:02.573772,951514,1615902722,578171015,mocap,-2.79872753906,10.3531328125,1.92989318848,0.166814320989,0.229697084083,0.956188578285,-0.0715237106615
2021/03/16/14:52:02.584973,951515,1615902722,588171005,mocap,-2.79890869141,10.3529863281,1.93006628418,0.16513738142,0.230337258889,0.956410202619,-0.0703840793294
2021/03/16/14:52:02.594097,951516,1615902722,598170996,mocap,-2.79893847656,10.35271875,1.93000866699,0.165147178749,0.230473648962,0.95637047202,-0.0704543957835
2021/03/16/14:52:02.605228,951517,1615902722,608170033,mocap,-2.79899560547,10.3524746094,1.92999243164,0.165049558132,0.230471226149,0.956388833994,-0.0704419233938
2021/03/16/14:52:02.613786,951518,1615902722,618170977,mocap,-2.79903344727,10.3522539063,1.92999682617,0.165266605278,0.230510630455,0.956331394197,-0.0705837699283
2021/03/16/14:52:02.624034,951519,1615902722,628170013,mocap,-2.79909423828,10.3520048828,1.92996240234,0.165398699684,0.230622933024,0.956278095892,-0.0706296382619
2021/03/16/14:52:02.633947,951520,1615902722,638171196,mocap,-2.79914916992,10.3517587891,1.92993530273,0.165547088269,0.23082051,0.956202954338,-0.0706538383392
2021/03/16/14:52:02.644200,951521,1615902722,648171186,mocap,-2.7992277832,10.3514921875,1.92993737793,0.165435521936,0.230960934378,0.956192341793,-0.0705998618224
2021/03/16/14:52:02.656196,951522,1615902722,658171177,mocap,-2.79920141602,10.3511630859,1.92970495605,0.16727231205,0.230569753974,0.955884207156,-0.0717143597939
2021/03/16/14:52:02.664038,951523,1615902722,668171167,mocap,-2.79929321289,10.3508476563,1.92967578125,0.16725852783,0.230622584189,0.955877457149,-0.071666539377
2021/03/16/14:52:02.675757,951524,1615902722,678170204,mocap,-2.79944360352,10.3505175781,1.92964477539,0.167252831356,0.230799655887,0.955851033451,-0.071461916906
2021/03/16/14:52:02.683889,951525,1615902722,688171148,mocap,-2.79975439453,10.3502353516,1.9298125,0.165456696237,0.231502222653,0.956104421442,-0.0699652551572
2021/03/16/14:52:02.696121,951526,1615902722,698170185,mocap,-2.7999309082,10.3499111328,1.9298046875,0.165432881788,0.231555575108,0.956095459861,-0.0699674431916
2021/03/16/14:52:02.704186,951527,1615902722,708171129,mocap,-2.80012695312,10.3495585938,1.9297833252,0.16551070505,0.231558093768,0.956079944437,-0.0699871333933
2021/03/16/14:52:02.715906,951528,1615902722,718171120,mocap,-2.80034277344,10.3492226562,1.9298293457,0.165731350342,0.231317107957,0.956090830976,-0.0701130564041
2021/03/16/14:52:02.724094,951529,1615902722,728171110,mocap,-2.80053393555,10.34884375,1.92973925781,0.165871197486,0.231530112303,0.956018792045,-0.0700615524822
2021/03/16/14:52:02.733824,951530,1615902722,738171101,mocap,-2.80077319336,10.3484462891,1.92968530273,0.165503693101,0.23144437836,0.956109151565,-0.0699807961934
2021/03/16/14:52:02.745619,951531,1615902722,748171091,mocap,-2.80099414062,10.3480644531,1.92965979004,0.16532753474,0.231615436447,0.956094407843,-0.070032678073
2021/03/16/14:52:02.753889,951532,1615902722,758171082,mocap,-2.8011184082,10.3476191406,1.9294510498,0.166721104537,0.231085293123,0.955893817651,-0.0712086529112
2021/03/16/14:52:02.765884,951533,1615902722,768170118,mocap,-2.80136450195,10.3472041016,1.92942041016,0.166599020718,0.231186920076,0.955897668057,-0.0711127296662
2021/03/16/14:52:02.774350,951534,1615902722,778171062,mocap,-2.80176196289,10.3468564453,1.92964160156,0.164980764404,0.231754289186,0.956126934123,-0.0699470059406
2021/03/16/14:52:02.785701,951535,1615902722,788170099,mocap,-2.8020378418,10.3463876953,1.92956262207,0.164798793098,0.231825108821,0.956143446203,-0.0699154527316
2021/03/16/14:52:02.794202,951536,1615902722,798171043,mocap,-2.80232080078,10.3459628906,1.92953552246,0.164657420976,0.231749548345,0.956195006628,-0.0697939382661
2021/03/16/14:52:02.804550,951537,1615902722,808171034,mocap,-2.80264379883,10.3455654297,1.92951013184,0.164429308591,0.231910993979,0.956206133404,-0.069642870719
2021/03/16/14:52:02.814611,951538,1615902722,818171024,mocap,-2.80296191406,10.3451523437,1.92948449707,0.164493694893,0.232015342281,0.956166441078,-0.0696881811536
2021/03/16/14:52:02.824173,951539,1615902722,828171015,mocap,-2.80328198242,10.3446845703,1.9294119873,0.164723957688,0.231985336944,0.95613081476,-0.0697329971748
2021/03/16/14:52:02.835559,951540,1615902722,838171005,mocap,-2.80361743164,10.3442177734,1.92937890625,0.164310991028,0.231986712747,0.956207169714,-0.0696557062643
2021/03/16/14:52:02.843940,951541,1615902722,848170996,mocap,-2.80380200195,10.3436640625,1.92913098145,0.165771613296,0.231643032427,0.955958571001,-0.0707423050488
2021/03/16/14:52:02.855464,951542,1615902722,858170033,mocap,-2.80414697266,10.3432011719,1.92905871582,0.165699053344,0.231706295085,0.955961400158,-0.0706669877243
2021/03/16/14:52:02.863842,951543,1615902722,868170977,mocap,-2.80459960937,10.3427333984,1.92916931152,0.164204193505,0.232225050146,0.956179282435,-0.0694960209671
2021/03/16/14:52:02.875370,951544,1615902722,878170013,mocap,-2.80492871094,10.3422470703,1.9290958252,0.163885729472,0.232254955275,0.956247133051,-0.069213617729
2021/03/16/14:52:02.884082,951545,1615902722,888171196,mocap,-2.80528857422,10.3417587891,1.92905871582,0.163771960556,0.232320281465,0.956259630504,-0.0690908550378
2021/03/16/14:52:02.894232,951546,1615902722,898171186,mocap,-2.80569604492,10.3412480469,1.92904382324,0.164035578317,0.232396333499,0.956195926072,-0.0690914199118
2021/03/16/14:52:02.904311,951547,1615902722,908171177,mocap,-2.80608666992,10.3407177734,1.92902160645,0.164136824809,0.232437227323,0.95617591627,-0.0689903066809
2021/03/16/14:52:02.913824,951548,1615902722,918171167,mocap,-2.80647412109,10.3401523438,1.92896582031,0.164030022916,0.232353924491,0.956225449116,-0.0688381519036
2021/03/16/14:52:02.924928,951549,1615902722,928170204,mocap,-2.80673803711,10.3395458984,1.92873461914,0.16554940925,0.231974744246,0.955974828796,-0.0699516459923
2021/03/16/14:52:02.935166,951550,1615902722,938171148,mocap,-2.80724780273,10.3390585937,1.92890661621,0.16388563361,0.232609623531,0.956211322738,-0.0685139987446
2021/03/16/14:52:02.944021,951551,1615902722,948170185,mocap,-2.80761743164,10.3384492188,1.9287590332,0.163801014993,0.232509888295,0.956255898426,-0.0684328168713
2021/03/16/14:52:02.955066,951552,1615902722,958171129,mocap,-2.80800610352,10.3378388672,1.92867626953,0.163884720964,0.232627019131,0.956225012783,-0.0682655839294
2021/03/16/14:52:02.964291,951553,1615902722,968171120,mocap,-2.80843505859,10.3372529297,1.92864489746,0.163959032125,0.232624423557,0.956228635898,-0.0680448786082
2021/03/16/14:52:02.975088,951554,1615902722,978171110,mocap,-2.80890698242,10.3366230469,1.92860192871,0.164239405209,0.232562067425,0.956197975339,-0.0680128024946
2021/03/16/14:52:02.983926,951555,1615902722,988171101,mocap,-2.80933081055,10.3359951172,1.92853735352,0.164193966399,0.232560689423,0.95621479007,-0.0678906864402
2021/03/16/14:52:02.995332,951556,1615902722,998171091,mocap,-2.80978662109,10.3354023437,1.92850720215,0.164089137425,0.232442021655,0.956259053942,-0.067927033528
2021/03/16/14:52:03.003897,951557,1615902723,8171082,mocap,-2.81023095703,10.33475,1.9284432373,0.164185229527,0.23249776634,0.956232274583,-0.0678810613098
2021/03/16/14:52:03.015087,951558,1615902723,18170118,mocap,-2.8106706543,10.3340722656,1.9283302002,0.164038590365,0.232646051928,0.956248496559,-0.067497905721
2021/03/16/14:52:03.024215,951559,1615902723,28171062,mocap,-2.81112817383,10.3334130859,1.92824523926,0.164368801297,0.232895836385,0.956139160414,-0.0673819351166
2021/03/16/14:52:03.036114,951560,1615902723,38170099,mocap,-2.81161889648,10.3327636719,1.9281932373,0.164700672343,0.232918019411,0.956074232266,-0.0674162809157
2021/03/16/14:52:03.044473,951561,1615902723,48171043,mocap,-2.8119621582,10.3320029297,1.92788427734,0.166054500987,0.232554447845,0.955853114636,-0.0684774348785
2021/03/16/14:52:03.055024,951562,1615902723,58171034,mocap,-2.81242041016,10.3312324219,1.92762792969,0.165656475661,0.232683201492,0.955886155764,-0.0685428520854
2021/03/16/14:52:03.064227,951563,1615902723,68171024,mocap,-2.81305395508,10.3306455078,1.92787341309,0.164808607826,0.233507602896,0.955911869218,-0.0674152823644
2021/03/16/14:52:03.074119,951564,1615902723,78171015,mocap,-2.81357397461,10.3299326172,1.92779260254,0.164816270299,0.233777226811,0.955857121099,-0.0672381507104
2021/03/16/14:52:03.084923,951565,1615902723,88171005,mocap,-2.81411450195,10.3292099609,1.92773266602,0.165340654632,0.234008604978,0.955711038021,-0.0672223335865
2021/03/16/14:52:03.093827,951566,1615902723,98170996,mocap,-2.81467602539,10.3284609375,1.92769226074,0.165371737295,0.234127127203,0.95568035306,-0.0671694836451
2021/03/16/14:52:03.104162,951567,1615902723,108170033,mocap,-2.81505566406,10.3276123047,1.92737438965,0.167133217363,0.233939908753,0.955332295116,-0.0684019239109
2021/03/16/14:52:03.115982,951568,1615902723,118170977,mocap,-2.81558081055,10.3267783203,1.92725366211,0.167432149653,0.234172550107,0.955225459243,-0.0683668760997
2021/03/16/14:52:03.123878,951569,1615902723,128170013,mocap,-2.81624267578,10.3259921875,1.92733178711,0.165569289049,0.234936366739,0.955452032559,-0.0671054244303
2021/03/16/14:52:03.135891,951570,1615902723,138171196,mocap,-2.81679199219,10.3251650391,1.92721459961,0.165941495323,0.235190053859,0.955340000439,-0.0668920406327
2021/03/16/14:52:03.144065,951571,1615902723,148171186,mocap,-2.81739697266,10.3242734375,1.92711694336,0.166257084732,0.235251439477,0.955257812322,-0.0670660350729
2021/03/16/14:52:03.153792,951572,1615902723,158171177,mocap,-2.8179375,10.3233427734,1.9269699707,0.16647476264,0.235530042571,0.955153979076,-0.0670270479057
2021/03/16/14:52:03.165829,951573,1615902723,168171167,mocap,-2.81839111328,10.3223525391,1.92666174316,0.168050057269,0.235000590741,0.954917114041,-0.0683168603411
2021/03/16/14:52:03.173856,951574,1615902723,178170204,mocap,-2.81909887695,10.3214619141,1.92667724609,0.166615141663,0.236076523686,0.954997942782,-0.0669791387088
2021/03/16/14:52:03.185684,951575,1615902723,188171148,mocap,-2.81969555664,10.3204550781,1.92653430176,0.16674823796,0.236397463282,0.954900136015,-0.0669102946757
2021/03/16/14:52:03.195486,951576,1615902723,198170185,mocap,-2.82013256836,10.3192871094,1.92603564453,0.168006346068,0.236026479132,0.954681157967,-0.0681854526686
2021/03/16/14:52:03.205755,951577,1615902723,208171129,mocap,-2.82073828125,10.3182304688,1.92587988281,0.168439471044,0.23625522291,0.954529150085,-0.0684523697044
2021/03/16/14:52:03.214302,951578,1615902723,218171120,mocap,-2.82148657227,10.3172617188,1.92605932617,0.167586678068,0.237421256354,0.954470747521,-0.0673159218966
2021/03/16/14:52:03.224791,951579,1615902723,228171110,mocap,-2.82209228516,10.3160957031,1.92585498047,0.167163991575,0.237745495557,0.954475251561,-0.0671585096139
2021/03/16/14:52:03.235739,951580,1615902723,238171101,mocap,-2.82270581055,10.3149091797,1.92563635254,0.167718778933,0.238159219634,0.954262890642,-0.0673269676955
2021/03/16/14:52:03.244059,951581,1615902723,248171091,mocap,-2.82316088867,10.3135830078,1.92515844727,0.169658593341,0.238062102081,0.953818623848,-0.0690827907179
2021/03/16/14:52:03.255271,951582,1615902723,258171082,mocap,-2.82389379883,10.3123828125,1.92508654785,0.168107269205,0.238719145189,0.953987153768,-0.068276091419
2021/03/16/14:52:03.263839,951583,1615902723,268170118,mocap,-2.82445800781,10.3110107422,1.92465185547,0.168281572483,0.239084868869,0.953851844804,-0.0684572379923
2021/03/16/14:52:03.274399,951584,1615902723,278171062,mocap,-2.82511645508,10.3096435547,1.92423059082,0.168544603941,0.239456561926,0.953677087887,-0.0689440857739
2021/03/16/14:52:03.283842,951585,1615902723,288170099,mocap,-2.82558911133,10.3081435547,1.92356286621,0.170352174987,0.239299829154,0.953273761584,-0.070603593822
2021/03/16/14:52:03.295394,951586,1615902723,298171043,mocap,-2.82631835938,10.3067451172,1.92325341797,0.16926350826,0.240100969603,0.953320279988,-0.0698700230955
2021/03/16/14:52:03.304127,951587,1615902723,308171034,mocap,-2.82685498047,10.3051728516,1.92259924316,0.169221857459,0.240328561844,0.953237784857,-0.070312628993
2021/03/16/14:52:03.314032,951588,1615902723,318171024,mocap,-2.82748168945,10.3035351562,1.92201147461,0.16924895005,0.240860607634,0.95305129845,-0.0709519873754
2021/03/16/14:52:03.325372,951589,1615902723,328171015,mocap,-2.82810229492,10.3018554688,1.92142590332,0.169321791811,0.241306532815,0.952896512895,-0.0713408330289
2021/03/16/14:52:03.334191,951590,1615902723,338171005,mocap,-2.82862451172,10.3001113281,1.92078601074,0.169125485018,0.241645941818,0.952807162399,-0.0718492625139
2021/03/16/14:52:03.343968,951591,1615902723,348170996,mocap,-2.82915405273,10.2982363281,1.92009997559,0.169237748964,0.241640520558,0.952738628871,-0.0725090066845
2021/03/16/14:52:03.355249,951592,1615902723,358170033,mocap,-2.82970996094,10.2962910156,1.91944665527,0.169340354676,0.242016663218,0.952564105733,-0.0733036061875
2021/03/16/14:52:03.364062,951593,1615902723,368170977,mocap,-2.83021972656,10.2943232422,1.91886425781,0.169069114885,0.242326428144,0.952498808732,-0.0737533260155
2021/03/16/14:52:03.375091,951594,1615902723,378170013,mocap,-2.83065917969,10.2921923828,1.91815197754,0.169324455866,0.242580606701,0.952349362814,-0.0742601247725
2021/03/16/14:52:03.384075,951595,1615902723,388171196,mocap,-2.83107446289,10.2899365234,1.91748413086,0.169993441199,0.242367443939,0.952209674138,-0.0752129222913
2021/03/16/14:52:03.393789,951596,1615902723,398171186,mocap,-2.83150878906,10.2876660156,1.91681872559,0.169981302155,0.242216262947,0.952197506936,-0.0758785336998
2021/03/16/14:52:03.403786,951597,1615902723,408171177,mocap,-2.83194042969,10.2853076172,1.91626879883,0.170185459659,0.242139603411,0.952115697053,-0.0766878352478
2021/03/16/14:52:03.415066,951598,1615902723,418171167,mocap,-2.8323527832,10.2828203125,1.91566223145,0.170213131051,0.242164416796,0.95204841284,-0.077380268089
2021/03/16/14:52:03.424255,951599,1615902723,428170204,mocap,-2.83271899414,10.2802431641,1.91521252441,0.170121450647,0.241818889073,0.952103599079,-0.07798106305
2021/03/16/14:52:03.436000,951600,1615902723,438171148,mocap,-2.83312036133,10.2775722656,1.91482287598,0.170005187292,0.241703518693,0.952091117503,-0.0787410230041
2021/03/16/14:52:03.444183,951601,1615902723,448170185,mocap,-2.8335,10.2747978516,1.91451269531,0.169618178242,0.241278945252,0.952211645914,-0.0794174604908
2021/03/16/14:52:03.454028,951602,1615902723,458171129,mocap,-2.83386035156,10.2719111328,1.91425927734,0.169162373784,0.241009085364,0.952303587182,-0.080103575378
2021/03/16/14:52:03.466305,951603,1615902723,468171120,mocap,-2.83420532227,10.2689521484,1.91410705566,0.169126249944,0.240765506823,0.952309102906,-0.0808433664321
2021/03/16/14:52:03.473976,951604,1615902723,478171110,mocap,-2.83448828125,10.2659052734,1.91399633789,0.168893788006,0.240320509837,0.952417955645,-0.0813693005506
2021/03/16/14:52:03.485894,951605,1615902723,488171101,mocap,-2.83479174805,10.2627285156,1.91393188477,0.168319730445,0.239556467539,0.952663427122,-0.081936367703
2021/03/16/14:52:03.493956,951606,1615902723,498171091,mocap,-2.83494604492,10.2594404297,1.91372961426,0.169211093509,0.23909610323,0.952504010442,-0.0832873294886
2021/03/16/14:52:03.506022,951607,1615902723,508171082,mocap,-2.83526074219,10.2561484375,1.91377233887,0.168021043462,0.238752178883,0.952808624665,-0.0831988239798
2021/03/16/14:52:03.514109,951608,1615902723,518170118,mocap,-2.83543725586,10.2527675781,1.9137520752,0.167857317611,0.238017790201,0.952949812689,-0.0840125252529
2021/03/16/14:52:03.525831,951609,1615902723,528171062,mocap,-2.8355625,10.2493076172,1.91361242676,0.167727345865,0.237509448173,0.953042018905,-0.0846623274502
2021/03/16/14:52:03.533880,951610,1615902723,538170099,mocap,-2.83568237305,10.2458320312,1.91348730469,0.167770559829,0.237185551749,0.953045450862,-0.0854425411682
2021/03/16/14:52:03.545640,951611,1615902723,548171043,mocap,-2.83574633789,10.2422480469,1.9132956543,0.167827197592,0.236982641923,0.953020152594,-0.0861733089791
2021/03/16/14:52:03.553795,951612,1615902723,558171034,mocap,-2.8357746582,10.2386650391,1.91309448242,0.167889318477,0.236938926939,0.952960774078,-0.0868267120846
2021/03/16/14:52:03.565734,951613,1615902723,568171024,mocap,-2.83577197266,10.2349970703,1.91268505859,0.167874642235,0.237039388544,0.952866558307,-0.0876114330746
2021/03/16/14:52:03.574090,951614,1615902723,578171015,mocap,-2.83563769531,10.2312373047,1.91215405273,0.16919836872,0.237078041415,0.952483172143,-0.0891163673609
2021/03/16/14:52:03.585612,951615,1615902723,588171005,mocap,-2.83558349609,10.2274804688,1.91172033691,0.169218449152,0.237668286398,0.952273324454,-0.0897463748042
2021/03/16/14:52:03.593974,951616,1615902723,598170996,mocap,-2.83559838867,10.2236943359,1.91128063965,0.168574886054,0.238462679259,0.952192092286,-0.0897122317892
2021/03/16/14:52:03.604475,951617,1615902723,608170033,mocap,-2.83548730469,10.2198417969,1.91074279785,0.168565720571,0.239153284611,0.951937561158,-0.0905880185156
2021/03/16/14:52:03.614891,951618,1615902723,618170977,mocap,-2.83534960938,10.2158671875,1.91011682129,0.168746502956,0.239974266415,0.95164328453,-0.0911703678625
2021/03/16/14:52:03.624580,951619,1615902723,628170013,mocap,-2.83505932617,10.2117558594,1.90932971191,0.169691084294,0.240470524531,0.951174452071,-0.0929840141773
2021/03/16/14:52:03.635662,951620,1615902723,638171196,mocap,-2.83486279297,10.2075742188,1.908640625,0.170026823023,0.241557905047,0.950775737637,-0.0936277127882
2021/03/16/14:52:03.643741,951621,1615902723,648171186,mocap,-2.8346953125,10.2033105469,1.90799145508,0.170084037484,0.242335997442,0.950481751914,-0.0944941023828
2021/03/16/14:52:03.654561,951622,1615902723,658171177,mocap,-2.83447705078,10.1989501953,1.9072845459,0.170279882421,0.243264526395,0.950129295949,-0.0952966628103
2021/03/16/14:52:03.665663,951623,1615902723,668171167,mocap,-2.83429736328,10.1945019531,1.90659399414,0.170182159912,0.244153027997,0.949839471442,-0.0960849282346
2021/03/16/14:52:03.673901,951624,1615902723,678170204,mocap,-2.83408740234,10.1899228516,1.9059432373,0.16998681463,0.245010315627,0.949583925246,-0.0967719342422
2021/03/16/14:52:03.685303,951625,1615902723,688171148,mocap,-2.83387646484,10.1852714844,1.90530932617,0.169735227538,0.245715505723,0.949387099796,-0.0973549082605
2021/03/16/14:52:03.693710,951626,1615902723,698170185,mocap,-2.8336184082,10.1804990234,1.90467687988,0.169779907404,0.24660393812,0.949075028642,-0.0980707904914
2021/03/16/14:52:03.705566,951627,1615902723,708171129,mocap,-2.8333515625,10.1756103516,1.90404443359,0.16920269702,0.247167611115,0.948955020452,-0.0988077765471
2021/03/16/14:52:03.714097,951628,1615902723,718171120,mocap,-2.83305517578,10.1706357422,1.90344360352,0.168757273727,0.247647534935,0.948839394387,-0.0994760465983
2021/03/16/14:52:03.725225,951629,1615902723,728171110,mocap,-2.83275585938,10.16559375,1.9027845459,0.168477236851,0.248214892462,0.948676476388,-0.100088666803
2021/03/16/14:52:03.733744,951630,1615902723,738171101,mocap,-2.83243115234,10.1604804688,1.90223217773,0.168043496212,0.248735768631,0.948552325492,-0.100699463303
2021/03/16/14:52:03.745179,951631,1615902723,748171091,mocap,-2.83204736328,10.1551855469,1.90161230469,0.167484298656,0.249651598116,0.948376647028,-0.1010189031
2021/03/16/14:52:03.754032,951632,1615902723,758171082,mocap,-2.83163208008,10.1499316406,1.90105395508,0.167200607019,0.250266279933,0.948173575468,-0.101870634994
2021/03/16/14:52:03.765356,951633,1615902723,768170118,mocap,-2.83123608398,10.1445292969,1.90052124023,0.166928279033,0.251187466546,0.947951833191,-0.102113237972
2021/03/16/14:52:03.773993,951634,1615902723,778171062,mocap,-2.83074731445,10.1390830078,1.9000489502,0.166212625349,0.251816827718,0.947888136354,-0.102321656727
2021/03/16/14:52:03.784997,951635,1615902723,788170099,mocap,-2.83028588867,10.1336376953,1.89961279297,0.166089162388,0.25259669425,0.947649683226,-0.102807473957
2021/03/16/14:52:03.794053,951636,1615902723,798171043,mocap,-2.82974121094,10.1280957031,1.89916882324,0.166110959864,0.253443083646,0.947398351436,-0.103005370209
2021/03/16/14:52:03.804289,951637,1615902723,808171034,mocap,-2.82916772461,10.1224521484,1.89875073242,0.166248301517,0.254640511523,0.947018534102,-0.103322857706
2021/03/16/14:52:03.816222,951638,1615902723,818171024,mocap,-2.82861035156,10.1167324219,1.89839880371,0.165971232661,0.255639455997,0.946791130859,-0.103385545104
2021/03/16/14:52:03.823944,951639,1615902723,828171015,mocap,-2.82793579102,10.1109804688,1.89804675293,0.165846184384,0.256704937512,0.946504046857,-0.103574627887
2021/03/16/14:52:03.833948,951640,1615902723,838171005,mocap,-2.8273347168,10.1051181641,1.89779223633,0.165847296779,0.257625306723,0.946255780748,-0.103556077602
2021/03/16/14:52:03.843694,951641,1615902723,848170996,mocap,-2.82666918945,10.0991894531,1.89765136719,0.165498614853,0.258648898342,0.946034652162,-0.10358284854
2021/03/16/14:52:03.855293,951642,1615902723,858170033,mocap,-2.82601196289,10.0931806641,1.89754370117,0.165384922728,0.259408813661,0.945862066502,-0.103440054976
2021/03/16/14:52:03.865043,951643,1615902723,868170977,mocap,-2.82531396484,10.0871035156,1.89762426758,0.165405111458,0.260077651458,0.945686258562,-0.103335708914
2021/03/16/14:52:03.873948,951644,1615902723,878170013,mocap,-2.82456860352,10.0809101563,1.89769348145,0.165131736647,0.260658071534,0.945616814993,-0.102945252931
2021/03/16/14:52:03.884239,951645,1615902723,888171196,mocap,-2.8238449707,10.0746503906,1.89804431152,0.165200821805,0.261510806167,0.945426303539,-0.102420129765
2021/03/16/14:52:03.895115,951646,1615902723,898171186,mocap,-2.82312988281,10.0683769531,1.89865991211,0.164856192211,0.262432114089,0.94530943405,-0.101695128496
2021/03/16/14:52:03.903856,951647,1615902723,908171177,mocap,-2.822375,10.0620263672,1.89952648926,0.16426419047,0.263437391681,0.945226909767,-0.10081714961
2021/03/16/14:52:03.915663,951648,1615902723,918171167,mocap,-2.8216262207,10.05559375,1.90059069824,0.164150491834,0.26422078035,0.945112916669,-0.100017809586
2021/03/16/14:52:03.923794,951649,1615902723,928170204,mocap,-2.82081030273,10.0490527344,1.90161621094,0.164016240772,0.26444030763,0.94515942682,-0.099215161811
2021/03/16/14:52:03.936081,951650,1615902723,938171148,mocap,-2.81990161133,10.0424121094,1.90258532715,0.164193822621,0.264780588087,0.945099097195,-0.098586598788
2021/03/16/14:52:03.943976,951651,1615902723,948170185,mocap,-2.81896630859,10.0357646484,1.90354956055,0.164585159541,0.264662347887,0.945146325378,-0.0977956475744
2021/03/16/14:52:03.955007,951652,1615902723,958171129,mocap,-2.81809057617,10.0291152344,1.90456164551,0.164854439143,0.264834690748,0.945128809208,-0.0970420012033
2021/03/16/14:52:03.965486,951653,1615902723,968171120,mocap,-2.81725488281,10.0224951172,1.90566906738,0.165096512193,0.265236643895,0.945084370916,-0.0959593219232
2021/03/16/14:52:03.973931,951654,1615902723,978171110,mocap,-2.81643457031,10.0158798828,1.90681225586,0.164988800798,0.265431934595,0.945134445635,-0.0951075919302
2021/03/16/14:52:03.984893,951655,1615902723,988171101,mocap,-2.81562475586,10.0092373047,1.90782104492,0.165089540788,0.265659452771,0.945149462804,-0.0941434879397
2021/03/16/14:52:03.995836,951656,1615902723,998171091,mocap,-2.81479174805,10.0025107422,1.90879150391,0.165396573182,0.265625385978,0.945216544459,-0.0930204312983
2021/03/16/14:52:04.003928,951657,1615902724,8171082,mocap,-2.81397851563,9.99583789062,1.90970556641,0.165554082636,0.265519623779,0.945305453818,-0.0921345969568
2021/03/16/14:52:04.015003,951658,1615902724,18170118,mocap,-2.81322753906,9.98919140625,1.91043395996,0.165929017356,0.265248523852,0.945422087378,-0.0910376494893
2021/03/16/14:52:04.024356,951659,1615902724,28171062,mocap,-2.81248486328,9.98252539062,1.91096740723,0.166145022786,0.265140403773,0.945511127128,-0.0900283325551
2021/03/16/14:52:04.036786,951660,1615902724,38170099,mocap,-2.81182910156,9.97592773438,1.91143310547,0.166102308611,0.264478539382,0.945816709496,-0.0888362963774
2021/03/16/14:52:04.043669,951661,1615902724,48171043,mocap,-2.81117919922,9.96936328125,1.91169360352,0.166315317208,0.264611977316,0.945846658912,-0.0877144115105
2021/03/16/14:52:04.055439,951662,1615902724,58171034,mocap,-2.81058520508,9.96289550781,1.91183703613,0.166246885916,0.26470321472,0.945955262888,-0.0863875915385
2021/03/16/14:52:04.064135,951663,1615902724,68171024,mocap,-2.81004760742,9.95642773437,1.91193713379,0.166290984147,0.264922984919,0.94600141659,-0.0851142617308
2021/03/16/14:52:04.074677,951664,1615902724,78171015,mocap,-2.80954882813,9.95005371094,1.91196032715,0.165943152663,0.265348807977,0.946065271959,-0.0837459481412
2021/03/16/14:52:04.084673,951665,1615902724,88171005,mocap,-2.80907055664,9.94367480469,1.91188134766,0.166126895315,0.265852823774,0.946000581748,-0.0825046997427
2021/03/16/14:52:04.093775,951666,1615902724,98170996,mocap,-2.80863769531,9.93729589844,1.91184216309,0.165832394937,0.26640572733,0.946027256955,-0.0809941349757
2021/03/16/14:52:04.105853,951667,1615902724,108170033,mocap,-2.80824438477,9.93091210938,1.91176989746,0.165907875882,0.266826837605,0.94601014301,-0.0796418999546
2021/03/16/14:52:04.114240,951668,1615902724,118170977,mocap,-2.80785766602,9.92450976563,1.91169909668,0.165923367438,0.267261529711,0.945991508699,-0.0783631082625
2021/03/16/14:52:04.124619,951669,1615902724,128170013,mocap,-2.80750463867,9.91808300781,1.91168530273,0.165982819624,0.267534451904,0.946007866903,-0.0770983124243
2021/03/16/14:52:04.133883,951670,1615902724,138171196,mocap,-2.80718066406,9.91160449219,1.91176049805,0.166220009629,0.26782456911,0.945973385967,-0.0759951814449
2021/03/16/14:52:04.145421,951671,1615902724,148171186,mocap,-2.8068684082,9.90507226562,1.9118392334,0.166334859955,0.267982950421,0.945993178398,-0.0749316240236
2021/03/16/14:52:04.155267,951672,1615902724,158171177,mocap,-2.80659155273,9.89845703125,1.91202416992,0.166493111582,0.267506471269,0.946161212296,-0.0741571303869
2021/03/16/14:52:04.163835,951673,1615902724,168171167,mocap,-2.80630786133,9.89180957031,1.91235461426,0.166488592162,0.266889643112,0.946406401454,-0.0732555796875
2021/03/16/14:52:04.174365,951674,1615902724,178170204,mocap,-2.80606103516,9.88506640625,1.91273376465,0.166470312567,0.265932255767,0.946737326946,-0.0724990289123
2021/03/16/14:52:04.185343,951675,1615902724,188171148,mocap,-2.80583544922,9.87825976562,1.9132310791,0.166658485575,0.264855446272,0.947058271543,-0.0718133934521
2021/03/16/14:52:04.195126,951676,1615902724,198170185,mocap,-2.80561401367,9.87138574219,1.91378735352,0.167112379679,0.263313573362,0.947449302563,-0.0712687809034
2021/03/16/14:52:04.204082,951677,1615902724,208171129,mocap,-2.80542407227,9.86446191406,1.91435510254,0.167502333588,0.261645462042,0.94788052766,-0.0707610889556
2021/03/16/14:52:04.215191,951678,1615902724,218171120,mocap,-2.8052565918,9.85748925781,1.91484460449,0.167937180076,0.260044177442,0.948278785887,-0.0702955259538
2021/03/16/14:52:04.224082,951679,1615902724,228171110,mocap,-2.80522827148,9.85054785156,1.9154666748,0.167280676279,0.258361775981,0.94893859528,-0.0691513492079
2021/03/16/14:52:04.233775,951680,1615902724,238171101,mocap,-2.80509423828,9.84357421875,1.91595117187,0.167131280746,0.256687388808,0.949437065293,-0.0689056013292
2021/03/16/14:52:04.243948,951681,1615902724,248171091,mocap,-2.80503320312,9.83661132813,1.91639794922,0.167078833687,0.25530899449,0.94984283653,-0.0685607287327
2021/03/16/14:52:04.254963,951682,1615902724,258171082,mocap,-2.80498413086,9.82958789062,1.91669677734,0.167036986566,0.253933985079,0.950244718014,-0.0681992872028
2021/03/16/14:52:04.265087,951683,1615902724,268170118,mocap,-2.80497973633,9.82258105469,1.91698217773,0.166773346512,0.252621195619,0.950686399419,-0.06756151007
2021/03/16/14:52:04.274127,951684,1615902724,278171062,mocap,-2.80505322266,9.81561328125,1.91718127441,0.166434227445,0.251749544624,0.951026944628,-0.0668548282426
2021/03/16/14:52:04.283892,951685,1615902724,288170099,mocap,-2.80510473633,9.80861230469,1.91731518555,0.166294543909,0.250895025585,0.951311575091,-0.0663634505467
2021/03/16/14:52:04.294726,951686,1615902724,298171043,mocap,-2.80511791992,9.80153320313,1.91724572754,0.166638476239,0.250017456764,0.951488395211,-0.0662776222677
2021/03/16/14:52:04.306162,951687,1615902724,308171034,mocap,-2.80520556641,9.79448925781,1.91722131348,0.166365650407,0.249678084689,0.951664517012,-0.0657113030903
2021/03/16/14:52:04.314569,951688,1615902724,318171024,mocap,-2.80534985352,9.78742480469,1.91708837891,0.166058473473,0.24933980063,0.951839713885,-0.0652334048795
2021/03/16/14:52:04.326312,951689,1615902724,328171015,mocap,-2.80565625,9.78036425781,1.91698608398,0.164719528133,0.249591169654,0.95209836388,-0.0638782603802
2021/03/16/14:52:04.333726,951690,1615902724,338171005,mocap,-2.80586352539,9.77320507813,1.91669506836,0.164616146714,0.24958128807,0.952156747635,-0.0633106662875
2021/03/16/14:52:04.345140,951691,1615902724,348170996,mocap,-2.80600732422,9.76600683594,1.91620336914,0.165244420058,0.24949209388,0.952063774844,-0.0634236091967
2021/03/16/14:52:04.354899,951692,1615902724,358170033,mocap,-2.80631298828,9.75879980469,1.91586291504,0.163633539409,0.249776135781,0.952340678835,-0.0623152297995
2021/03/16/14:52:04.365638,951693,1615902724,368170977,mocap,-2.8066015625,9.75149414063,1.91534118652,0.163382457174,0.250151081467,0.952327754424,-0.0616640474362
2021/03/16/14:52:04.373856,951694,1615902724,378170013,mocap,-2.80690112305,9.7440859375,1.91457006836,0.164145348818,0.250342663445,0.952129070378,-0.061928121922
2021/03/16/14:52:04.383959,951695,1615902724,388171196,mocap,-2.807296875,9.73670800781,1.91404345703,0.162812492249,0.251129484661,0.952217216942,-0.0608970081358
2021/03/16/14:52:04.396101,951696,1615902724,398171186,mocap,-2.8076550293,9.72919335937,1.91323950195,0.1623033712,0.251610482884,0.952209822803,-0.0603840157638
2021/03/16/14:52:04.403782,951697,1615902724,408171177,mocap,-2.80804980469,9.72164453125,1.91232312012,0.162810589484,0.251863008329,0.95202932542,-0.060810308576
2021/03/16/14:52:04.414813,951698,1615902724,418171167,mocap,-2.80856445312,9.71402734375,1.91144763184,0.161853922088,0.252851221003,0.95198615623,-0.059932577811
2021/03/16/14:52:04.424680,951699,1615902724,428170204,mocap,-2.80895288086,9.70631835938,1.91038818359,0.16211642797,0.253423620364,0.951782962397,-0.0600327001587
2021/03/16/14:52:04.434795,951700,1615902724,438171148,mocap,-2.80949804687,9.69855957031,1.9093190918,0.161997642513,0.254130454398,0.951621088564,-0.0599314502629
2021/03/16/14:52:04.445645,951701,1615902724,448170185,mocap,-2.81012817383,9.69072460937,1.90828015137,0.160776038452,0.255172952842,0.951613102587,-0.0589095407933
2021/03/16/14:52:04.453947,951702,1615902724,458171129,mocap,-2.81062060547,9.68276367187,1.90698925781,0.161142722906,0.255456221892,0.951445397248,-0.0593869872166
2021/03/16/14:52:04.465427,951703,1615902724,468171120,mocap,-2.81137646484,9.67475683594,1.90580224609,0.160121850551,0.256346288876,0.951420189562,-0.0587127880981
2021/03/16/14:52:04.474760,951704,1615902724,478171110,mocap,-2.81197973633,9.66666308594,1.90436486816,0.160784175984,0.256890849674,0.951145618241,-0.0589707618
2021/03/16/14:52:04.483734,951705,1615902724,488171101,mocap,-2.81278076172,9.65856640625,1.90311315918,0.159070188154,0.257755272217,0.951243356764,-0.0582664036223
2021/03/16/14:52:04.494498,951706,1615902724,498171091,mocap,-2.81352416992,9.65033203125,1.90176672363,0.159339146712,0.258552249088,0.951001240114,-0.0579518447523
2021/03/16/14:52:04.503707,951707,1615902724,508171082,mocap,-2.81427368164,9.64204003906,1.90024902344,0.159964447406,0.259092281109,0.950708546676,-0.0586158329298
2021/03/16/14:52:04.515421,951708,1615902724,518170118,mocap,-2.81515527344,9.6336953125,1.89891809082,0.158934018695,0.260250828863,0.950620401297,-0.0577090935879
2021/03/16/14:52:04.525590,951709,1615902724,528171062,mocap,-2.81600146484,9.62529394531,1.89764868164,0.158927999417,0.261071937223,0.950405783636,-0.0575515754165
2021/03/16/14:52:04.533879,951710,1615902724,538170099,mocap,-2.81692553711,9.61685449219,1.89636352539,0.158897189158,0.262078193271,0.950140305561,-0.0574465939664
2021/03/16/14:52:04.545413,951711,1615902724,548171043,mocap,-2.81783813477,9.60832519531,1.89519726563,0.159110732864,0.262948344419,0.949864109258,-0.0574465655954
2021/03/16/14:52:04.554175,951712,1615902724,558171034,mocap,-2.81878979492,9.59972949219,1.89415539551,0.158921611047,0.26409439719,0.949586514473,-0.0573018891285
2021/03/16/14:52:04.565202,951713,1615902724,568171024,mocap,-2.81980102539,9.59106835938,1.89329736328,0.159416764612,0.26502283693,0.949241739944,-0.0573523866209
2021/03/16/14:52:04.574044,951714,1615902724,578171015,mocap,-2.82082739258,9.5823359375,1.8925045166,0.159221073027,0.265852096876,0.949024714351,-0.057648918577
2021/03/16/14:52:04.585269,951715,1615902724,588171005,mocap,-2.82190551758,9.57348632812,1.89187646484,0.159752003936,0.266666192671,0.948696667928,-0.057819321748
2021/03/16/14:52:04.593717,951716,1615902724,598170996,mocap,-2.82298803711,9.56464160156,1.89144714355,0.160096173894,0.267511081809,0.948373748107,-0.0582604310123
2021/03/16/14:52:04.605228,951717,1615902724,608170033,mocap,-2.82415820313,9.55571679688,1.89111364746,0.161070602517,0.268029062605,0.948026331996,-0.0588451617528
2021/03/16/14:52:04.614049,951718,1615902724,618170977,mocap,-2.82526513672,9.54668164062,1.89093164063,0.160881869887,0.268647725584,0.947855523866,-0.0592901865479
2021/03/16/14:52:04.624082,951719,1615902724,628170013,mocap,-2.82655444336,9.537625,1.89106567383,0.16148183373,0.26940746758,0.947508845615,-0.0597513499385
2021/03/16/14:52:04.635009,951720,1615902724,638171196,mocap,-2.82780737305,9.52855078125,1.89160107422,0.161314046731,0.270376883141,0.947223914103,-0.0603404698447
2021/03/16/14:52:04.643933,951721,1615902724,648171186,mocap,-2.82917114258,9.51940527344,1.8924375,0.161826315702,0.271078637742,0.946905362552,-0.0608180362382
2021/03/16/14:52:04.653765,951722,1615902724,658171177,mocap,-2.83049023438,9.51017089844,1.89350366211,0.161764999444,0.271439198594,0.946766302901,-0.0615338600293
2021/03/16/14:52:04.664078,951723,1615902724,668171167,mocap,-2.83183740234,9.50085449219,1.89467285156,0.162606799025,0.271784330902,0.946465687365,-0.0624099746988
2021/03/16/14:52:04.673905,951724,1615902724,678170204,mocap,-2.83313525391,9.49149023438,1.89603039551,0.162573247916,0.271816640684,0.946412116869,-0.0631644739726
2021/03/16/14:52:04.686012,951725,1615902724,688171148,mocap,-2.83448779297,9.4821171875,1.89761999512,0.163210445764,0.271808029321,0.946260638839,-0.0638242992177
2021/03/16/14:52:04.694258,951726,1615902724,698170185,mocap,-2.83577929688,9.47278320312,1.89937011719,0.163538756005,0.271939828549,0.946122823154,-0.0644624023308
2021/03/16/14:52:04.705892,951727,1615902724,708171129,mocap,-2.83708129883,9.46341210937,1.90117895508,0.164399267109,0.271685963834,0.945990295802,-0.0652837762394
2021/03/16/14:52:04.714216,951728,1615902724,718171120,mocap,-2.83833300781,9.45399707031,1.90294726562,0.16444903288,0.27090334566,0.946172803542,-0.0657642003145
2021/03/16/14:52:04.726376,951729,1615902724,728171110,mocap,-2.83954516602,9.44461132812,1.90462536621,0.165260471616,0.269994129195,0.94623685994,-0.0665427857125
2021/03/16/14:52:04.733994,951730,1615902724,738171101,mocap,-2.84069433594,9.43520703125,1.90611999512,0.165479078779,0.268982354824,0.946454800322,-0.0669961279698
2021/03/16/14:52:04.745997,951731,1615902724,748171091,mocap,-2.8418347168,9.42589257812,1.9074934082,0.166218088225,0.267976515738,0.946562641858,-0.0676705244672
2021/03/16/14:52:04.754205,951732,1615902724,758171082,mocap,-2.8428918457,9.41669335937,1.90871203613,0.16663625117,0.267159452715,0.946685298638,-0.0681551755333
2021/03/16/14:52:04.766045,951733,1615902724,768170118,mocap,-2.84396875,9.4075859375,1.90973681641,0.166983488738,0.266712187719,0.946710254639,-0.068708275687
2021/03/16/14:52:04.773741,951734,1615902724,778171062,mocap,-2.84495703125,9.39856933594,1.91058190918,0.167526396303,0.266432664751,0.946668550754,-0.0690448346988
2021/03/16/14:52:04.785698,951735,1615902724,788170099,mocap,-2.8459284668,9.38965332031,1.91132507324,0.167550797066,0.26636238241,0.946665866972,-0.0692932933737
2021/03/16/14:52:04.794006,951736,1615902724,798171043,mocap,-2.84688378906,9.38081738281,1.91189440918,0.167644422168,0.266404714787,0.946615338052,-0.069593728592
2021/03/16/14:52:04.805776,951737,1615902724,808171034,mocap,-2.84773876953,9.37204003906,1.91239355469,0.167599732862,0.267095302515,0.946427468019,-0.0696093588085
2021/03/16/14:52:04.813951,951738,1615902724,818171024,mocap,-2.84862744141,9.36337890625,1.91294091797,0.167114348534,0.26777524573,0.946311375657,-0.0697424085237
2021/03/16/14:52:04.825899,951739,1615902724,828171015,mocap,-2.84943530273,9.35472949219,1.91334680176,0.167314601621,0.268711637738,0.945998037838,-0.0699113202794
2021/03/16/14:52:04.834121,951740,1615902724,838171005,mocap,-2.8502109375,9.3461328125,1.91374951172,0.167022328329,0.269960310091,0.945686487038,-0.0700144655492
2021/03/16/14:52:04.845450,951741,1615902724,848170996,mocap,-2.8509140625,9.33757519531,1.91415710449,0.166867396985,0.271058111573,0.945378230308,-0.0703048667303
2021/03/16/14:52:04.854109,951742,1615902724,858170033,mocap,-2.85159716797,9.32897460938,1.91460217285,0.167011967624,0.272087782419,0.945027718327,-0.070695573075
2021/03/16/14:52:04.864389,951743,1615902724,868170977,mocap,-2.85221557617,9.32035546875,1.91500524902,0.166573605714,0.27314845716,0.944778070629,-0.0709756185101
2021/03/16/14:52:04.875394,951744,1615902724,878170013,mocap,-2.85278881836,9.311765625,1.91559362793,0.166213352921,0.274124113783,0.944516926949,-0.0715322984692
2021/03/16/14:52:04.884073,951745,1615902724,888171196,mocap,-2.85328515625,9.30307519531,1.91617358398,0.165889049667,0.274774670203,0.944339440545,-0.0721298557952
2021/03/16/14:52:04.895153,951746,1615902724,898171186,mocap,-2.85377294922,9.29439453125,1.91685131836,0.165797283762,0.275137236829,0.944181261936,-0.0730240682345
2021/03/16/14:52:04.903810,951747,1615902724,908171177,mocap,-2.85413964844,9.28558300781,1.91755224609,0.165430807747,0.275049418156,0.944204500789,-0.0738804497476
2021/03/16/14:52:04.915391,951748,1615902724,918171167,mocap,-2.85445117188,9.27672558594,1.91830444336,0.165164815518,0.274546671473,0.944323542611,-0.0748181878089
2021/03/16/14:52:04.923877,951749,1615902724,928170204,mocap,-2.85473608398,9.26786523437,1.91902807617,0.164803305258,0.273667396733,0.944553638127,-0.0759239694306
2021/03/16/14:52:04.935357,951750,1615902724,938171148,mocap,-2.85494311523,9.25891796875,1.91972460938,0.164697885507,0.272529663164,0.944772077201,-0.0775107199486
2021/03/16/14:52:04.943898,951751,1615902724,948170185,mocap,-2.85506469727,9.24993164063,1.92043554688,0.164747007154,0.271245098042,0.945019550487,-0.0788832685191
2021/03/16/14:52:04.955195,951752,1615902724,958171129,mocap,-2.85515576172,9.24111621094,1.92102624512,0.164446424609,0.269699866542,0.945362814833,-0.0806752349809
2021/03/16/14:52:04.963905,951753,1615902724,968171120,mocap,-2.85522558594,9.23222265625,1.92152770996,0.164369587225,0.268378514434,0.945622385479,-0.0821821797466
2021/03/16/14:52:04.975183,951754,1615902724,978171110,mocap,-2.85523144531,9.22328222656,1.92190026855,0.164429110222,0.267183527658,0.945826532568,-0.0835954536783
2021/03/16/14:52:04.984437,951755,1615902724,988171101,mocap,-2.85517602539,9.2144453125,1.92217626953,0.164732410563,0.266160032368,0.945920654011,-0.0851832532704
2021/03/16/14:52:04.995286,951756,1615902724,998171091,mocap,-2.85506030273,9.20565332031,1.92234008789,0.165078120142,0.265417706676,0.945932476621,-0.0866856966925
2021/03/16/14:52:05.004226,951757,1615902725,8171082,mocap,-2.85486865234,9.19694628906,1.92238842773,0.165411549325,0.265031632116,0.945851243405,-0.088106038337
2021/03/16/14:52:05.014930,951758,1615902725,18170118,mocap,-2.85465527344,9.18824414063,1.92223999023,0.165613957405,0.26482269929,0.945732039364,-0.0896206807971
2021/03/16/14:52:05.024001,951759,1615902725,28171062,mocap,-2.85442138672,9.17959082031,1.92196057129,0.166348863804,0.264968324686,0.945421669701,-0.0910917749241
2021/03/16/14:52:05.036144,951760,1615902725,38170099,mocap,-2.85423242187,9.17100878906,1.92154150391,0.166863817943,0.265560901945,0.945027103376,-0.0925075044432
2021/03/16/14:52:05.043842,951761,1615902725,48171043,mocap,-2.8540402832,9.16246875,1.92105712891,0.167473727757,0.266204588577,0.944606754008,-0.0938389499552
2021/03/16/14:52:05.053895,951762,1615902725,58171034,mocap,-2.85377294922,9.15388378906,1.92039587402,0.168118098388,0.267017525328,0.9441229295,-0.0952357436164
2021/03/16/14:52:05.063607,951763,1615902725,68171024,mocap,-2.85349731445,9.14525878906,1.91962158203,0.168546398686,0.268202062808,0.943588829173,-0.0964358812079
2021/03/16/14:52:05.076208,951764,1615902725,78171015,mocap,-2.85321630859,9.136671875,1.9187989502,0.168904979824,0.269229443021,0.94313797021,-0.0973517866059
2021/03/16/14:52:05.084012,951765,1615902725,88171005,mocap,-2.85292114258,9.128015625,1.91780834961,0.169577774067,0.270351599902,0.942618811907,-0.0980977960495
2021/03/16/14:52:05.095707,951766,1615902725,98170996,mocap,-2.85268066406,9.11927734375,1.91668811035,0.170433337046,0.271345814606,0.942063470208,-0.0991985324023
2021/03/16/14:52:05.104155,951767,1615902725,108170033,mocap,-2.85238256836,9.110515625,1.91557177734,0.170552118312,0.272519739192,0.941614610716,-0.100034430547
2021/03/16/14:52:05.115818,951768,1615902725,118170977,mocap,-2.85212158203,9.10153320312,1.91400061035,0.171235601291,0.273789368226,0.941028107481,-0.1009150108
2021/03/16/14:52:05.125982,951769,1615902725,128170013,mocap,-2.85187573242,9.092625,1.91266992188,0.171447618776,0.274342671383,0.940785080415,-0.101317524745
2021/03/16/14:52:05.134112,951770,1615902725,138171196,mocap,-2.85147900391,9.08363867188,1.91115991211,0.172082194801,0.274821445281,0.940412558838,-0.10239683258
2021/03/16/14:52:05.145853,951771,1615902725,148171186,mocap,-2.85113989258,9.07465917969,1.90967651367,0.172403762511,0.275417476562,0.940148799855,-0.102676180882
2021/03/16/14:52:05.154029,951772,1615902725,158171177,mocap,-2.85083374023,9.06564355469,1.90812036133,0.172732883528,0.275877445058,0.939907035695,-0.103100612629
2021/03/16/14:52:05.165582,951773,1615902725,168171167,mocap,-2.85046362305,9.05658105469,1.90644567871,0.17305173803,0.27663364115,0.939562594882,-0.103677673774
2021/03/16/14:52:05.174041,951774,1615902725,178170204,mocap,-2.85019897461,9.04745605469,1.90477087402,0.172917920212,0.277168439327,0.939431489628,-0.103660597493
2021/03/16/14:52:05.185391,951775,1615902725,188171148,mocap,-2.84986450195,9.03838183594,1.90314941406,0.173009538498,0.277860189818,0.939221248443,-0.103560882029
2021/03/16/14:52:05.193910,951776,1615902725,198170185,mocap,-2.84951977539,9.02926269531,1.90159069824,0.172919050221,0.278678961808,0.939020719567,-0.103330218988
2021/03/16/14:52:05.205515,951777,1615902725,208171129,mocap,-2.84918334961,9.02006640625,1.90017297363,0.172696914088,0.27955920771,0.938864350954,-0.102743132264
2021/03/16/14:52:05.214067,951778,1615902725,218171120,mocap,-2.84878466797,9.01085546875,1.89896069336,0.172349839929,0.279812751884,0.938926453978,-0.102066003571
2021/03/16/14:52:05.224785,951779,1615902725,228171110,mocap,-2.84837207031,9.00156542969,1.89790356445,0.171776300912,0.280245690829,0.938988552895,-0.101270650766
2021/03/16/14:52:05.234309,951780,1615902725,238171101,mocap,-2.84791259766,8.99215234375,1.89701794434,0.171919771891,0.28054307796,0.938924565396,-0.100795935571
2021/03/16/14:52:05.243964,951781,1615902725,248171091,mocap,-2.84745825195,8.98266992188,1.89632910156,0.171494266816,0.280158070233,0.939237121684,-0.0996734411355
2021/03/16/14:52:05.254431,951782,1615902725,258171082,mocap,-2.84693896484,8.97321386719,1.89571948242,0.170889386575,0.279921247506,0.939513999569,-0.0987641741193
2021/03/16/14:52:05.265861,951783,1615902725,268170118,mocap,-2.84646020508,8.96363574219,1.89538366699,0.170452598174,0.279493170021,0.939825820752,-0.0977593942806
2021/03/16/14:52:05.273767,951784,1615902725,278171062,mocap,-2.84593798828,8.95411523437,1.89528112793,0.169108658108,0.279541566741,0.940221167211,-0.0961401786817
2021/03/16/14:52:05.284245,951785,1615902725,288170099,mocap,-2.84545947266,8.94473046875,1.89563989258,0.1684377748,0.279219712758,0.940573074327,-0.0948017139049
2021/03/16/14:52:05.295402,951786,1615902725,298171043,mocap,-2.84487109375,8.93525195313,1.89608312988,0.1671977643,0.279691399863,0.94079280193,-0.093415970312
2021/03/16/14:52:05.306540,951787,1615902725,308171034,mocap,-2.8442890625,8.92575195312,1.89682861328,0.166287633127,0.279720197663,0.941089782706,-0.0919514468943
2021/03/16/14:52:05.314076,951788,1615902725,318171024,mocap,-2.84364160156,8.91620898438,1.89770324707,0.165552150652,0.27955018515,0.941398984636,-0.0906208233659
2021/03/16/14:52:05.325590,951789,1615902725,328171015,mocap,-2.84290332031,8.90665136719,1.89860339355,0.165205836182,0.279063503418,0.941727334188,-0.0893320520348
2021/03/16/14:52:05.333802,951790,1615902725,338171005,mocap,-2.84214599609,8.8970703125,1.8996138916,0.164694907009,0.279133052982,0.941920080872,-0.088016392726
2021/03/16/14:52:05.345311,951791,1615902725,348170996,mocap,-2.84138330078,8.88766210938,1.90075109863,0.164540522767,0.279273415974,0.942053552535,-0.0864169124268
2021/03/16/14:52:05.353957,951792,1615902725,358170033,mocap,-2.84051611328,8.87834863281,1.90198181152,0.164261265384,0.279509764196,0.942126777932,-0.0853795304725
2021/03/16/14:52:05.364244,951793,1615902725,368170977,mocap,-2.83968041992,8.86896777344,1.90326794434,0.164527438753,0.279966851035,0.942053070094,-0.0841742130847
2021/03/16/14:52:05.374372,951794,1615902725,378170013,mocap,-2.83882421875,8.85966503906,1.9045715332,0.164305679449,0.279490549647,0.942338671663,-0.0829849827671
2021/03/16/14:52:05.384761,951795,1615902725,388171196,mocap,-2.83800048828,8.85032226562,1.90571325684,0.164795832779,0.279259129707,0.94241232554,-0.0819492281576
2021/03/16/14:52:05.393837,951796,1615902725,398171186,mocap,-2.83713037109,8.84101464844,1.90686645508,0.164909896752,0.27861805664,0.942642255262,-0.0812545030859
2021/03/16/14:52:05.405375,951797,1615902725,408171177,mocap,-2.83624951172,8.83173925781,1.90786462402,0.165446817874,0.277577749979,0.942922771505,-0.0804648121527
2021/03/16/14:52:05.414325,951798,1615902725,418171167,mocap,-2.83540209961,8.82253515625,1.90869299316,0.166491635012,0.276853447906,0.943021899529,-0.0796392069442
