time,.header.seq,.header.stamp.secs,.header.stamp.nsecs,.header.frame_id,.pose.position.x,.pose.position.y,.pose.position.z,.pose.orientation.x,.pose.orientation.y,.pose.orientation.z,.pose.orientation.w
2021/03/16/12:09:14.760445,211350,1615892954,758171082,mocap,-2.78530126953,10.4183330078,1.92849072266,0.172633358442,0.207166102822,0.962625029729,-0.0251590237117
2021/03/16/12:09:14.769086,211351,1615892954,768171072,mocap,-2.78531445312,10.4184414063,1.92849023437,0.172382038194,0.207358463877,0.962616035973,-0.0256373169922
2021/03/16/12:09:14.780000,211352,1615892954,778171062,mocap,-2.78530932617,10.4185117188,1.92843200684,0.172307096547,0.207418237413,0.962603257263,-0.0261325366338
2021/03/16/12:09:14.790954,211353,1615892954,788171053,mocap,-2.78530810547,10.4186181641,1.92840869141,0.172153871087,0.207725518304,0.962553681078,-0.0265248691849
2021/03/16/12:09:14.800664,211354,1615892954,798171043,mocap,-2.78527929688,10.4186904297,1.92839489746,0.171896272157,0.207841544865,0.962566669434,-0.0268138790364
2021/03/16/12:09:14.809371,211355,1615892954,808171034,mocap,-2.78528369141,10.4187617187,1.92834997559,0.171618524667,0.207944943006,0.962578659126,-0.0273551642836
2021/03/16/12:09:14.819235,211356,1615892954,818171024,mocap,-2.78528491211,10.4188134766,1.92834851074,0.171346973634,0.208108896542,0.962577227182,-0.0278566792868
2021/03/16/12:09:14.829768,211357,1615892954,828171015,mocap,-2.7852746582,10.4188916016,1.92834765625,0.171171869612,0.208209766262,0.962566282418,-0.0285488242979
2021/03/16/12:09:14.840482,211358,1615892954,838171005,mocap,-2.78527050781,10.4189433594,1.92830957031,0.17100828621,0.208281540459,0.962563751326,-0.0290858888289
2021/03/16/12:09:14.849392,211359,1615892954,848170996,mocap,-2.78526269531,10.4189902344,1.92829516602,0.170710782274,0.208405387973,0.962575075392,-0.0295676682902
2021/03/16/12:09:14.860297,211360,1615892954,858170986,mocap,-2.78526757813,10.4190292969,1.92830456543,0.170616259707,0.208401500318,0.962572010245,-0.0302329873526
2021/03/16/12:09:14.869869,211361,1615892954,868170977,mocap,-2.78527954102,10.4190644531,1.92830493164,0.170372988039,0.208637934322,0.962544516364,-0.0308435235684
2021/03/16/12:09:14.879845,211362,1615892954,878171206,mocap,-2.78526879883,10.4191240234,1.92832397461,0.170230832396,0.20866709623,0.962540715768,-0.0315417458687
2021/03/16/12:09:14.889310,211363,1615892954,888171196,mocap,-2.78525146484,10.4191425781,1.92830883789,0.169877815854,0.208569862951,0.962600285086,-0.0322620948106
2021/03/16/12:09:14.899417,211364,1615892954,898171186,mocap,-2.78526879883,10.4191630859,1.92828259277,0.169922780929,0.208752726844,0.962527131033,-0.0330164421873
2021/03/16/12:09:14.909339,211365,1615892954,908171177,mocap,-2.78528369141,10.4191767578,1.92831713867,0.169573014591,0.208781788134,0.962565694152,-0.0335027475969
2021/03/16/12:09:14.921297,211366,1615892954,918171167,mocap,-2.78528100586,10.4191992188,1.92833398438,0.169560433367,0.208934844884,0.962513027475,-0.0341198402051
2021/03/16/12:09:14.929317,211367,1615892954,928171158,mocap,-2.7852512207,10.4191660156,1.92833325195,0.169302267634,0.208930035999,0.962538176869,-0.0347166202602
2021/03/16/12:09:14.941563,211368,1615892954,938171148,mocap,-2.78525073242,10.4191279297,1.92835302734,0.168967328099,0.2087961967,0.962603822286,-0.0353279834472
2021/03/16/12:09:14.949317,211369,1615892954,948171139,mocap,-2.7852421875,10.4190976563,1.92840270996,0.168834159118,0.208724213527,0.962614820803,-0.0360823019493
2021/03/16/12:09:14.961316,211370,1615892954,958171129,mocap,-2.78523950195,10.4190488281,1.92840490723,0.168761473956,0.208654404787,0.962620865677,-0.0366600557917
2021/03/16/12:09:14.969242,211371,1615892954,968171120,mocap,-2.78522363281,10.41903125,1.92846533203,0.168744497538,0.208701880959,0.96258966567,-0.0372822185284
2021/03/16/12:09:14.981021,211372,1615892954,978171110,mocap,-2.78517773437,10.419,1.92847119141,0.16859511835,0.208749635744,0.962583535458,-0.0378445098827
2021/03/16/12:09:14.989371,211373,1615892954,988171101,mocap,-2.78515063477,10.4189638672,1.92846447754,0.168425376824,0.209014992358,0.962538409086,-0.0382810120951
2021/03/16/12:09:15.002144,211374,1615892954,998171091,mocap,-2.78509008789,10.4189619141,1.92850732422,0.168357145176,0.209178463178,0.962488659259,-0.0389337009634
2021/03/16/12:09:15.010134,211375,1615892955,8171082,mocap,-2.7850402832,10.4189560547,1.9285970459,0.168439275518,0.20950424623,0.962378746916,-0.0395390989075
2021/03/16/12:09:15.019669,211376,1615892955,18171072,mocap,-2.78494482422,10.4189785156,1.92864538574,0.168270082118,0.209906792212,0.962295789544,-0.0401388721688
2021/03/16/12:09:15.031077,211377,1615892955,28171062,mocap,-2.7848515625,10.4190009766,1.92871740723,0.16831683586,0.210344596595,0.96216442897,-0.0407946062367
2021/03/16/12:09:15.039719,211378,1615892955,38171053,mocap,-2.78472998047,10.4190322266,1.92877270508,0.168467957673,0.210688897846,0.96202817908,-0.0415995413743
2021/03/16/12:09:15.051347,211379,1615892955,48171043,mocap,-2.78458544922,10.4190595703,1.92879199219,0.16866332146,0.21133321402,0.961822962441,-0.0422793365883
2021/03/16/12:09:15.059426,211380,1615892955,58171034,mocap,-2.7844699707,10.4191435547,1.92890771484,0.168944492321,0.211730426228,0.961645307611,-0.043200548557
2021/03/16/12:09:15.070887,211381,1615892955,68171024,mocap,-2.78429931641,10.4191796875,1.92895654297,0.169176907695,0.212122943894,0.961480429255,-0.0440274341412
2021/03/16/12:09:15.079689,211382,1615892955,78171015,mocap,-2.78413183594,10.4192216797,1.92903491211,0.169450468577,0.212422375032,0.961322738217,-0.0449652509829
2021/03/16/12:09:15.091403,211383,1615892955,88171005,mocap,-2.78392578125,10.4192705078,1.9290480957,0.169703225178,0.212617650857,0.961183593996,-0.0460504764046
2021/03/16/12:09:15.099339,211384,1615892955,98170996,mocap,-2.78374853516,10.4193505859,1.92907702637,0.169891098889,0.213032115201,0.961014349121,-0.0469655894477
2021/03/16/12:09:15.110771,211385,1615892955,108170986,mocap,-2.78355834961,10.4194912109,1.92905566406,0.170235070221,0.2134049683,0.960825138191,-0.0478893535257
2021/03/16/12:09:15.120094,211386,1615892955,118170977,mocap,-2.78337548828,10.4196435547,1.92905639648,0.170416559714,0.213837563691,0.960655512179,-0.0487101572941
2021/03/16/12:09:15.130675,211387,1615892955,128171206,mocap,-2.78317797852,10.4197480469,1.92902270508,0.170505831438,0.214131043679,0.960531350499,-0.0495497508085
2021/03/16/12:09:15.139253,211388,1615892955,138171196,mocap,-2.78297827148,10.4198359375,1.92898913574,0.170744990837,0.214478890259,0.960374108749,-0.0502646535743
2021/03/16/12:09:15.149372,211389,1615892955,148171186,mocap,-2.78276757813,10.4198769531,1.92893786621,0.170974564986,0.214495228205,0.960292273897,-0.0509731309238
2021/03/16/12:09:15.159419,211390,1615892955,158171177,mocap,-2.78259790039,10.4199267578,1.92892443848,0.171175216401,0.214381937809,0.960234749474,-0.0518522653156
2021/03/16/12:09:15.169828,211391,1615892955,168171167,mocap,-2.782421875,10.4199140625,1.92886340332,0.171524640495,0.21424599365,0.960152871706,-0.0527676107343
2021/03/16/12:09:15.179668,211392,1615892955,178171158,mocap,-2.78223120117,10.4199306641,1.92880615234,0.171415234711,0.213959051725,0.960183343901,-0.0537241344876
2021/03/16/12:09:15.189679,211393,1615892955,188171148,mocap,-2.78209741211,10.41990625,1.92881677246,0.171119811854,0.213661939978,0.96025070986,-0.0546366198975
2021/03/16/12:09:15.199672,211394,1615892955,198171139,mocap,-2.78192944336,10.4199179687,1.92875305176,0.17092077462,0.21341255065,0.960277276292,-0.0557558894127
2021/03/16/12:09:15.210462,211395,1615892955,208171129,mocap,-2.78176025391,10.4199003906,1.92866894531,0.170724930947,0.213433029599,0.96023662718,-0.0569646165528
2021/03/16/12:09:15.219880,211396,1615892955,218171120,mocap,-2.78162133789,10.4200107422,1.92864697266,0.170615525908,0.213500311296,0.960169648216,-0.0581566324707
2021/03/16/12:09:15.229269,211397,1615892955,228171110,mocap,-2.78147192383,10.4201142578,1.92856018066,0.170495160521,0.213847744409,0.960044872693,-0.0592822506647
2021/03/16/12:09:15.240696,211398,1615892955,238171101,mocap,-2.78131323242,10.4202128906,1.92846789551,0.170330814311,0.214284710762,0.959898899127,-0.0605274735278
2021/03/16/12:09:15.249419,211399,1615892955,248171091,mocap,-2.78119921875,10.4203916016,1.92856286621,0.169154314999,0.215325040273,0.959827712663,-0.0612593008437
2021/03/16/12:09:15.260100,211400,1615892955,258171082,mocap,-2.78102856445,10.4204619141,1.92845373535,0.169100625281,0.215546236734,0.959691286294,-0.0627488886699
2021/03/16/12:09:15.269541,211401,1615892955,268171072,mocap,-2.78088769531,10.4205751953,1.92838720703,0.168877817072,0.215789648675,0.959574919631,-0.0642734192626
2021/03/16/12:09:15.281276,211402,1615892955,278171062,mocap,-2.78074926758,10.4207197266,1.92829040527,0.168891506507,0.216193464726,0.959388399186,-0.0656502404824
2021/03/16/12:09:15.289531,211403,1615892955,288171053,mocap,-2.78059326172,10.4208613281,1.92818237305,0.168686550773,0.216736300552,0.959198013096,-0.0671520629806
2021/03/16/12:09:15.299244,211404,1615892955,298171043,mocap,-2.78048217773,10.4210546875,1.9281204834,0.168637611909,0.217274779594,0.958997186393,-0.0683916699818
2021/03/16/12:09:15.311563,211405,1615892955,308171034,mocap,-2.78034057617,10.4212822266,1.92805102539,0.168324006838,0.217811196033,0.958842109647,-0.0696212901485
2021/03/16/12:09:15.319698,211406,1615892955,318171024,mocap,-2.78021289063,10.4214863281,1.92797705078,0.168181306747,0.218161193641,0.958682298185,-0.071056343925
2021/03/16/12:09:15.331440,211407,1615892955,328171015,mocap,-2.78004443359,10.4216708984,1.92789404297,0.168117662667,0.218573518329,0.958502599895,-0.072352069338
2021/03/16/12:09:15.339444,211408,1615892955,338171005,mocap,-2.77990332031,10.4218603516,1.92784436035,0.168102318648,0.218893879913,0.958358863649,-0.0733168930136
2021/03/16/12:09:15.351151,211409,1615892955,348170996,mocap,-2.77977856445,10.4220517578,1.92783068848,0.168090723007,0.219018781673,0.95826589392,-0.074180534611
2021/03/16/12:09:15.360043,211410,1615892955,358170986,mocap,-2.77960449219,10.4221552734,1.92777905273,0.168245599342,0.218898374766,0.958207190373,-0.0749393495769
2021/03/16/12:09:15.371163,211411,1615892955,368170977,mocap,-2.77941845703,10.4221679687,1.92770922852,0.168419250233,0.218594665094,0.958216482101,-0.0753160790535
2021/03/16/12:09:15.379380,211412,1615892955,378171206,mocap,-2.77923925781,10.4221669922,1.92772692871,0.168559967145,0.217906093379,0.958320286738,-0.0756750172636
2021/03/16/12:09:15.391307,211413,1615892955,388171196,mocap,-2.779015625,10.4221318359,1.92770373535,0.168865156611,0.216862992993,0.958499086427,-0.075726539374
2021/03/16/12:09:15.399608,211414,1615892955,398171186,mocap,-2.77878149414,10.4220410156,1.92768969727,0.169298603279,0.215858169723,0.958631734243,-0.0759502265054
2021/03/16/12:09:15.410045,211415,1615892955,408171177,mocap,-2.77854858398,10.4219912109,1.92763098145,0.16988323588,0.214770189737,0.958779182935,-0.0758678543652
2021/03/16/12:09:15.419715,211416,1615892955,418171167,mocap,-2.77833129883,10.4219951172,1.92760998535,0.1706370857,0.21398658043,0.958814275693,-0.0759467662235
2021/03/16/12:09:15.429419,211417,1615892955,428171158,mocap,-2.77815869141,10.4220361328,1.9275480957,0.171422701951,0.21333700702,0.958819497535,-0.0759390968325
2021/03/16/12:09:15.440096,211418,1615892955,438171148,mocap,-2.778,10.4221269531,1.92747692871,0.171714501686,0.213072161691,0.958855342536,-0.0755699919464
2021/03/16/12:09:15.450072,211419,1615892955,448171139,mocap,-2.7778828125,10.4222431641,1.92743554687,0.172160016951,0.213103444008,0.958779618105,-0.0754288340148
2021/03/16/12:09:15.461020,211420,1615892955,458171129,mocap,-2.77779345703,10.4223935547,1.92736132812,0.172456329784,0.213014103805,0.958763975156,-0.0752026669619
2021/03/16/12:09:15.469514,211421,1615892955,468171120,mocap,-2.77773095703,10.4225566406,1.92733337402,0.17282849081,0.213130461992,0.958681987317,-0.0750637716562
2021/03/16/12:09:15.479210,211422,1615892955,478171110,mocap,-2.77771118164,10.4227080078,1.92731188965,0.172750362883,0.213169132665,0.958704711474,-0.0748431778637
2021/03/16/12:09:15.489825,211423,1615892955,488171101,mocap,-2.77769238281,10.4228681641,1.92728820801,0.1729257052,0.213186743109,0.958680316402,-0.0747004839615
2021/03/16/12:09:15.500970,211424,1615892955,498171091,mocap,-2.77768481445,10.4230263672,1.92727758789,0.172972763781,0.213192380926,0.958686557061,-0.0744950241929
2021/03/16/12:09:15.509192,211425,1615892955,508171082,mocap,-2.77772753906,10.4231953125,1.92728344727,0.172868846254,0.213262799342,0.958704027581,-0.0743096741579
2021/03/16/12:09:15.519993,211426,1615892955,518171072,mocap,-2.77777392578,10.4233291016,1.92727160645,0.172978630936,0.213401792527,0.958670407427,-0.0740886042985
2021/03/16/12:09:15.529112,211427,1615892955,528171062,mocap,-2.77784228516,10.4235068359,1.92729382324,0.172751894708,0.213394758974,0.95873213673,-0.0738386363616
2021/03/16/12:09:15.540549,211428,1615892955,538171053,mocap,-2.77792675781,10.4236884766,1.92731518555,0.172540040359,0.213612678693,0.958747041939,-0.0735096288404
2021/03/16/12:09:15.549310,211429,1615892955,548171043,mocap,-2.7780012207,10.4238339844,1.92731762695,0.172662217633,0.213872758887,0.958692719963,-0.0731742876579
2021/03/16/12:09:15.560918,211430,1615892955,558171034,mocap,-2.77808422852,10.4239726562,1.92730151367,0.172368315649,0.213998667819,0.95875346867,-0.0727015310448
2021/03/16/12:09:15.569591,211431,1615892955,568171024,mocap,-2.7781550293,10.4241142578,1.92732092285,0.172434173395,0.21430540664,0.958707206124,-0.0722505899069
2021/03/16/12:09:15.580694,211432,1615892955,578171015,mocap,-2.7782277832,10.4242529297,1.92734362793,0.172225920488,0.21425181729,0.958797016993,-0.0717124868042
2021/03/16/12:09:15.589368,211433,1615892955,588171005,mocap,-2.77830981445,10.4243232422,1.9273527832,0.172239543512,0.214415401767,0.958800342872,-0.0711441003982
2021/03/16/12:09:15.599262,211434,1615892955,598170996,mocap,-2.77836767578,10.4243857422,1.92736083984,0.172272764798,0.214508903833,0.958826024798,-0.0704320408081
2021/03/16/12:09:15.609591,211435,1615892955,608170986,mocap,-2.77846533203,10.4244345703,1.92740771484,0.17213997389,0.21445421383,0.95892094482,-0.0696263508362
2021/03/16/12:09:15.619254,211436,1615892955,618170977,mocap,-2.7785378418,10.4244501953,1.92743481445,0.172268494596,0.214284272833,0.958982525919,-0.0689805616978
2021/03/16/12:09:15.630666,211437,1615892955,628171206,mocap,-2.77861132812,10.4244091797,1.92748059082,0.172347293319,0.214051058184,0.95908972012,-0.0680106857167
2021/03/16/12:09:15.639451,211438,1615892955,638171196,mocap,-2.77871704102,10.4243457031,1.92751013184,0.172442223888,0.213857091188,0.959187923047,-0.0669877808654
2021/03/16/12:09:15.649279,211439,1615892955,648171186,mocap,-2.77881689453,10.4242763672,1.92759277344,0.172580564754,0.21358039545,0.959296197171,-0.0659558252511
2021/03/16/12:09:15.660495,211440,1615892955,658171177,mocap,-2.77889916992,10.4241748047,1.92768322754,0.172662447844,0.213312033851,0.959418926724,-0.0648149061112
2021/03/16/12:09:15.669798,211441,1615892955,668171167,mocap,-2.77897827148,10.4240302734,1.92775634766,0.172773923592,0.212983024485,0.959552658667,-0.0636089216918
2021/03/16/12:09:15.679402,211442,1615892955,678171158,mocap,-2.77904760742,10.4238759766,1.92781201172,0.172807513623,0.212776967207,0.959673810456,-0.0623674488788
2021/03/16/12:09:15.689122,211443,1615892955,688171148,mocap,-2.77913671875,10.4236679687,1.92788183594,0.172901142138,0.212478493578,0.959812141133,-0.0609813963089
2021/03/16/12:09:15.701170,211444,1615892955,698171139,mocap,-2.77923071289,10.4234140625,1.92797436523,0.173088223253,0.212082375483,0.959948744362,-0.0596651484285
2021/03/16/12:09:15.709412,211445,1615892955,708171129,mocap,-2.77923632813,10.4229824219,1.92780456543,0.174439790494,0.210996273051,0.960002056184,-0.0587144288095
2021/03/16/12:09:15.721314,211446,1615892955,718171120,mocap,-2.77936572266,10.4227021484,1.92802319336,0.174005796572,0.211416620141,0.960110548901,-0.0566809902967
2021/03/16/12:09:15.729235,211447,1615892955,728171110,mocap,-2.77939672852,10.4222910156,1.92806323242,0.174293886409,0.210901304671,0.960271519259,-0.0549626644329
2021/03/16/12:09:15.741278,211448,1615892955,738171101,mocap,-2.77944165039,10.4217998047,1.92811071777,0.174383922231,0.210269298367,0.960487182674,-0.0533051610515
2021/03/16/12:09:15.749145,211449,1615892955,748171091,mocap,-2.77949536133,10.4212636719,1.9281739502,0.174604846804,0.209542572637,0.960686953377,-0.0518231276396
2021/03/16/12:09:15.761215,211450,1615892955,758171082,mocap,-2.77947900391,10.4205214844,1.92800854492,0.175784401311,0.208350935396,0.960799137482,-0.050544555772
2021/03/16/12:09:15.770007,211451,1615892955,768171072,mocap,-2.77950268555,10.4198798828,1.92809472656,0.176203243128,0.207904876135,0.960911812478,-0.0487490331104
2021/03/16/12:09:15.781068,211452,1615892955,778171062,mocap,-2.77954321289,10.4191679687,1.92810852051,0.176799466806,0.207513729053,0.960981817697,-0.046839694761
2021/03/16/12:09:15.789474,211453,1615892955,788171053,mocap,-2.77950708008,10.4183974609,1.92810754395,0.176426375714,0.207228837212,0.961205073064,-0.0448858528093
2021/03/16/12:09:15.801044,211454,1615892955,798171043,mocap,-2.77948242188,10.4176621094,1.92815393066,0.176579413567,0.206931114543,0.961322645213,-0.043104483142
2021/03/16/12:09:15.809753,211455,1615892955,808171034,mocap,-2.77947412109,10.4168066406,1.92800073242,0.17715651304,0.20689787472,0.961299339648,-0.0413813083988
2021/03/16/12:09:15.819464,211456,1615892955,818171024,mocap,-2.77945239258,10.4160527344,1.92785705566,0.177702457531,0.207228317506,0.961201119898,-0.0396316050411
2021/03/16/12:09:15.830853,211457,1615892955,828171015,mocap,-2.77944775391,10.415265625,1.92767834473,0.178211397082,0.207913428393,0.961024047862,-0.0380195959183
2021/03/16/12:09:15.839678,211458,1615892955,838171005,mocap,-2.77941357422,10.4145009766,1.92737744141,0.178266887385,0.209020093611,0.960844686725,-0.0361801324059
2021/03/16/12:09:15.849866,211459,1615892955,848170996,mocap,-2.7793894043,10.4137734375,1.92702416992,0.178421005314,0.210596717267,0.960543257003,-0.0342292143528
2021/03/16/12:09:15.859179,211460,1615892955,858170986,mocap,-2.77934472656,10.4129853516,1.92663110352,0.178407330628,0.212383080248,0.960217097304,-0.0323633301002
2021/03/16/12:09:15.871001,211461,1615892955,868170977,mocap,-2.77931738281,10.41215625,1.92631323242,0.178350786592,0.214054341205,0.959908810944,-0.030770292823
2021/03/16/12:09:15.879333,211462,1615892955,878171206,mocap,-2.77925561523,10.4111796875,1.92592822266,0.178238994199,0.215944926741,0.959558684009,-0.0290823508077
2021/03/16/12:09:15.890881,211463,1615892955,888171196,mocap,-2.779234375,10.4101201172,1.9256484375,0.17776745595,0.217303719034,0.959391552164,-0.0273071003054
2021/03/16/12:09:15.899473,211464,1615892955,898171186,mocap,-2.77917773438,10.4088505859,1.92527636719,0.177865641016,0.218818896912,0.959078013089,-0.0255239551195
2021/03/16/12:09:15.910634,211465,1615892955,908171177,mocap,-2.77911010742,10.4074833984,1.9249901123,0.177740473121,0.21972011535,0.958932148741,-0.0240938922059
2021/03/16/12:09:15.919341,211466,1615892955,918171167,mocap,-2.77904614258,10.4059179687,1.92478759766,0.176841526324,0.220401150492,0.958987280692,-0.0222215309353
2021/03/16/12:09:15.930781,211467,1615892955,928171158,mocap,-2.77898925781,10.4041787109,1.92460742188,0.176391271832,0.220749400022,0.959027772998,-0.0205317449246
2021/03/16/12:09:15.939190,211468,1615892955,938171148,mocap,-2.77891845703,10.4022255859,1.92441101074,0.176039493792,0.220515469247,0.959180194262,-0.0188780692442
2021/03/16/12:09:15.950539,211469,1615892955,948171139,mocap,-2.77880883789,10.4001025391,1.92428112793,0.175018250638,0.22014690909,0.959486820029,-0.0169999153789
2021/03/16/12:09:15.959311,211470,1615892955,958171129,mocap,-2.77876660156,10.3978320312,1.92428234863,0.174468139563,0.218782866242,0.959918280243,-0.0158689095717
2021/03/16/12:09:15.970465,211471,1615892955,968171120,mocap,-2.77865795898,10.3953476562,1.92415979004,0.173494294427,0.217165782066,0.960489408954,-0.0141013905865
2021/03/16/12:09:15.979073,211472,1615892955,978171110,mocap,-2.77856835937,10.3927392578,1.92419274902,0.172658895995,0.215282058065,0.961080338942,-0.0129277437142
2021/03/16/12:09:15.989568,211473,1615892955,988171101,mocap,-2.77841723633,10.3899951172,1.92414855957,0.172040086166,0.213223942754,0.961665366308,-0.0117248263528
2021/03/16/12:09:16.000335,211474,1615892955,998171091,mocap,-2.77826855469,10.3871083984,1.92405847168,0.171222765186,0.210840381641,0.962353221737,-0.0102648959219
2021/03/16/12:09:16.009454,211475,1615892956,8171082,mocap,-2.77803637695,10.3841992188,1.92393127441,0.170700909328,0.208966803127,0.96286823177,-0.00888011471818
2021/03/16/12:09:16.021378,211476,1615892956,18171072,mocap,-2.77784936523,10.3812753906,1.92395739746,0.169917744266,0.206985227011,0.963447402089,-0.00736025988225
2021/03/16/12:09:16.029599,211477,1615892956,28171062,mocap,-2.77762524414,10.3783457031,1.92378442383,0.168904438201,0.205121321586,0.964035243695,-0.00570908462538
2021/03/16/12:09:16.041296,211478,1615892956,38171053,mocap,-2.77734814453,10.3754013672,1.92361975098,0.168140812296,0.20346941268,0.964525463718,-0.00441567819633
2021/03/16/12:09:16.049035,211479,1615892956,48171043,mocap,-2.77701831055,10.3725322266,1.92342211914,0.167246811952,0.202539621017,0.964882745611,-0.00273600420022
2021/03/16/12:09:16.061304,211480,1615892956,58171034,mocap,-2.77669433594,10.3697431641,1.92322668457,0.166320682976,0.201726045319,0.965216468142,-0.00109778016687
2021/03/16/12:09:16.069350,211481,1615892956,68171024,mocap,-2.77627368164,10.3669658203,1.92293395996,0.165843436653,0.201397703176,0.965367680742,0.000404921817983
2021/03/16/12:09:16.081508,211482,1615892956,78171015,mocap,-2.77582739258,10.3642763672,1.92273974609,0.165877100736,0.200787250961,0.965487794171,0.00160667570404
2021/03/16/12:09:16.089634,211483,1615892956,88171005,mocap,-2.77525952148,10.3615615234,1.92232983398,0.165315790761,0.201380334717,0.965456231501,0.00330402215939
2021/03/16/12:09:16.101352,211484,1615892956,98170996,mocap,-2.77472045898,10.3589189453,1.92197436523,0.164692795395,0.201495191578,0.965532983328,0.00469334950437
2021/03/16/12:09:16.109285,211485,1615892956,108170986,mocap,-2.77406884766,10.3562402344,1.92154516602,0.164246625461,0.202075646718,0.965479405856,0.00616459082024
2021/03/16/12:09:16.121174,211486,1615892956,118170977,mocap,-2.77340063477,10.3535546875,1.92106176758,0.163987508752,0.202376097888,0.965452758773,0.0072789145726
2021/03/16/12:09:16.129363,211487,1615892956,128171206,mocap,-2.77264282227,10.3507822266,1.92051855469,0.163530642736,0.202858960268,0.965418501567,0.00854812523082
2021/03/16/12:09:16.141234,211488,1615892956,138171196,mocap,-2.77186303711,10.3480722656,1.9198359375,0.163112931027,0.203127464741,0.965423093446,0.00957391657697
2021/03/16/12:09:16.149765,211489,1615892956,148171186,mocap,-2.77107397461,10.3452880859,1.91918847656,0.163099070054,0.203074179715,0.965428395302,0.0103723584571
2021/03/16/12:09:16.161097,211490,1615892956,158171177,mocap,-2.7703359375,10.3424873047,1.91844995117,0.163153374305,0.202869225403,0.965457867538,0.0107778933535
2021/03/16/12:09:16.169497,211491,1615892956,168171167,mocap,-2.76947680664,10.3397197266,1.91752563477,0.16284714557,0.202681364327,0.965539928195,0.0115635733354
2021/03/16/12:09:16.180882,211492,1615892956,178171158,mocap,-2.76867211914,10.3369511719,1.91655883789,0.163215070119,0.202258243349,0.965564474042,0.0117337178697
2021/03/16/12:09:16.189694,211493,1615892956,188171148,mocap,-2.76777539063,10.3342392578,1.91538134766,0.162967792173,0.202469972301,0.965553648019,0.0123921281752
2021/03/16/12:09:16.199836,211494,1615892956,198171139,mocap,-2.76695239258,10.3315097656,1.91420153809,0.163145079529,0.202433050777,0.965528098741,0.0126506800641
2021/03/16/12:09:16.209682,211495,1615892956,208171129,mocap,-2.7661887207,10.3287695312,1.91320166016,0.163139897554,0.202567723284,0.965495240959,0.0130625835706
2021/03/16/12:09:16.221014,211496,1615892956,218171120,mocap,-2.76537182617,10.3260644531,1.91208056641,0.162560677859,0.202336265142,0.965631001648,0.0138138885446
2021/03/16/12:09:16.229363,211497,1615892956,228171110,mocap,-2.76461889648,10.3232304687,1.91127294922,0.162612486565,0.202127025595,0.965657042,0.0144335072187
2021/03/16/12:09:16.240859,211498,1615892956,238171101,mocap,-2.76387841797,10.3202626953,1.91048059082,0.162231914504,0.201391536852,0.965865786941,0.0150176441911
2021/03/16/12:09:16.249344,211499,1615892956,248171091,mocap,-2.76317993164,10.3172148437,1.9099453125,0.162135170449,0.200589178535,0.966040984306,0.0155241396741
2021/03/16/12:09:16.260826,211500,1615892956,258171082,mocap,-2.76251416016,10.314078125,1.90947644043,0.162464402646,0.199139727263,0.966281877007,0.0157491519094
2021/03/16/12:09:16.269381,211501,1615892956,268171072,mocap,-2.76187719727,10.3108398437,1.90915270996,0.162726800429,0.19788108812,0.966489060847,0.0161852677088
2021/03/16/12:09:16.279955,211502,1615892956,278171062,mocap,-2.7611809082,10.3076474609,1.90885302734,0.163120675348,0.196575529189,0.966684485174,0.0164559228128
2021/03/16/12:09:16.290691,211503,1615892956,288171053,mocap,-2.76047143555,10.3044091797,1.90857666016,0.163454722303,0.195201420591,0.966902671189,0.0166792438726
2021/03/16/12:09:16.299339,211504,1615892956,298171043,mocap,-2.75980664062,10.3011582031,1.90838269043,0.164157269895,0.193899990075,0.967043758428,0.0167792416645
2021/03/16/12:09:16.310520,211505,1615892956,308171034,mocap,-2.75914208984,10.2978583984,1.90831774902,0.164679587577,0.192474962683,0.967236089641,0.0169811004676
2021/03/16/12:09:16.319966,211506,1615892956,318171024,mocap,-2.75854711914,10.2945097656,1.90833837891,0.165378029611,0.190994038619,0.967405894185,0.0172403692151
2021/03/16/12:09:16.330863,211507,1615892956,328171015,mocap,-2.75798242187,10.2910771484,1.90836755371,0.165902369473,0.18916063593,0.967676075061,0.0172532253754
2021/03/16/12:09:16.339240,211508,1615892956,338171005,mocap,-2.75747070313,10.2876650391,1.90850671387,0.16668892415,0.187595792252,0.967842476824,0.0174231403319
2021/03/16/12:09:16.350558,211509,1615892956,348170996,mocap,-2.75697558594,10.2842246094,1.90871606445,0.167107528997,0.18588994187,0.968092849326,0.0177830942524
2021/03/16/12:09:16.359266,211510,1615892956,358170986,mocap,-2.75660473633,10.2808134766,1.90892260742,0.167607250523,0.184051132263,0.968351366719,0.0181280122833
2021/03/16/12:09:16.370758,211511,1615892956,368170977,mocap,-2.75628222656,10.2774228516,1.90920507813,0.167395939446,0.182493988926,0.96866951885,0.0188124897977
2021/03/16/12:09:16.379454,211512,1615892956,378171206,mocap,-2.75602099609,10.2740527344,1.90940783691,0.167001331226,0.181431158706,0.968920608079,0.0196505820837
2021/03/16/12:09:16.389461,211513,1615892956,388171196,mocap,-2.75582324219,10.2707568359,1.90965930176,0.166968445468,0.180609216021,0.969062047354,0.0205086925265
2021/03/16/12:09:16.400182,211514,1615892956,398171186,mocap,-2.75569628906,10.2674863281,1.90983056641,0.166402997325,0.180065227533,0.969232108531,0.0218099743576
2021/03/16/12:09:16.409209,211515,1615892956,408171177,mocap,-2.75531933594,10.2640820313,1.90966430664,0.164692338491,0.180623879674,0.969359114103,0.02437933573
2021/03/16/12:09:16.420299,211516,1615892956,418171167,mocap,-2.7554621582,10.2608847656,1.91005175781,0.165914001993,0.180053326922,0.969266169457,0.0240091389219
2021/03/16/12:09:16.429256,211517,1615892956,428171158,mocap,-2.75516601562,10.2575009766,1.90984436035,0.164212831719,0.181217846457,0.969263394508,0.0268834836731
2021/03/16/12:09:16.440634,211518,1615892956,438171148,mocap,-2.7553996582,10.2542666016,1.91023681641,0.165229066828,0.181239456225,0.969089410144,0.0267831372482
2021/03/16/12:09:16.449558,211519,1615892956,448171139,mocap,-2.75515063477,10.2507451172,1.90995166016,0.163389077721,0.182439047702,0.969100696398,0.0293911380511
2021/03/16/12:09:16.461392,211520,1615892956,458171129,mocap,-2.75516064453,10.2473046875,1.90999853516,0.162990513901,0.183050831967,0.969012124992,0.0306916867933
2021/03/16/12:09:16.469617,211521,1615892956,468171120,mocap,-2.75543920898,10.2438681641,1.91025683594,0.164257174138,0.183591214167,0.968702953488,0.0304703937354
2021/03/16/12:09:16.481043,211522,1615892956,478171110,mocap,-2.75533007813,10.2402197266,1.9100279541,0.161985880466,0.184835870024,0.968754929868,0.0333190281582
2021/03/16/12:09:16.489417,211523,1615892956,488171101,mocap,-2.75541699219,10.2365478516,1.9099284668,0.161767340918,0.185927898946,0.968539538133,0.0345442891145
2021/03/16/12:09:16.501136,211524,1615892956,498171091,mocap,-2.75554223633,10.2327646484,1.90984509277,0.160997690139,0.187287074843,0.968356967998,0.0358897546233
2021/03/16/12:09:16.509484,211525,1615892956,508171082,mocap,-2.7556730957,10.2289541016,1.90976379395,0.160411376362,0.188277213193,0.968223136252,0.036930226998
2021/03/16/12:09:16.521092,211526,1615892956,518171072,mocap,-2.75571118164,10.2250224609,1.90943737793,0.160301918102,0.189677764805,0.967921602703,0.0381236125623
2021/03/16/12:09:16.529399,211527,1615892956,528171062,mocap,-2.7558972168,10.2209902344,1.90940820312,0.159439272738,0.190580188835,0.967843339014,0.0392120210679
2021/03/16/12:09:16.540068,211528,1615892956,538171053,mocap,-2.75601123047,10.2167822266,1.90915490723,0.159471089926,0.191895346851,0.967537220786,0.0402105201756
2021/03/16/12:09:16.549335,211529,1615892956,548171043,mocap,-2.75615991211,10.2124326172,1.90891601563,0.158857291702,0.193011353062,0.967377205272,0.0411378484619
2021/03/16/12:09:16.561527,211530,1615892956,558171034,mocap,-2.75640380859,10.2080546875,1.90879736328,0.15803565768,0.193687674292,0.967343085536,0.0419185337269
2021/03/16/12:09:16.569574,211531,1615892956,568171024,mocap,-2.75651416016,10.2034296875,1.90840942383,0.158416193307,0.194815496045,0.967030198427,0.0424714075681
2021/03/16/12:09:16.580881,211532,1615892956,578171015,mocap,-2.75673608398,10.1987705078,1.90827233887,0.157917744323,0.195429057884,0.966974430927,0.0427775854886
2021/03/16/12:09:16.589647,211533,1615892956,588171005,mocap,-2.75684912109,10.1938994141,1.90781201172,0.158549585957,0.19638863566,0.966657956094,0.0431964800269
2021/03/16/12:09:16.600855,211534,1615892956,598170996,mocap,-2.75702636719,10.1889707031,1.90755578613,0.158099785868,0.197018418062,0.966595761738,0.0433685660791
2021/03/16/12:09:16.609564,211535,1615892956,608170986,mocap,-2.75718676758,10.1839101563,1.90710351563,0.158668098721,0.197833771556,0.96631675898,0.0437967720807
2021/03/16/12:09:16.621074,211536,1615892956,618170977,mocap,-2.75742138672,10.17875,1.90679003906,0.158023223683,0.1982078081,0.966331292763,0.0441152152274
2021/03/16/12:09:16.629544,211537,1615892956,628171206,mocap,-2.75761230469,10.1734189453,1.90630053711,0.158788574854,0.19903626207,0.966039295269,0.044032284075
2021/03/16/12:09:16.640049,211538,1615892956,638171196,mocap,-2.75787060547,10.1680273437,1.90592736816,0.158649473174,0.199374663572,0.96599486252,0.0439774102277
2021/03/16/12:09:16.649631,211539,1615892956,648171186,mocap,-2.75813183594,10.1624980469,1.90548962402,0.158884198165,0.199973424969,0.965833364925,0.04395852935
2021/03/16/12:09:16.660959,211540,1615892956,658171177,mocap,-2.75839672852,10.1568847656,1.90494458008,0.159430779565,0.200620691008,0.965616133257,0.0438024475209
2021/03/16/12:09:16.669460,211541,1615892956,668171167,mocap,-2.75872363281,10.1511572266,1.90443432617,0.159747674434,0.20103342682,0.965488318921,0.0435723501178
2021/03/16/12:09:16.680557,211542,1615892956,678171158,mocap,-2.75907861328,10.1453642578,1.90394958496,0.160199520231,0.201790084361,0.96527169656,0.0432137160354
2021/03/16/12:09:16.689676,211543,1615892956,688171148,mocap,-2.75947412109,10.1395458984,1.9034777832,0.160465985905,0.202429814685,0.965117249741,0.0426793401915
2021/03/16/12:09:16.700671,211544,1615892956,698171139,mocap,-2.75991015625,10.1336015625,1.90297473145,0.160726510229,0.203389520586,0.964891254939,0.0422440696948
2021/03/16/12:09:16.709600,211545,1615892956,708171129,mocap,-2.76040136719,10.1276220703,1.90251757813,0.161402334007,0.204053174795,0.964666960423,0.0415842584159
2021/03/16/12:09:16.720597,211546,1615892956,718171120,mocap,-2.76091796875,10.1215380859,1.90199560547,0.161751878744,0.205242548503,0.964370209786,0.0412543799223
2021/03/16/12:09:16.729603,211547,1615892956,728171110,mocap,-2.76143188477,10.1154003906,1.90151342773,0.16200419041,0.206451325738,0.964090493413,0.0407677788541
2021/03/16/12:09:16.740319,211548,1615892956,738171101,mocap,-2.76201928711,10.1092158203,1.90104614258,0.16304943226,0.207708529906,0.963683337888,0.0398304854409
2021/03/16/12:09:16.749314,211549,1615892956,748171091,mocap,-2.76268066406,10.1029443359,1.90060766602,0.163134020358,0.208767587832,0.963455212641,0.0394643524515
2021/03/16/12:09:16.760420,211550,1615892956,758171082,mocap,-2.76355541992,10.0966582031,1.90044299316,0.164557362314,0.209415764357,0.963145417709,0.0376405026211
2021/03/16/12:09:16.769582,211551,1615892956,768171072,mocap,-2.76407104492,10.0901435547,1.89980053711,0.164534833336,0.211268806908,0.962741375976,0.0377205362682
2021/03/16/12:09:16.779477,211552,1615892956,778171062,mocap,-2.76505517578,10.0837470703,1.8997232666,0.165961412178,0.211770298541,0.962461457162,0.0357504562786
2021/03/16/12:09:16.789251,211553,1615892956,788171053,mocap,-2.76571459961,10.0770888672,1.89939660645,0.165206487939,0.213938804438,0.962097901722,0.0361197196511
2021/03/16/12:09:16.800373,211554,1615892956,798171043,mocap,-2.76679248047,10.0705742188,1.89973571777,0.166435785118,0.215618601962,0.961582029713,0.0341722216046
2021/03/16/12:09:16.809564,211555,1615892956,808171034,mocap,-2.76780639648,10.0638984375,1.90022106934,0.166578672845,0.217480224601,0.961159122311,0.0335715273983
2021/03/16/12:09:16.821615,211556,1615892956,818171024,mocap,-2.76886083984,10.0571005859,1.90094104004,0.166817647306,0.219292301055,0.960742201769,0.0325142968904
2021/03/16/12:09:16.829363,211557,1615892956,828171015,mocap,-2.76988525391,10.0501894531,1.90190112305,0.167848472355,0.220795981151,0.960265312178,0.0310894505309
2021/03/16/12:09:16.839339,211558,1615892956,838171005,mocap,-2.77095458984,10.0430566406,1.90280480957,0.168268311109,0.221780591495,0.960007403502,0.0297476406778
2021/03/16/12:09:16.849117,211559,1615892956,848170996,mocap,-2.77204174805,10.0359072266,1.9039206543,0.168959641179,0.22255383547,0.959752220212,0.028250628988
2021/03/16/12:09:16.861360,211560,1615892956,858170986,mocap,-2.77318139648,10.0286757812,1.9052277832,0.168911435944,0.223328290367,0.959634253796,0.0263721311389
2021/03/16/12:09:16.869510,211561,1615892956,868170977,mocap,-2.77430004883,10.0213867187,1.90657666016,0.169273670004,0.223906021405,0.959473875399,0.0249481345234
2021/03/16/12:09:16.881328,211562,1615892956,878171206,mocap,-2.77549658203,10.0140664063,1.90806066895,0.169832027396,0.224019878472,0.959398533722,0.0229483232393
2021/03/16/12:09:16.889165,211563,1615892956,888171196,mocap,-2.77659741211,10.0065888672,1.9094387207,0.168526687893,0.224076332612,0.959651916686,0.0213720057913
2021/03/16/12:09:16.901433,211564,1615892956,898171186,mocap,-2.77780786133,9.99923339844,1.9109074707,0.168329488195,0.22379257989,0.959794341462,0.0194136053259
2021/03/16/12:09:16.909207,211565,1615892956,908171177,mocap,-2.77898291016,9.99187304687,1.91230480957,0.168193821224,0.22303312136,0.960028800234,0.0176568757922
2021/03/16/12:09:16.921221,211566,1615892956,918171167,mocap,-2.78015405273,9.98458203125,1.91359570312,0.167975415224,0.22256757803,0.960210090661,0.0156368357844
2021/03/16/12:09:16.929226,211567,1615892956,928171158,mocap,-2.78129345703,9.9773671875,1.91473071289,0.167418002113,0.222035407413,0.960459567055,0.0137448732904
2021/03/16/12:09:16.941053,211568,1615892956,938171148,mocap,-2.7824519043,9.97020507812,1.91572949219,0.167266936196,0.221638597005,0.960602639943,0.0118603691185
2021/03/16/12:09:16.949455,211569,1615892956,948171139,mocap,-2.78356030273,9.96324707031,1.91652783203,0.166485485653,0.221777939836,0.960722054001,0.010501309433
2021/03/16/12:09:16.960997,211570,1615892956,958171129,mocap,-2.78455786133,9.95639746094,1.91724121094,0.16587505511,0.222410568544,0.960696430516,0.00902005114948
2021/03/16/12:09:16.969369,211571,1615892956,968171120,mocap,-2.7856484375,9.94956640625,1.9177902832,0.165295920421,0.223246644581,0.960614173272,0.0076549329978
2021/03/16/12:09:16.980940,211572,1615892956,978171110,mocap,-2.78662548828,9.942828125,1.9182454834,0.164542362379,0.224374361317,0.960487221459,0.00680039750456
2021/03/16/12:09:16.989264,211573,1615892956,988171101,mocap,-2.78752050781,9.93621972656,1.91857763672,0.163920169195,0.225643939924,0.960302941994,0.00576623361455
2021/03/16/12:09:17.001122,211574,1615892956,998171091,mocap,-2.78841137695,9.92951269531,1.91886425781,0.16286335762,0.226910698456,0.960189264411,0.0048616163907
2021/03/16/12:09:17.009148,211575,1615892957,8171082,mocap,-2.78922314453,9.92285742187,1.91912854004,0.162114977756,0.228307404599,0.959987139417,0.00437834965647
2021/03/16/12:09:17.020764,211576,1615892957,18171072,mocap,-2.7899753418,9.91623925781,1.9193404541,0.16144111848,0.229831942672,0.959740001133,0.00363072185878
2021/03/16/12:09:17.029350,211577,1615892957,28171062,mocap,-2.79072607422,9.909515625,1.9196751709,0.160465606646,0.230791347781,0.959675308841,0.00307398314327
2021/03/16/12:09:17.041033,211578,1615892957,38171053,mocap,-2.79133569336,9.90273339844,1.91997033691,0.159773348486,0.23184460708,0.959538938451,0.0023624486798
2021/03/16/12:09:17.049311,211579,1615892957,48171043,mocap,-2.79188989258,9.89586230469,1.92024768066,0.158857067382,0.232823818821,0.959455323973,0.00172747949214
2021/03/16/12:09:17.059831,211580,1615892957,58171034,mocap,-2.79237329102,9.88893652344,1.92061376953,0.158028282436,0.233235302189,0.959493397108,0.000885110994188
2021/03/16/12:09:17.069477,211581,1615892957,68171024,mocap,-2.79281469727,9.88193652344,1.9210925293,0.157501423539,0.233360082711,0.959550088568,-4.42740937339e-05
2021/03/16/12:09:17.080864,211582,1615892957,78171015,mocap,-2.79320898438,9.87490917969,1.92164404297,0.156928360004,0.233112141187,0.959703824294,-0.000881584475848
2021/03/16/12:09:17.089613,211583,1615892957,88171005,mocap,-2.79354150391,9.86783105469,1.92225354004,0.156541899185,0.232665119013,0.959873820298,-0.0019534128728
2021/03/16/12:09:17.100411,211584,1615892957,98170996,mocap,-2.79377416992,9.86066992187,1.92285375977,0.156127050473,0.23197364429,0.960106071297,-0.00298224655604
2021/03/16/12:09:17.109236,211585,1615892957,108170986,mocap,-2.7939387207,9.85347949219,1.92348669434,0.155735713,0.23124501941,0.960341594428,-0.00401827871369
2021/03/16/12:09:17.120605,211586,1615892957,118170977,mocap,-2.79402124023,9.84628222656,1.92413122559,0.155044235964,0.230311197604,0.960671721509,-0.00528102879282
2021/03/16/12:09:17.129270,211587,1615892957,128171206,mocap,-2.79403662109,9.83906445312,1.92475732422,0.154779702286,0.229254619215,0.960960000248,-0.00643789425514
2021/03/16/12:09:17.140521,211588,1615892957,138171196,mocap,-2.79401123047,9.83185058594,1.925359375,0.154591846722,0.228441993587,0.961175346402,-0.00758745154124
2021/03/16/12:09:17.149211,211589,1615892957,148171186,mocap,-2.79391870117,9.82468066406,1.92593774414,0.154450811847,0.227444590642,0.96142351064,-0.00887340492744
2021/03/16/12:09:17.159555,211590,1615892957,158171177,mocap,-2.79373974609,9.81748730469,1.92641101074,0.154241871881,0.226775937944,0.961604538124,-0.0099417431159
2021/03/16/12:09:17.170377,211591,1615892957,168171167,mocap,-2.7935090332,9.81037207031,1.92689892578,0.154234841068,0.226309427275,0.961701655294,-0.0112066335751
2021/03/16/12:09:17.179394,211592,1615892957,178171158,mocap,-2.79319482422,9.80320898438,1.9271776123,0.154686372502,0.226086077721,0.961666373493,-0.0124498542448
2021/03/16/12:09:17.190507,211593,1615892957,188171148,mocap,-2.79280957031,9.79612792969,1.92749694824,0.155183982591,0.22581224597,0.961636420909,-0.013496493337
2021/03/16/12:09:17.199392,211594,1615892957,198171139,mocap,-2.79235302734,9.78903710938,1.92765161133,0.155293881915,0.226099132394,0.961534826198,-0.0146205626362
2021/03/16/12:09:17.210101,211595,1615892957,208171129,mocap,-2.79186767578,9.78191992187,1.92776611328,0.155900286402,0.226305953111,0.961367867403,-0.0158915601656
2021/03/16/12:09:17.221407,211596,1615892957,218171120,mocap,-2.7913190918,9.77483691406,1.92770874023,0.156567304655,0.227097482725,0.961051693776,-0.0171186846434
2021/03/16/12:09:17.229598,211597,1615892957,228171110,mocap,-2.79077075195,9.76772167969,1.92763806152,0.157041489607,0.227671376023,0.960822532724,-0.0179935763717
2021/03/16/12:09:17.241405,211598,1615892957,238171101,mocap,-2.79018286133,9.76051953125,1.92744287109,0.157778512994,0.228305260297,0.960531358256,-0.0190303344695
2021/03/16/12:09:17.251284,211599,1615892957,248171091,mocap,-2.78954882813,9.7533046875,1.92711743164,0.158127826036,0.228974830572,0.960295509253,-0.0199663915081
2021/03/16/12:09:17.260320,211600,1615892957,258171082,mocap,-2.78889038086,9.74601367187,1.92667602539,0.158602837516,0.229680381726,0.960027480899,-0.0209594024566
2021/03/16/12:09:17.271237,211601,1615892957,268171072,mocap,-2.78820068359,9.73863476562,1.92610778809,0.159375837027,0.23074300206,0.959632499135,-0.0215051287731
2021/03/16/12:09:17.279396,211602,1615892957,278171062,mocap,-2.78747802734,9.73130859375,1.92550231934,0.16001928427,0.231618489517,0.959292150704,-0.0224784124864
2021/03/16/12:09:17.289541,211603,1615892957,288171053,mocap,-2.78673950195,9.72385839844,1.924765625,0.160246499525,0.232444635968,0.959040063302,-0.0230806907115
2021/03/16/12:09:17.301526,211604,1615892957,298171043,mocap,-2.7859675293,9.71634082031,1.92387463379,0.160914489008,0.233447558828,0.95866568217,-0.0238511642186
2021/03/16/12:09:17.309661,211605,1615892957,308171034,mocap,-2.78517626953,9.70875390625,1.92285327148,0.161675649141,0.234151650286,0.958349161259,-0.0245126206318
2021/03/16/12:09:17.319664,211606,1615892957,318171024,mocap,-2.78434692383,9.70112402344,1.92174719238,0.162207393017,0.235270121063,0.957973670157,-0.0249636075231
2021/03/16/12:09:17.330134,211607,1615892957,328171015,mocap,-2.78350732422,9.69341113281,1.92052246094,0.16290565171,0.236220575866,0.957607555088,-0.0254824204396
2021/03/16/12:09:17.340366,211608,1615892957,338171005,mocap,-2.78265039063,9.68559472656,1.91917431641,0.163092735909,0.237345822157,0.957294692546,-0.0255847895379
2021/03/16/12:09:17.349329,211609,1615892957,348170996,mocap,-2.78181103516,9.67774316406,1.91784094238,0.163502674866,0.238233830652,0.956998069344,-0.0258110241804
2021/03/16/12:09:17.359185,211610,1615892957,358170986,mocap,-2.78095019531,9.66980175781,1.91641772461,0.164235135523,0.239131434589,0.956641238404,-0.0260869201013
2021/03/16/12:09:17.369414,211611,1615892957,368170977,mocap,-2.78006176758,9.66179199219,1.9150546875,0.164150354237,0.239846088207,0.956482866394,-0.025865654826
2021/03/16/12:09:17.380897,211612,1615892957,378171206,mocap,-2.77917675781,9.65379101562,1.91366235352,0.164489634035,0.241428795889,0.95603087944,-0.0256955050082
2021/03/16/12:09:17.389186,211613,1615892957,388171196,mocap,-2.77825292969,9.64561816406,1.91216992187,0.164584108863,0.242143228209,0.955840900275,-0.0254342460918
2021/03/16/12:09:17.400826,211614,1615892957,398171186,mocap,-2.77726855469,9.63741992188,1.91063696289,0.164984508534,0.242988766424,0.955567614789,-0.0250420036803
2021/03/16/12:09:17.409287,211615,1615892957,408171177,mocap,-2.77628466797,9.62912890625,1.90917114258,0.165501564221,0.24394642875,0.955242064902,-0.0247382184995
2021/03/16/12:09:17.420055,211616,1615892957,418171167,mocap,-2.77526879883,9.62080859375,1.90778088379,0.165587496537,0.2447628408,0.955033900011,-0.0241283695294
2021/03/16/12:09:17.428963,211617,1615892957,428171158,mocap,-2.77422387695,9.61246191406,1.90649804687,0.165838286885,0.245611197766,0.954785503034,-0.0236101104752
2021/03/16/12:09:17.440881,211618,1615892957,438171148,mocap,-2.77316210937,9.604046875,1.90535742188,0.165713885779,0.246322131482,0.954642658773,-0.0228407298418
2021/03/16/12:09:17.449538,211619,1615892957,448171139,mocap,-2.7720612793,9.59556738281,1.90434619141,0.165862367177,0.247174723055,0.954413254739,-0.0221282351725
2021/03/16/12:09:17.460691,211620,1615892957,458171129,mocap,-2.77094897461,9.58707128906,1.90344812012,0.165965161527,0.248250944152,0.954132368514,-0.0214116514783
2021/03/16/12:09:17.469431,211621,1615892957,468171120,mocap,-2.76981469727,9.57848730469,1.90265197754,0.165915301079,0.249069899192,0.953947095754,-0.0205239186086
2021/03/16/12:09:17.480556,211622,1615892957,478171110,mocap,-2.76861132812,9.56991015625,1.90200463867,0.16602244198,0.250106356979,0.95367200195,-0.0198261789752
2021/03/16/12:09:17.489288,211623,1615892957,488171101,mocap,-2.767390625,9.56124316406,1.90144885254,0.166055621141,0.250984024636,0.953455203344,-0.0188606009275
2021/03/16/12:09:17.500445,211624,1615892957,498171091,mocap,-2.76614208984,9.55257421875,1.90105053711,0.165942830356,0.251795851967,0.953274527531,-0.018152076311
2021/03/16/12:09:17.509560,211625,1615892957,508171082,mocap,-2.76486401367,9.54385546875,1.90082019043,0.165706970327,0.252545111439,0.95313120668,-0.01740873933
2021/03/16/12:09:17.520632,211626,1615892957,518171072,mocap,-2.76364160156,9.53512011719,1.90098376465,0.16559236369,0.253681986783,0.952866433201,-0.0164373248914
2021/03/16/12:09:17.529081,211627,1615892957,528171062,mocap,-2.76241992187,9.52637597656,1.90155859375,0.165052796403,0.254921052779,0.952650530552,-0.0151589530855
2021/03/16/12:09:17.540393,211628,1615892957,538171053,mocap,-2.76119897461,9.51746777344,1.90242614746,0.164540235852,0.255938171482,0.952486128956,-0.0138682863777
2021/03/16/12:09:17.549408,211629,1615892957,548171043,mocap,-2.75997924805,9.50850390625,1.90348840332,0.164147334403,0.256278448789,0.95247885424,-0.0126898094378
2021/03/16/12:09:17.560147,211630,1615892957,558171034,mocap,-2.75868652344,9.49941308594,1.90464172363,0.16394775647,0.255894889158,0.952627638515,-0.0118117673774
2021/03/16/12:09:17.569255,211631,1615892957,568171024,mocap,-2.75736499023,9.49025585938,1.90578930664,0.163663842509,0.255636643457,0.952758796883,-0.0107114880188
2021/03/16/12:09:17.579311,211632,1615892957,578171015,mocap,-2.75605761719,9.48105078125,1.90695336914,0.163797718012,0.254655877057,0.953007034131,-0.00991413023842
2021/03/16/12:09:17.589657,211633,1615892957,588171005,mocap,-2.75473901367,9.47201953125,1.90831323242,0.163453968648,0.25424123502,0.953186588174,-0.00891762706014
2021/03/16/12:09:17.601484,211634,1615892957,598170996,mocap,-2.75342895508,9.46303613281,1.90968505859,0.163788244943,0.253850294886,0.953240379792,-0.00813704818633
2021/03/16/12:09:17.609147,211635,1615892957,608170986,mocap,-2.7521496582,9.45406152344,1.9109909668,0.163905183215,0.253183534867,0.953404510663,-0.00728254860038
2021/03/16/12:09:17.619555,211636,1615892957,618170977,mocap,-2.75086108398,9.44511816406,1.91218237305,0.164319828449,0.252221477323,0.95359446736,-0.00639600427332
2021/03/16/12:09:17.631401,211637,1615892957,628171206,mocap,-2.74960351563,9.43627636719,1.91328381348,0.164741944273,0.251332977252,0.95376120112,-0.0056045382254
2021/03/16/12:09:17.639484,211638,1615892957,638171196,mocap,-2.74831616211,9.42749511719,1.91421520996,0.165574311661,0.250288523032,0.953894273462,-0.00515034141343
2021/03/16/12:09:17.651367,211639,1615892957,648171186,mocap,-2.74711425781,9.41880273437,1.91504675293,0.166127202915,0.249393255141,0.954035035296,-0.0046818267966
2021/03/16/12:09:17.659437,211640,1615892957,658171177,mocap,-2.7459934082,9.41029882813,1.91571850586,0.166805775153,0.248838976655,0.954064242552,-0.00405035175653
2021/03/16/12:09:17.671236,211641,1615892957,668171167,mocap,-2.74488745117,9.40185351562,1.91626318359,0.16725477869,0.248920568942,0.953967980177,-0.00307995393729
2021/03/16/12:09:17.679336,211642,1615892957,678171158,mocap,-2.74387231445,9.39358203125,1.91680395508,0.167876609884,0.249193791657,0.953790104299,-0.00207782780405
2021/03/16/12:09:17.691125,211643,1615892957,688171148,mocap,-2.74295068359,9.38535839844,1.91724023437,0.168385687006,0.249462168046,0.953631532243,-0.00133791549091
2021/03/16/12:09:17.699087,211644,1615892957,698171139,mocap,-2.74210327148,9.37724023437,1.91764709473,0.169312714341,0.250012329265,0.953324062635,-0.000513235369773
2021/03/16/12:09:17.711248,211645,1615892957,708171129,mocap,-2.74126977539,9.36914453125,1.91795068359,0.169437409035,0.250758525727,0.9531058247,0.000635302536261
2021/03/16/12:09:17.719337,211646,1615892957,718171120,mocap,-2.74055737305,9.3609921875,1.91826293945,0.169838803495,0.251306850463,0.952888725262,0.00165163983853
2021/03/16/12:09:17.730978,211647,1615892957,728171110,mocap,-2.73988623047,9.3529296875,1.91864440918,0.170611220391,0.251631908352,0.952663129932,0.00247978362601
2021/03/16/12:09:17.739439,211648,1615892957,738171101,mocap,-2.73924682617,9.34481542969,1.9189510498,0.171057120394,0.251829708215,0.95252764071,0.00351381477246
2021/03/16/12:09:17.750912,211649,1615892957,748171091,mocap,-2.73868920898,9.33669921875,1.91923291016,0.171666113729,0.251870315139,0.952403624157,0.00440926365147
2021/03/16/12:09:17.759353,211650,1615892957,758171082,mocap,-2.73827587891,9.32858496094,1.9196439209,0.172311150841,0.251688218599,0.952331728777,0.00511776536339
2021/03/16/12:09:17.770740,211651,1615892957,768171072,mocap,-2.7378034668,9.32042578125,1.91993920898,0.172750445253,0.251547416619,0.952283487768,0.00611054241045
2021/03/16/12:09:17.779228,211652,1615892957,778171062,mocap,-2.73752587891,9.31226953125,1.9203359375,0.173025548155,0.250865695818,0.952410007641,0.00661425891502
2021/03/16/12:09:17.789723,211653,1615892957,788171053,mocap,-2.73736425781,9.30405371094,1.92082348633,0.173270681388,0.249898526744,0.952612731413,0.00754874470126
2021/03/16/12:09:17.799363,211654,1615892957,798171043,mocap,-2.73721826172,9.29580761719,1.92120788574,0.173415017986,0.248692575119,0.952896442525,0.00822221043345
2021/03/16/12:09:17.809307,211655,1615892957,808171034,mocap,-2.73713525391,9.28763671875,1.92162243652,0.173351090874,0.247493276527,0.953212687102,0.00905747609907
2021/03/16/12:09:17.820632,211656,1615892957,818171024,mocap,-2.73713500977,9.27944042969,1.92200708008,0.173325549782,0.246221211953,0.953540140952,0.00972477445926
2021/03/16/12:09:17.829579,211657,1615892957,828171015,mocap,-2.73722094727,9.27124511719,1.92238342285,0.173398838667,0.244710723754,0.953911870804,0.0100821194655
2021/03/16/12:09:17.839545,211658,1615892957,838171005,mocap,-2.73731787109,9.26309667969,1.92268322754,0.173378046232,0.243450424337,0.954229832346,0.010833937271
2021/03/16/12:09:17.849459,211659,1615892957,848170996,mocap,-2.73751953125,9.25487988281,1.92303637695,0.172913878369,0.241988477158,0.954679636135,0.0113648546524
2021/03/16/12:09:17.859513,211660,1615892957,858170986,mocap,-2.73770922852,9.2467265625,1.92327746582,0.172790027038,0.240560146684,0.955055665608,0.0119623401451
2021/03/16/12:09:17.869760,211661,1615892957,868170977,mocap,-2.73793725586,9.2385703125,1.92346057129,0.17244897927,0.239076768741,0.955483621589,0.0124372576252
2021/03/16/12:09:17.880483,211662,1615892957,878171206,mocap,-2.73823632813,9.23048535156,1.92356201172,0.172113804976,0.237676492188,0.955887925096,0.0128454924466
2021/03/16/12:09:17.889299,211663,1615892957,888171196,mocap,-2.73863037109,9.22242285156,1.92365661621,0.171798277145,0.236728385818,0.956169744938,0.0135806429695
2021/03/16/12:09:17.900629,211664,1615892957,898171186,mocap,-2.73898950195,9.21439257813,1.92365222168,0.171383326093,0.235722094428,0.956486652113,0.0140044292094
2021/03/16/12:09:17.909751,211665,1615892957,908171177,mocap,-2.73936132813,9.20634863281,1.92355126953,0.171061390788,0.235204946828,0.956661448752,0.0146797529582
2021/03/16/12:09:17.920444,211666,1615892957,918171167,mocap,-2.73973046875,9.19826464844,1.92319641113,0.170187218161,0.234981746523,0.956854231676,0.0158070510528
2021/03/16/12:09:17.929096,211667,1615892957,928171158,mocap,-2.74029125977,9.19030761719,1.92308288574,0.170820543872,0.234398410637,0.956885984646,0.015714053756
2021/03/16/12:09:17.940785,211668,1615892957,938171148,mocap,-2.74074316406,9.18231347656,1.92279418945,0.170408655247,0.234092942369,0.957027699989,0.0161049379511
2021/03/16/12:09:17.949498,211669,1615892957,948171139,mocap,-2.74126904297,9.17424414062,1.92237817383,0.169902166214,0.234073467294,0.957107930128,0.0169489875237
2021/03/16/12:09:17.959218,211670,1615892957,958171129,mocap,-2.74177514648,9.16616796875,1.92173376465,0.169247804141,0.234480158804,0.957109775046,0.0177513349154
2021/03/16/12:09:17.971569,211671,1615892957,968171120,mocap,-2.74234008789,9.15812792969,1.9211060791,0.168925485121,0.234826070238,0.957073187396,0.0182156696607
2021/03/16/12:09:17.979404,211672,1615892957,978171110,mocap,-2.74304882813,9.15006933594,1.92054919434,0.169574580425,0.234687599853,0.956996372132,0.0180035379267
2021/03/16/12:09:17.989355,211673,1615892957,988171101,mocap,-2.74362915039,9.14186425781,1.91950646973,0.168894571289,0.235434976333,0.956915439683,0.0189165614397
2021/03/16/12:09:17.999301,211674,1615892957,998171091,mocap,-2.74433935547,9.13373144531,1.91868286133,0.168166638734,0.235593937478,0.956998069344,0.0192402095014
2021/03/16/12:09:18.011586,211675,1615892958,8171082,mocap,-2.74513110352,9.12553320313,1.91771154785,0.169050116715,0.236122405744,0.956715987303,0.019047007869
2021/03/16/12:09:18.019137,211676,1615892958,18171072,mocap,-2.74595043945,9.11734472656,1.91669152832,0.168524717735,0.236793043203,0.956636433029,0.0193703268904
2021/03/16/12:09:18.031473,211677,1615892958,28171062,mocap,-2.74676831055,9.10898535156,1.91540905762,0.167375152075,0.237720216484,0.956587264168,0.0203829464462
2021/03/16/12:09:18.039364,211678,1615892958,38171053,mocap,-2.74766821289,9.10069335938,1.91424243164,0.166990680798,0.238487370906,0.956456342575,0.0207157308862
2021/03/16/12:09:18.051150,211679,1615892958,48171043,mocap,-2.74865649414,9.0923515625,1.91309472656,0.167212930557,0.238740190109,0.956364021485,0.0202685346505
2021/03/16/12:09:18.059665,211680,1615892958,58171034,mocap,-2.74951269531,9.08383398437,1.911671875,0.166248378238,0.239578546304,0.95630019935,0.0212960530714
2021/03/16/12:09:18.071114,211681,1615892958,68171024,mocap,-2.75049145508,9.07535351563,1.91026196289,0.165843288095,0.240143141456,0.956228152817,0.0213307876433
2021/03/16/12:09:18.079630,211682,1615892958,78171015,mocap,-2.75158447266,9.06689550781,1.90899206543,0.166354536745,0.240480940553,0.956060197169,0.021070725191
2021/03/16/12:09:18.091367,211683,1615892958,88171005,mocap,-2.75257299805,9.05831054687,1.90750061035,0.165025488456,0.241341249185,0.956060999848,0.021641520185
2021/03/16/12:09:18.099236,211684,1615892958,98170996,mocap,-2.75370654297,9.049765625,1.90629577637,0.165546825119,0.241565473484,0.955925212817,0.0211508660748
2021/03/16/12:09:18.111020,211685,1615892958,108170986,mocap,-2.75486914062,9.04116894531,1.90502111816,0.165361255346,0.242045134069,0.955833838168,0.0212477416005
2021/03/16/12:09:18.119328,211686,1615892958,118170977,mocap,-2.75595825195,9.03255957031,1.90387316895,0.165343832007,0.242542727965,0.955718942981,0.0208743734163
2021/03/16/12:09:18.131101,211687,1615892958,128171206,mocap,-2.75706958008,9.02382910156,1.90278723145,0.165305630777,0.243252467342,0.955553135612,0.0205056870201
2021/03/16/12:09:18.139621,211688,1615892958,138171196,mocap,-2.75823657227,9.01505175781,1.90181652832,0.164975338273,0.243935957736,0.955428973701,0.0208293013449
2021/03/16/12:09:18.151055,211689,1615892958,148171186,mocap,-2.7594309082,9.00631347656,1.90110253906,0.165478900426,0.244379880181,0.955247095681,0.0199546166638
2021/03/16/12:09:18.159295,211690,1615892958,158171177,mocap,-2.76061230469,8.99754785156,1.90037475586,0.165126843648,0.245120383429,0.955116949872,0.0200184415195
2021/03/16/12:09:18.170984,211691,1615892958,168171167,mocap,-2.76186938477,8.98877246094,1.89987280273,0.165625796434,0.2454250049,0.954969060556,0.0192030473841
2021/03/16/12:09:18.179959,211692,1615892958,178171158,mocap,-2.76305541992,8.97998828125,1.89931079102,0.165982102019,0.246696118726,0.954585941238,0.0188851574893
2021/03/16/12:09:18.191100,211693,1615892958,188171148,mocap,-2.7642956543,8.97118359375,1.89899645996,0.166220705204,0.247215311438,0.954420748903,0.0183384747622
2021/03/16/12:09:18.199306,211694,1615892958,198171139,mocap,-2.76564379883,8.96237792969,1.89892980957,0.165995050191,0.248353138262,0.95417022458,0.0180428433541
2021/03/16/12:09:18.210785,211695,1615892958,208171129,mocap,-2.76694458008,8.9536328125,1.89930541992,0.166015949613,0.249912496118,0.95376925504,0.017511660028
2021/03/16/12:09:18.219384,211696,1615892958,218171120,mocap,-2.76840454102,8.944734375,1.90003320313,0.166148400866,0.251115476822,0.953435917468,0.0171955553706
2021/03/16/12:09:18.230631,211697,1615892958,228171110,mocap,-2.76968847656,8.93577636719,1.90101525879,0.166152537892,0.251930937783,0.953229671734,0.016653145284
2021/03/16/12:09:18.239482,211698,1615892958,238171101,mocap,-2.77109790039,8.92673925781,1.90207116699,0.166880309295,0.252298232142,0.953017588332,0.0159383427973
2021/03/16/12:09:18.250715,211699,1615892958,248171091,mocap,-2.77233251953,8.91770703125,1.90330273437,0.166928654028,0.252638238885,0.952934308597,0.0149982131252
2021/03/16/12:09:18.259474,211700,1615892958,258171082,mocap,-2.77367797852,8.90861621094,1.90461755371,0.167526337834,0.252595589698,0.952855048489,0.0140587785719
2021/03/16/12:09:18.271167,211701,1615892958,268171072,mocap,-2.77497924805,8.89958789062,1.90610852051,0.168203736431,0.25277315919,0.952702561552,0.013079154268
2021/03/16/12:09:18.279811,211702,1615892958,278171062,mocap,-2.7763203125,8.89058300781,1.90757751465,0.168536449973,0.252803896779,0.952649028939,0.0120617516704
2021/03/16/12:09:18.289564,211703,1615892958,288171053,mocap,-2.77760961914,8.88155371094,1.90901391602,0.168663956349,0.252247101263,0.952787237824,0.010970489569
2021/03/16/12:09:18.301187,211704,1615892958,298171043,mocap,-2.7789375,8.87255175781,1.91042932129,0.169126138012,0.251148628154,0.953008331913,0.0097893186492
2021/03/16/12:09:18.309364,211705,1615892958,308171034,mocap,-2.78029638672,8.86355078125,1.91179260254,0.169053881087,0.249992380526,0.953334925938,0.00878241842684
2021/03/16/12:09:18.320496,211706,1615892958,318171024,mocap,-2.7815637207,8.85460058594,1.9129642334,0.168819804194,0.248582695172,0.953753803328,0.00775938256725
2021/03/16/12:09:18.329285,211707,1615892958,328171015,mocap,-2.78283276367,8.84570898437,1.91401245117,0.168620920791,0.247512598199,0.954071372422,0.00723202610297
2021/03/16/12:09:18.340471,211708,1615892958,338171005,mocap,-2.78413818359,8.83704492188,1.91502380371,0.167965638446,0.245993229175,0.954586058314,0.00635104929576
2021/03/16/12:09:18.349547,211709,1615892958,348170996,mocap,-2.78538134766,8.82836035156,1.91584387207,0.166994514324,0.244982633297,0.955020380127,0.0056947141482
2021/03/16/12:09:18.360181,211710,1615892958,358170986,mocap,-2.78666381836,8.81989453125,1.91665441895,0.166158450847,0.24403798006,0.955410811632,0.00519767060157
2021/03/16/12:09:18.369548,211711,1615892958,368170977,mocap,-2.78786669922,8.81147265625,1.91731518555,0.165164778319,0.243764052533,0.9556566916,0.00446927625109
