time,.header.seq,.header.stamp.secs,.header.stamp.nsecs,.header.frame_id,.pose.position.x,.pose.position.y,.pose.position.z,.pose.orientation.x,.pose.orientation.y,.pose.orientation.z,.pose.orientation.w
2021/03/16/15:06:11.490684,1015,1615903571,492450237,mocap,-2.82128735352,10.3798232422,1.92759313965,0.137083705657,0.255654999485,0.955374439666,-0.0557516803444
2021/03/16/15:06:11.502557,1016,1615903571,502450228,mocap,-2.82144238281,10.3800683594,1.92759741211,0.138316218684,0.255926592197,0.955216481615,-0.0541449902335
2021/03/16/15:06:11.511829,1017,1615903571,512450218,mocap,-2.82158544922,10.3802744141,1.92756225586,0.138742434685,0.256048112819,0.955225537241,-0.0522882935151
2021/03/16/15:06:11.522105,1018,1615903571,522450209,mocap,-2.82174731445,10.3805097656,1.92759533691,0.139299809447,0.256269250609,0.955185047554,-0.0504297462233
2021/03/16/15:06:11.530988,1019,1615903571,532450199,mocap,-2.82188793945,10.3807294922,1.92756591797,0.140331821396,0.256403761385,0.955100615067,-0.0484449474611
2021/03/16/15:06:11.542643,1020,1615903571,542450190,mocap,-2.82208227539,10.3809169922,1.92754968262,0.141193499805,0.256617725722,0.955021051055,-0.0463307228273
2021/03/16/15:06:11.551140,1021,1615903571,552450180,mocap,-2.82221948242,10.3811240234,1.92754321289,0.141849667139,0.256762226401,0.954989009826,-0.0441342563579
2021/03/16/15:06:11.562358,1022,1615903571,562450171,mocap,-2.82237988281,10.3813535156,1.92760424805,0.142392239621,0.256876734071,0.954977837662,-0.0419061752628
2021/03/16/15:06:11.571106,1023,1615903571,572450161,mocap,-2.82252929687,10.3815341797,1.92759179688,0.143332567682,0.257058824731,0.954877539792,-0.0398173050972
2021/03/16/15:06:11.581152,1024,1615903571,582450151,mocap,-2.82273510742,10.38175,1.92771130371,0.144628191512,0.257574256071,0.95463561902,-0.0375369055182
2021/03/16/15:06:11.591490,1025,1615903571,592450142,mocap,-2.82287866211,10.3819169922,1.9276739502,0.144954290593,0.2572476079,0.954751588821,-0.0355149793762
2021/03/16/15:06:11.600917,1026,1615903571,602450132,mocap,-2.82306103516,10.3821240234,1.92766271973,0.145600035202,0.257166308821,0.954751502981,-0.0334019493438
2021/03/16/15:06:11.611028,1027,1615903571,612450123,mocap,-2.82323217773,10.3822919922,1.92766577148,0.146119072411,0.257152951021,0.954740601169,-0.0314955574006
2021/03/16/15:06:11.621860,1028,1615903571,622450113,mocap,-2.82345117187,10.3824677734,1.92767553711,0.146838193297,0.257315789336,0.954651431075,-0.0294577942371
2021/03/16/15:06:11.631180,1029,1615903571,632450104,mocap,-2.82365893555,10.3826455078,1.92763696289,0.147129058741,0.257442319977,0.954629507973,-0.0275500013827
2021/03/16/15:06:11.643153,1030,1615903571,642450094,mocap,-2.82386645508,10.3828222656,1.92767077637,0.147523967172,0.257884985024,0.954498403711,-0.0257840096079
2021/03/16/15:06:11.651099,1031,1615903571,652450085,mocap,-2.82408959961,10.3829892578,1.92768908691,0.148200789201,0.257932512382,0.954425502982,-0.0240688091496
2021/03/16/15:06:11.663034,1032,1615903571,662450075,mocap,-2.82432519531,10.3831591797,1.92768359375,0.148906383718,0.258082464095,0.954309509169,-0.0226649802097
2021/03/16/15:06:11.671238,1033,1615903571,672450066,mocap,-2.82456982422,10.3833730469,1.92774414062,0.14963253757,0.258671806963,0.95407694821,-0.0208848974479
2021/03/16/15:06:11.682314,1034,1615903571,682450056,mocap,-2.82483398438,10.3835419922,1.92786242676,0.149547159145,0.25904345424,0.954025983989,-0.0191458462156
2021/03/16/15:06:11.691157,1035,1615903571,692450047,mocap,-2.82508666992,10.3837148438,1.92789123535,0.149611092333,0.259470394635,0.953930694054,-0.0175462683628
2021/03/16/15:06:11.702892,1036,1615903571,702450037,mocap,-2.82533032227,10.3838769531,1.92792810059,0.149927103161,0.25963782155,0.953857679638,-0.0162969173683
2021/03/16/15:06:11.711056,1037,1615903571,712450027,mocap,-2.82555810547,10.3840322266,1.92794726563,0.149759751473,0.259744083503,0.953877238177,-0.0149407799017
2021/03/16/15:06:11.722757,1038,1615903571,722450256,mocap,-2.82584887695,10.3841982422,1.92796533203,0.150172669894,0.259955484573,0.95377107517,-0.0138583380887
2021/03/16/15:06:11.731384,1039,1615903571,732450247,mocap,-2.82606274414,10.3842919922,1.9278293457,0.150504972439,0.260048200303,0.953705727998,-0.0129840479246
2021/03/16/15:06:11.742793,1040,1615903571,742450237,mocap,-2.82631860352,10.3844306641,1.92783740234,0.150561981331,0.260415566289,0.95360975758,-0.0119690534072
2021/03/16/15:06:11.750929,1041,1615903571,752450228,mocap,-2.82660327148,10.38459375,1.9278873291,0.150684469799,0.260747750675,0.953511042664,-0.0110225589914
2021/03/16/15:06:11.762896,1042,1615903571,762450218,mocap,-2.82687329102,10.3847412109,1.92783972168,0.151278319441,0.261119767943,0.953324148604,-0.0102178728673
2021/03/16/15:06:11.771010,1043,1615903571,772450209,mocap,-2.82715625,10.3848681641,1.92785021973,0.151150709473,0.261340442338,0.953293246131,-0.00930724536694
2021/03/16/15:06:11.781941,1044,1615903571,782450199,mocap,-2.82745751953,10.3850664063,1.9279440918,0.150689046849,0.261930665801,0.95321464117,-0.00818515621898
2021/03/16/15:06:11.791058,1045,1615903571,792450190,mocap,-2.82774780273,10.3851943359,1.92795336914,0.150836979385,0.262185952288,0.953127743764,-0.00736424014632
2021/03/16/15:06:11.802744,1046,1615903571,802450180,mocap,-2.82801513672,10.3852890625,1.9279197998,0.150736012301,0.262267792761,0.953126477412,-0.00664719544
2021/03/16/15:06:11.811022,1047,1615903571,812450171,mocap,-2.82827685547,10.3853505859,1.9278449707,0.150085862126,0.261963645764,0.953316677081,-0.0060496280582
2021/03/16/15:06:11.822897,1048,1615903571,822450161,mocap,-2.82858032227,10.3855175781,1.9279510498,0.150632211883,0.262612115437,0.953054699103,-0.00561736648882
2021/03/16/15:06:11.831267,1049,1615903571,832450151,mocap,-2.82884399414,10.3855927734,1.92786486816,0.150953493698,0.262698836935,0.952982571388,-0.00515555206538
2021/03/16/15:06:11.842636,1050,1615903571,842450142,mocap,-2.8290949707,10.3856328125,1.92777844238,0.150475655625,0.262433895007,0.953132840421,-0.00482845047582
2021/03/16/15:06:11.851437,1051,1615903571,852450132,mocap,-2.82939257812,10.3857763672,1.92783703613,0.150660299626,0.262995049107,0.952951446741,-0.00431550350354
2021/03/16/15:06:11.862630,1052,1615903571,862450123,mocap,-2.8296652832,10.3858662109,1.92782666016,0.150620420405,0.263212717569,0.95289889765,-0.00403066399319
2021/03/16/15:06:11.871443,1053,1615903571,872450113,mocap,-2.82998022461,10.3859707031,1.92789648437,0.150011014111,0.263756679568,0.952847471637,-0.00328595051308
2021/03/16/15:06:11.882727,1054,1615903571,882450104,mocap,-2.83028198242,10.3860507813,1.92793017578,0.149853413102,0.263959279285,0.952816866486,-0.00307662948315
2021/03/16/15:06:11.890897,1055,1615903571,892450094,mocap,-2.83056054688,10.3861494141,1.92792382812,0.149708156825,0.264045780443,0.952816522427,-0.00282400492938
2021/03/16/15:06:11.902470,1056,1615903571,902450085,mocap,-2.83083227539,10.3861982422,1.92793457031,0.149105991513,0.264096052365,0.952897912473,-0.00249810797474
2021/03/16/15:06:11.911049,1057,1615903571,912450075,mocap,-2.83108276367,10.3862197266,1.92785229492,0.148483923595,0.26375850078,0.953088681514,-0.00243785837476
2021/03/16/15:06:11.922398,1058,1615903571,922450066,mocap,-2.83136523438,10.3862871094,1.92790844727,0.148504416301,0.264250337495,0.952949836144,-0.00218930964296
2021/03/16/15:06:11.931159,1059,1615903571,932450056,mocap,-2.83162548828,10.3862900391,1.92786743164,0.148099099605,0.263913873257,0.953106199923,-0.00216545991517
2021/03/16/15:06:11.942101,1060,1615903571,942450047,mocap,-2.83188330078,10.3863457031,1.92791430664,0.148428809867,0.263757008241,0.95309757756,-0.0024778500535
2021/03/16/15:06:11.950971,1061,1615903571,952450037,mocap,-2.83209936523,10.3863261719,1.92783789062,0.147821693197,0.263342127797,0.953306391919,-0.00257012045046
2021/03/16/15:06:11.962314,1062,1615903571,962450027,mocap,-2.83236376953,10.3863671875,1.92785229492,0.148211832638,0.26387846486,0.953097491571,-0.00256442021655
2021/03/16/15:06:11.971293,1063,1615903571,972450256,mocap,-2.83262402344,10.3863964844,1.92787182617,0.147671651865,0.263342179736,0.953328837814,-0.0028484146808
2021/03/16/15:06:11.982169,1064,1615903571,982450247,mocap,-2.83290551758,10.3864902344,1.92796960449,0.148062091512,0.263770630053,0.953149083881,-0.0030806146056
2021/03/16/15:06:11.992370,1065,1615903571,992450237,mocap,-2.83313037109,10.3865029297,1.9279005127,0.147373876045,0.263541240509,0.953318701276,-0.00322581810805
2021/03/16/15:06:12.001471,1066,1615903572,2450228,mocap,-2.83340454102,10.3865458984,1.92794152832,0.147364465425,0.264073275646,0.953173198419,-0.00314124044088
2021/03/16/15:06:12.011762,1067,1615903572,12450218,mocap,-2.83366333008,10.3865791016,1.92792358398,0.14657162046,0.263664581846,0.953407831909,-0.00335418139701
2021/03/16/15:06:12.022712,1068,1615903572,22450209,mocap,-2.83393139648,10.3866611328,1.92801062012,0.145616153597,0.263964474827,0.953471972675,-0.00314341499397
2021/03/16/15:06:12.031054,1069,1615903572,32450199,mocap,-2.83416479492,10.3866826172,1.92801098633,0.145593925627,0.263802240788,0.95351974724,-0.00329754031653
2021/03/16/15:06:12.041130,1070,1615903572,42450190,mocap,-2.83439355469,10.3867236328,1.92802478027,0.145153208557,0.263882233384,0.953564487816,-0.00338872228879
2021/03/16/15:06:12.051702,1071,1615903572,52450180,mocap,-2.83460864258,10.3867412109,1.92801501465,0.144824316212,0.263796878785,0.953637868444,-0.00345654616637
2021/03/16/15:06:12.061104,1072,1615903572,62450171,mocap,-2.83480761719,10.3867421875,1.92802819824,0.144498698934,0.26370284401,0.953712344945,-0.0037026179801
2021/03/16/15:06:12.072725,1073,1615903572,72450161,mocap,-2.83499291992,10.3867597656,1.92802514648,0.14435282838,0.26368272788,0.953739554409,-0.00381330554944
2021/03/16/15:06:12.081844,1074,1615903572,82450151,mocap,-2.83519262695,10.3867861328,1.92803881836,0.143969190795,0.263601245464,0.953818990979,-0.00407439948241
2021/03/16/15:06:12.092705,1075,1615903572,92450142,mocap,-2.83538232422,10.3868066406,1.92802233887,0.1440587533,0.263646327087,0.953791541623,-0.00440302714126
2021/03/16/15:06:12.101040,1076,1615903572,102450132,mocap,-2.83556103516,10.3868388672,1.92801977539,0.143728048861,0.2637153794,0.953821834294,-0.00451092528019
2021/03/16/15:06:12.112584,1077,1615903572,112450123,mocap,-2.83571289062,10.3868779297,1.92801660156,0.143607907574,0.263863978676,0.953798407942,-0.00460190510909
2021/03/16/15:06:12.120933,1078,1615903572,122450113,mocap,-2.83583740234,10.3869013672,1.92792346191,0.143951434335,0.263594914318,0.953818327017,-0.00512793072946
2021/03/16/15:06:12.132668,1079,1615903572,132450104,mocap,-2.83600195312,10.3869814453,1.92799389648,0.143392350704,0.263991411497,0.953794244412,-0.0048676827931
2021/03/16/15:06:12.141244,1080,1615903572,142450094,mocap,-2.83613525391,10.3869726563,1.92792370605,0.143815929884,0.263903438698,0.95375347523,-0.0051251214692
2021/03/16/15:06:12.151677,1081,1615903572,152450085,mocap,-2.83626245117,10.3870390625,1.92790246582,0.143814634886,0.263992846882,0.953728492602,-0.00520574528838
2021/03/16/15:06:12.162293,1082,1615903572,162450075,mocap,-2.83639941406,10.3870732422,1.9279005127,0.143643152757,0.264127970709,0.953716508832,-0.00528049880223
2021/03/16/15:06:12.171016,1083,1615903572,172450066,mocap,-2.83654272461,10.3870986328,1.92791564941,0.143249540265,0.264313331025,0.953725383398,-0.005091526189
2021/03/16/15:06:12.182434,1084,1615903572,182450056,mocap,-2.83668945312,10.3871494141,1.92793737793,0.143016030396,0.264299962201,0.953763927431,-0.00512931881009
2021/03/16/15:06:12.196314,1085,1615903572,192450047,mocap,-2.83681616211,10.3871748047,1.92793933105,0.142866882366,0.264412548196,0.953754787621,-0.0051836719758
2021/03/16/15:06:12.201447,1086,1615903572,202450037,mocap,-2.83693725586,10.3872080078,1.92799023437,0.142664831763,0.264476751641,0.953767669259,-0.0051005456419
2021/03/16/15:06:12.211383,1087,1615903572,212450027,mocap,-2.83703808594,10.3872177734,1.92795751953,0.142700699793,0.2646253709,0.95372033678,-0.00523730976911
2021/03/16/15:06:12.221378,1088,1615903572,222450256,mocap,-2.83711108398,10.3872607422,1.92794946289,0.142582661866,0.264729782982,0.953709602863,-0.00513150935018
2021/03/16/15:06:12.232119,1089,1615903572,232450247,mocap,-2.83720410156,10.3873095703,1.92797265625,0.142475895218,0.264724676837,0.953726422405,-0.00523233521413
2021/03/16/15:06:12.241520,1090,1615903572,242450237,mocap,-2.83721069336,10.3872910156,1.92781848145,0.14298773912,0.264513885773,0.953704923337,-0.00581638754939
2021/03/16/15:06:12.251352,1091,1615903572,252450228,mocap,-2.83734008789,10.3873876953,1.92790100098,0.142294991789,0.265063407106,0.953659134645,-0.00527124992987
2021/03/16/15:06:12.263346,1092,1615903572,262450218,mocap,-2.83736450195,10.3874140625,1.92783215332,0.142808912038,0.264940813417,0.953613289063,-0.00580219941823
2021/03/16/15:06:12.271147,1093,1615903572,272450209,mocap,-2.83742016602,10.3874746094,1.92782067871,0.142673208564,0.265316591514,0.953529365937,-0.0057628290265
2021/03/16/15:06:12.282996,1094,1615903572,282450199,mocap,-2.83746630859,10.3875205078,1.92777514648,0.142722690206,0.265473006225,0.953477387871,-0.00593301810457
2021/03/16/15:06:12.293553,1095,1615903572,292450190,mocap,-2.83753735352,10.3875898437,1.92779138184,0.142482854171,0.265643910921,0.953465291546,-0.00599073296145
2021/03/16/15:06:12.301520,1096,1615903572,302450180,mocap,-2.83759399414,10.3876484375,1.92778759766,0.14233572479,0.265974331327,0.953394124855,-0.00615174684949
2021/03/16/15:06:12.313194,1097,1615903572,312450171,mocap,-2.83764477539,10.3876933594,1.92772009277,0.142376634782,0.266165333848,0.953332901778,-0.00642661126848
2021/03/16/15:06:12.321252,1098,1615903572,322450161,mocap,-2.83771704102,10.3877685547,1.9277467041,0.142307615177,0.26646570464,0.953257528065,-0.00668271745142
2021/03/16/15:06:12.332224,1099,1615903572,332450151,mocap,-2.83777978516,10.3878183594,1.92771984863,0.142048253748,0.266824945474,0.953193787141,-0.00695333366448
2021/03/16/15:06:12.343066,1100,1615903572,342450142,mocap,-2.83784277344,10.3878710938,1.92770422363,0.14206551965,0.267084686265,0.953114337549,-0.00749761534333
2021/03/16/15:06:12.351403,1101,1615903572,352450132,mocap,-2.83790039063,10.3878984375,1.92766259766,0.141995749685,0.267411482223,0.953028932014,-0.00800961276478
2021/03/16/15:06:12.363192,1102,1615903572,362450123,mocap,-2.8379855957,10.3879345703,1.92768139648,0.141647465339,0.267686335454,0.953000224654,-0.00840157232648
2021/03/16/15:06:12.371069,1103,1615903572,372450113,mocap,-2.83804370117,10.3879667969,1.92767358398,0.141509763386,0.268023267478,0.952920532183,-0.00899787559316
2021/03/16/15:06:12.383129,1104,1615903572,382450104,mocap,-2.83811816406,10.3879785156,1.92763793945,0.141104972562,0.268265175774,0.952906818119,-0.0095809214742
2021/03/16/15:06:12.391152,1105,1615903572,392450094,mocap,-2.83820703125,10.3879833984,1.92763513184,0.140903462974,0.268609260598,0.952832497599,-0.0102719480209
2021/03/16/15:06:12.402047,1106,1615903572,402450085,mocap,-2.83826269531,10.387984375,1.92760302734,0.140509253284,0.268805661163,0.952828642626,-0.0108745756823
2021/03/16/15:06:12.412898,1107,1615903572,412450075,mocap,-2.83832495117,10.3880039063,1.92757592773,0.140450488033,0.26907193059,0.952752321895,-0.0117039303756
2021/03/16/15:06:12.420966,1108,1615903572,422450066,mocap,-2.83838085937,10.3879794922,1.92756335449,0.140268422641,0.2693574899,0.952690963726,-0.0122982415099
2021/03/16/15:06:12.432633,1109,1615903572,432450056,mocap,-2.83846679688,10.3879667969,1.92757824707,0.139906973006,0.269563020199,0.952675299007,-0.0130992513609
2021/03/16/15:06:12.442870,1110,1615903572,442450047,mocap,-2.83849682617,10.3879121094,1.92748010254,0.139771806536,0.269774411442,0.952625041912,-0.0138251006332
2021/03/16/15:06:12.451322,1111,1615903572,452450037,mocap,-2.83853808594,10.3878798828,1.92748376465,0.139514587953,0.269916847686,0.952613012976,-0.0144572431455
2021/03/16/15:06:12.461633,1112,1615903572,462450027,mocap,-2.8385559082,10.3878193359,1.92745300293,0.139320913691,0.270099202697,0.952577167724,-0.0152594946438
2021/03/16/15:06:12.471051,1113,1615903572,472450256,mocap,-2.83864501953,10.3877441406,1.92748254395,0.139337296361,0.270307765739,0.95250077991,-0.0161584246391
2021/03/16/15:06:12.481481,1114,1615903572,482450247,mocap,-2.83867089844,10.3876601562,1.92745031738,0.138945898814,0.270506383776,0.952486958114,-0.0169977282032
2021/03/16/15:06:12.490983,1115,1615903572,492450237,mocap,-2.83872827148,10.3875712891,1.92746325684,0.138536235056,0.270614525405,0.952501084973,-0.0178094408217
2021/03/16/15:06:12.501447,1116,1615903572,502450228,mocap,-2.83876025391,10.3874853516,1.92745227051,0.138519437677,0.270696216175,0.952466307179,-0.0185431231447
2021/03/16/15:06:12.511232,1117,1615903572,512450218,mocap,-2.83877148438,10.3874023438,1.92742382813,0.138405672144,0.270915285826,0.952406260478,-0.0192637615796
2021/03/16/15:06:12.521309,1118,1615903572,522450209,mocap,-2.83881469727,10.3873066406,1.92744726562,0.1383028858,0.270989819699,0.952384989771,-0.0199911365313
2021/03/16/15:06:12.531008,1119,1615903572,532450199,mocap,-2.83882617188,10.3871865234,1.92744470215,0.138079060544,0.271109846746,0.952370955068,-0.0205713897622
2021/03/16/15:06:12.542392,1120,1615903572,542450190,mocap,-2.83883251953,10.3870693359,1.92739587402,0.138076848386,0.271241784489,0.95231709087,-0.021326477818
2021/03/16/15:06:12.551050,1121,1615903572,552450180,mocap,-2.83885302734,10.3869599609,1.92741491699,0.137818612951,0.271199211833,0.952351748939,-0.0219809238497
2021/03/16/15:06:12.562576,1122,1615903572,562450171,mocap,-2.83887915039,10.3868115234,1.92743640137,0.137690553119,0.271278413218,0.952330993367,-0.0226936082569
2021/03/16/15:06:12.572513,1123,1615903572,572450161,mocap,-2.83889233398,10.3866806641,1.92740905762,0.137471050188,0.271415955374,0.952306051658,-0.0234152899215
2021/03/16/15:06:12.581140,1124,1615903572,582450151,mocap,-2.83893701172,10.3864990234,1.92743078613,0.137304002752,0.27143793882,0.952307538165,-0.0240708907657
2021/03/16/15:06:12.592168,1125,1615903572,592450142,mocap,-2.8389777832,10.3863427734,1.92744616699,0.137020030421,0.271480706476,0.952319602253,-0.0247209378942
2021/03/16/15:06:12.601222,1126,1615903572,602450132,mocap,-2.83899560547,10.3861660156,1.92739196777,0.136792762662,0.271483447767,0.95233479559,-0.0253559222763
2021/03/16/15:06:12.612173,1127,1615903572,612450123,mocap,-2.83906762695,10.3860058594,1.92739526367,0.136644387757,0.271380597974,0.952367364217,-0.0260245331915
2021/03/16/15:06:12.621150,1128,1615903572,622450113,mocap,-2.83910595703,10.3858056641,1.92743212891,0.136378173733,0.271347840689,0.95239490938,-0.0267450503796
2021/03/16/15:06:12.631072,1129,1615903572,632450104,mocap,-2.83915576172,10.385625,1.92745373535,0.135951333581,0.271320034397,0.952446766602,-0.0273463295111
2021/03/16/15:06:12.641246,1130,1615903572,642450094,mocap,-2.83920825195,10.3854130859,1.92743310547,0.135924480653,0.271252648042,0.952448644017,-0.0280733374766
2021/03/16/15:06:12.652021,1131,1615903572,652450085,mocap,-2.83926953125,10.3851845703,1.92741784668,0.135602995733,0.271242091399,0.952479010686,-0.0286930616236
2021/03/16/15:06:12.661326,1132,1615903572,662450075,mocap,-2.8393269043,10.3849931641,1.92744641113,0.135393607598,0.271084906934,0.952534484852,-0.0293188534174
2021/03/16/15:06:12.672892,1133,1615903572,672450066,mocap,-2.83934887695,10.3848037109,1.92744189453,0.135067862832,0.271103949866,0.952560851939,-0.0297848270957
2021/03/16/15:06:12.681554,1134,1615903572,682450056,mocap,-2.83941577148,10.3846455078,1.92747766113,0.134991493038,0.271040136984,0.952572631244,-0.0303303036989
2021/03/16/15:06:12.692884,1135,1615903572,692450047,mocap,-2.83943212891,10.3844414062,1.92745617676,0.134854374981,0.271028168838,0.952580992429,-0.0307813629978
2021/03/16/15:06:12.701072,1136,1615903572,702450037,mocap,-2.83945825195,10.3842832031,1.92745678711,0.134927338894,0.271073465138,0.952544731419,-0.0311820181921
2021/03/16/15:06:12.713262,1137,1615903572,712450027,mocap,-2.83950585937,10.3841103516,1.92746594238,0.134820946038,0.271150220272,0.952533217712,-0.0313262601132
2021/03/16/15:06:12.720925,1138,1615903572,722450256,mocap,-2.83953808594,10.3839365234,1.9274666748,0.134727120279,0.271156501587,0.952538904187,-0.0315022281381
2021/03/16/15:06:12.732939,1139,1615903572,732450247,mocap,-2.83956860352,10.3837666016,1.92747363281,0.134623434538,0.271253043606,0.952525481862,-0.0315201889968
2021/03/16/15:06:12.741918,1140,1615903572,742450237,mocap,-2.83958813477,10.3835664063,1.92743249512,0.134769144366,0.271005889115,0.952568360677,-0.0317269177846
2021/03/16/15:06:12.752970,1141,1615903572,752450228,mocap,-2.83960351562,10.3833525391,1.92738696289,0.13479091138,0.270845547546,0.952602634182,-0.0319735747686
2021/03/16/15:06:12.761153,1142,1615903572,762450218,mocap,-2.83963720703,10.3831748047,1.92741003418,0.134770576472,0.270978033042,0.952566475676,-0.0320141640295
2021/03/16/15:06:12.772870,1143,1615903572,772450209,mocap,-2.83962939453,10.3829628906,1.92733935547,0.134697238391,0.270933747131,0.952587155725,-0.0320823370812
2021/03/16/15:06:12.781004,1144,1615903572,782450199,mocap,-2.83966088867,10.3827763672,1.92735632324,0.134631014139,0.270840092818,0.952620224099,-0.0321690252858
2021/03/16/15:06:12.792848,1145,1615903572,792450190,mocap,-2.83970654297,10.382578125,1.92734191895,0.134593351551,0.270876325918,0.952612833088,-0.0322402804208
2021/03/16/15:06:12.801040,1146,1615903572,802450180,mocap,-2.83971923828,10.3823769531,1.92733911133,0.134533088887,0.270764572957,0.952654010845,-0.0322137300615
2021/03/16/15:06:12.812680,1147,1615903572,812450171,mocap,-2.8397565918,10.382171875,1.92732922363,0.134561325025,0.270641495874,0.952682118627,-0.0322986822378
2021/03/16/15:06:12.821252,1148,1615903572,822450161,mocap,-2.83980664062,10.3819619141,1.92735803223,0.134334165632,0.270651694007,0.952711023261,-0.0323062952248
2021/03/16/15:06:12.832557,1149,1615903572,832450151,mocap,-2.83984545898,10.3817470703,1.92733361816,0.134414187927,0.270565987777,0.952716732135,-0.032522350757
2021/03/16/15:06:12.841206,1150,1615903572,842450142,mocap,-2.83991552734,10.3815585938,1.92735229492,0.134237779253,0.270455383642,0.952772575635,-0.0325349414325
2021/03/16/15:06:12.852460,1151,1615903572,852450132,mocap,-2.83996630859,10.3813486328,1.92736633301,0.134337208911,0.270262085148,0.952804190943,-0.0328038125267
2021/03/16/15:06:12.861251,1152,1615903572,862450123,mocap,-2.84001855469,10.3811455078,1.92737817383,0.134203732638,0.270269655627,0.952816647539,-0.0329258096874
2021/03/16/15:06:12.872685,1153,1615903572,872450113,mocap,-2.84006445313,10.3809453125,1.92734472656,0.134065011869,0.270261591171,0.952833224803,-0.033077098566
2021/03/16/15:06:12.881361,1154,1615903572,882450104,mocap,-2.84009741211,10.3807490234,1.92736657715,0.134033206796,0.270328631695,0.952814989797,-0.0331832439069
2021/03/16/15:06:12.892352,1155,1615903572,892450094,mocap,-2.84012304688,10.3805712891,1.92735681152,0.133978337744,0.270143423977,0.952867480963,-0.0334049859281
2021/03/16/15:06:12.901266,1156,1615903572,902450085,mocap,-2.84015063477,10.3804052734,1.92736950684,0.133818878488,0.270159938325,0.952884964344,-0.0334118767882
2021/03/16/15:06:12.911603,1157,1615903572,912450075,mocap,-2.84019335938,10.3802539062,1.92738879395,0.133810222175,0.270053281639,0.952914285037,-0.033472714676
2021/03/16/15:06:12.921088,1158,1615903572,922450066,mocap,-2.84018798828,10.3800986328,1.92739929199,0.133926596273,0.270008741541,0.952909499961,-0.0335026776513
2021/03/16/15:06:12.931269,1159,1615903572,932450056,mocap,-2.84018212891,10.3799550781,1.92737280273,0.133730787693,0.269832250911,0.952987715731,-0.0334821546496
2021/03/16/15:06:12.942517,1160,1615903572,942450047,mocap,-2.84017163086,10.3798105469,1.92737878418,0.133744048992,0.269789760002,0.952998621958,-0.0334609136803
2021/03/16/15:06:12.951125,1161,1615903572,952450037,mocap,-2.84015698242,10.3796767578,1.92739599609,0.133732358026,0.269739597899,0.953016415649,-0.0334052072345
2021/03/16/15:06:12.962277,1162,1615903572,962450027,mocap,-2.84014624023,10.3795664062,1.92738464355,0.134052812883,0.269559611714,0.953022505768,-0.0333999417276
2021/03/16/15:06:12.971101,1163,1615903572,972450256,mocap,-2.84011181641,10.3794287109,1.92738000488,0.134073362492,0.269530893953,0.953030393939,-0.0333241130448
2021/03/16/15:06:12.982515,1164,1615903572,982450247,mocap,-2.84007617187,10.3793134766,1.92740344238,0.134075416429,0.269481401082,0.953048663913,-0.0331934963711
2021/03/16/15:06:12.991110,1165,1615903572,992450237,mocap,-2.84004638672,10.3792285156,1.92741345215,0.13412846427,0.269410053916,0.953066652107,-0.033041244455
2021/03/16/15:06:13.003407,1166,1615903573,2450228,mocap,-2.84000439453,10.3791025391,1.92735424805,0.134340711573,0.269381071803,0.95304572448,-0.0330189909838
2021/03/16/15:06:13.011276,1167,1615903573,12450218,mocap,-2.83996435547,10.3790136719,1.92739599609,0.134493076264,0.269477694966,0.95300083446,-0.0329058065856
2021/03/16/15:06:13.022398,1168,1615903573,22450209,mocap,-2.83992651367,10.3789277344,1.92740039062,0.13460002164,0.269338902564,0.953031066268,-0.0327288526013
2021/03/16/15:06:13.031176,1169,1615903573,32450199,mocap,-2.8398815918,10.3788349609,1.9273651123,0.134723237473,0.269414944764,0.952997691611,-0.0325674386296
2021/03/16/15:06:13.043397,1170,1615903573,42450190,mocap,-2.83984204102,10.3787314453,1.92734765625,0.134774601751,0.269379326512,0.953005267268,-0.0324276521706
2021/03/16/15:06:13.051415,1171,1615903573,52450180,mocap,-2.83980419922,10.3786464844,1.92734899902,0.1347525294,0.26949950007,0.952980788843,-0.0322397502054
2021/03/16/15:06:13.062996,1172,1615903573,62450171,mocap,-2.83976025391,10.3785820312,1.92731628418,0.134948369954,0.269561552157,0.952940078682,-0.0321046247073
2021/03/16/15:06:13.071197,1173,1615903573,72450161,mocap,-2.83975317383,10.3785009766,1.92733410645,0.134871071235,0.26962200333,0.952941908214,-0.0318668385092
2021/03/16/15:06:13.083376,1174,1615903573,82450151,mocap,-2.8397043457,10.3784208984,1.92733288574,0.134849155595,0.269689765455,0.952929617445,-0.0317532361773
2021/03/16/15:06:13.091188,1175,1615903573,92450142,mocap,-2.83969091797,10.3783515625,1.92731176758,0.134907143848,0.269720588112,0.952915192009,-0.031678133507
2021/03/16/15:06:13.103178,1176,1615903573,102450132,mocap,-2.83965087891,10.3782714844,1.92730029297,0.134785085081,0.269778967464,0.95292301852,-0.0314644556887
2021/03/16/15:06:13.111224,1177,1615903573,112450123,mocap,-2.83961816406,10.3781650391,1.92729748535,0.134706711575,0.269772683476,0.952941790936,-0.031284968731
2021/03/16/15:06:13.122081,1178,1615903573,122450113,mocap,-2.83957373047,10.3780869141,1.92727368164,0.134772923632,0.269854139942,0.952913948831,-0.0311447886264
2021/03/16/15:06:13.131164,1179,1615903573,132450104,mocap,-2.83954541016,10.3780166016,1.92728869629,0.13503447441,0.269960003284,0.952851694038,-0.0309990287572
2021/03/16/15:06:13.142084,1180,1615903573,142450094,mocap,-2.83950830078,10.3779199219,1.92730737305,0.134705912516,0.269931573979,0.952916497735,-0.0306826039883
2021/03/16/15:06:13.151217,1181,1615903573,152450085,mocap,-2.83945703125,10.3778085938,1.92730224609,0.134802309487,0.269993720364,0.952889663534,-0.0305454093785
2021/03/16/15:06:13.161911,1182,1615903573,162450075,mocap,-2.83939746094,10.3777099609,1.92728710937,0.134825212986,0.269931057673,0.952908162951,-0.0304206375177
2021/03/16/15:06:13.172761,1183,1615903573,172450066,mocap,-2.83933349609,10.3775712891,1.92730004883,0.134847458813,0.269877247127,0.952931579913,-0.0300638947008
2021/03/16/15:06:13.181272,1184,1615903573,182450056,mocap,-2.83928710937,10.3774541016,1.92734033203,0.134828155981,0.269966558065,0.952917811278,-0.0297837764643
2021/03/16/15:06:13.193192,1185,1615903573,192450047,mocap,-2.83922387695,10.3773339844,1.92733203125,0.134933760501,0.270007431264,0.952901430956,-0.0294575123864
2021/03/16/15:06:13.200964,1186,1615903573,202450037,mocap,-2.83912036133,10.3771894531,1.92733898926,0.135002528657,0.270135300357,0.952867176017,-0.029075361293
2021/03/16/15:06:13.211338,1187,1615903573,212450027,mocap,-2.83900390625,10.3770390625,1.92736157227,0.134870099356,0.270151361937,0.952897068035,-0.0285564958259
2021/03/16/15:06:13.222120,1188,1615903573,222450256,mocap,-2.83891503906,10.3768984375,1.92735119629,0.134988136076,0.270310468924,0.952845274417,-0.0282193996701
2021/03/16/15:06:13.232598,1189,1615903573,232450247,mocap,-2.83881201172,10.3767568359,1.92734191895,0.13508601493,0.270438710086,0.952806302242,-0.0278355584803
2021/03/16/15:06:13.241337,1190,1615903573,242450237,mocap,-2.83871020508,10.3765957031,1.92732568359,0.135318857706,0.270731193523,0.952702061041,-0.0274266143049
2021/03/16/15:06:13.251609,1191,1615903573,252450228,mocap,-2.83856518555,10.3764306641,1.92726867676,0.135679593248,0.270940731502,0.952601758197,-0.0270568735986
2021/03/16/15:06:13.261258,1192,1615903573,262450218,mocap,-2.83844946289,10.37625,1.9272265625,0.135525132209,0.271137544171,0.952580937679,-0.0265881969876
2021/03/16/15:06:13.271581,1193,1615903573,272450209,mocap,-2.83832666016,10.3760673828,1.92723352051,0.135696855428,0.271377346957,0.952500068096,-0.0261593425126
2021/03/16/15:06:13.282437,1194,1615903573,282450199,mocap,-2.83818725586,10.3758632813,1.92722814941,0.135663660475,0.271410657265,0.952507741576,-0.0257025190235
2021/03/16/15:06:13.292760,1195,1615903573,292450190,mocap,-2.83801831055,10.3756386719,1.92718383789,0.13605002592,0.271638518911,0.952395543043,-0.0254096164494
2021/03/16/15:06:13.301215,1196,1615903573,302450180,mocap,-2.83784033203,10.3753828125,1.92715637207,0.136082760259,0.271747394502,0.952371213234,-0.0249782524222
2021/03/16/15:06:13.311457,1197,1615903573,312450171,mocap,-2.83765478516,10.3751044922,1.92713623047,0.136122866313,0.271975261086,0.952314696835,-0.0244282376028
2021/03/16/15:06:13.320992,1198,1615903573,322450161,mocap,-2.83746435547,10.3748027344,1.92711230469,0.136225136992,0.271954935327,0.952315354022,-0.0240559319419
2021/03/16/15:06:13.331168,1199,1615903573,332450151,mocap,-2.83726806641,10.3744746094,1.92709851074,0.136024769568,0.272085261698,0.952321159151,-0.0234796548495
2021/03/16/15:06:13.341610,1200,1615903573,342450142,mocap,-2.8370690918,10.3741269531,1.92709130859,0.136053995139,0.272086444219,0.95232726154,-0.0230449125111
2021/03/16/15:06:13.351146,1201,1615903573,352450132,mocap,-2.83682885742,10.3737470703,1.92706140137,0.135965097677,0.272111448,0.952345005188,-0.022535691433
2021/03/16/15:06:13.362217,1202,1615903573,362450123,mocap,-2.83656420898,10.3733251953,1.92700354004,0.135881836559,0.272110866602,0.952370313567,-0.021967936209
2021/03/16/15:06:13.371208,1203,1615903573,372450113,mocap,-2.83632983398,10.3729130859,1.92698461914,0.135779909972,0.271941413961,0.952443582811,-0.0215150145307
2021/03/16/15:06:13.381301,1204,1615903573,382450104,mocap,-2.83605224609,10.3724404297,1.92691772461,0.135685932047,0.271805129811,0.952504761364,-0.0211182307399
2021/03/16/15:06:13.391060,1205,1615903573,392450094,mocap,-2.83580883789,10.3719755859,1.92691955566,0.13575573404,0.271732398904,0.952522806761,-0.0207892669433
2021/03/16/15:06:13.401054,1206,1615903573,402450085,mocap,-2.83554248047,10.3714667969,1.92692272949,0.135995111123,0.271538868662,0.952547555072,-0.0206184494599
2021/03/16/15:06:13.411207,1207,1615903573,412450075,mocap,-2.83524462891,10.3709589844,1.92696130371,0.136127761267,0.271390748063,0.952578990132,-0.0202377466464
2021/03/16/15:06:13.422776,1208,1615903573,422450066,mocap,-2.83491235352,10.3703857422,1.92693395996,0.136303158883,0.271175007403,0.952624244159,-0.0198143992811
2021/03/16/15:06:13.431291,1209,1615903573,432450056,mocap,-2.83454541016,10.3698173828,1.92695910645,0.136262384364,0.271151640614,0.95264121582,-0.019597845276
2021/03/16/15:06:13.441135,1210,1615903573,442450047,mocap,-2.83414501953,10.3692236328,1.92691455078,0.136463964733,0.271339313706,0.952568337212,-0.0191347902877
2021/03/16/15:06:13.452086,1211,1615903573,452450037,mocap,-2.83373828125,10.3686005859,1.92685302734,0.136507804325,0.271244740284,0.95259661177,-0.0187509923911
2021/03/16/15:06:13.461116,1212,1615903573,462450027,mocap,-2.83336181641,10.3680068359,1.92692443848,0.136706900559,0.271008722389,0.952639393531,-0.01853841272
2021/03/16/15:06:13.471133,1213,1615903573,472450256,mocap,-2.83293847656,10.3673427734,1.9269621582,0.136856020241,0.27079659048,0.952683784421,-0.0182552361564
2021/03/16/15:06:13.481853,1214,1615903573,482450247,mocap,-2.83253540039,10.3666748047,1.92699621582,0.136839550955,0.270792970376,0.952691182702,-0.0180447789473
2021/03/16/15:06:13.491118,1215,1615903573,492450237,mocap,-2.83209448242,10.366,1.92709887695,0.136980003958,0.270688767025,0.952706714211,-0.0177195965454
2021/03/16/15:06:13.502773,1216,1615903573,502450228,mocap,-2.83162158203,10.3652744141,1.92710791016,0.136854275172,0.270545098306,0.952770245304,-0.0174674876667
2021/03/16/15:06:13.511354,1217,1615903573,512450218,mocap,-2.83111669922,10.3645605469,1.92718554688,0.137403321434,0.270137394315,0.952809758506,-0.0173110166251
2021/03/16/15:06:13.522912,1218,1615903573,522450209,mocap,-2.83064648437,10.3638154297,1.92724780273,0.137822063612,0.269912050692,0.952816710095,-0.0171135966965
2021/03/16/15:06:13.531118,1219,1615903573,532450199,mocap,-2.83020166016,10.3630947266,1.92733032227,0.137714059708,0.269618575239,0.95291810057,-0.0169634970997
2021/03/16/15:06:13.542794,1220,1615903573,542450190,mocap,-2.82968164063,10.3623310547,1.92735510254,0.137631197185,0.269372848137,0.953001412994,-0.0168591182877
2021/03/16/15:06:13.551162,1221,1615903573,552450180,mocap,-2.82921972656,10.3615605469,1.92739648437,0.137768713361,0.268898946187,0.953118191366,-0.0166983380443
2021/03/16/15:06:13.562813,1222,1615903573,562450171,mocap,-2.82874658203,10.3607998047,1.92746704102,0.138107737572,0.26854142258,0.953172635623,-0.0165429328857
2021/03/16/15:06:13.571220,1223,1615903573,572450161,mocap,-2.82824169922,10.3600849609,1.9275501709,0.138380750396,0.268358744001,0.9531876434,-0.0163600636073
2021/03/16/15:06:13.582742,1224,1615903573,582450151,mocap,-2.82769677734,10.359265625,1.92742797852,0.138523609421,0.268654730533,0.953095044775,-0.0156745189116
2021/03/16/15:06:13.591256,1225,1615903573,592450142,mocap,-2.82720947266,10.3584472656,1.927375,0.138328241562,0.268427403993,0.953192528693,-0.0153629985538
2021/03/16/15:06:13.602659,1226,1615903573,602450132,mocap,-2.82670922852,10.3576738281,1.92740222168,0.138513773663,0.268268077592,0.953214899107,-0.0150836754983
2021/03/16/15:06:13.610955,1227,1615903573,612450123,mocap,-2.82619238281,10.3568964844,1.92734619141,0.138890261309,0.268082954974,0.953215907405,-0.0148476779481
2021/03/16/15:06:13.622546,1228,1615903573,622450113,mocap,-2.82567041016,10.3560263672,1.92722888184,0.138755658562,0.26762759863,0.95336828879,-0.0145345585725
2021/03/16/15:06:13.631120,1229,1615903573,632450104,mocap,-2.82512939453,10.3551767578,1.92714306641,0.138559394693,0.267422874659,0.953464471054,-0.0138492661259
2021/03/16/15:06:13.642522,1230,1615903573,642450094,mocap,-2.82456542969,10.3543261719,1.9270378418,0.138498796991,0.267108385107,0.953568285121,-0.0133685146566
2021/03/16/15:06:13.651078,1231,1615903573,652450085,mocap,-2.82404150391,10.3534794922,1.92691455078,0.138847139152,0.266710175501,0.953634188609,-0.0129990118038
2021/03/16/15:06:13.662523,1232,1615903573,662450075,mocap,-2.82349951172,10.3526044922,1.92689770508,0.138826112828,0.266469775262,0.953711860589,-0.0124436653921
2021/03/16/15:06:13.671115,1233,1615903573,672450066,mocap,-2.82293554688,10.3517060547,1.92677893066,0.138886369924,0.266483514059,0.953708040419,-0.0117513539776
2021/03/16/15:06:13.682688,1234,1615903573,682450056,mocap,-2.82233447266,10.3507773437,1.92661352539,0.13898232802,0.266484959846,0.953700853146,-0.0111511438122
2021/03/16/15:06:13.691329,1235,1615903573,692450047,mocap,-2.82172412109,10.3498271484,1.92650463867,0.139451553012,0.266026783946,0.953763872748,-0.010839024136
2021/03/16/15:06:13.702489,1236,1615903573,702450037,mocap,-2.82110400391,10.3488847656,1.92645288086,0.139765324102,0.265893772186,0.953761662016,-0.0102393981263
2021/03/16/15:06:13.711076,1237,1615903573,712450027,mocap,-2.82046655273,10.3478857422,1.92633581543,0.140164791901,0.265660138846,0.953773379621,-0.00974001169078
2021/03/16/15:06:13.722455,1238,1615903573,722450256,mocap,-2.81981591797,10.3468623047,1.92625756836,0.140007309054,0.265244194267,0.953917322555,-0.00923121614935
2021/03/16/15:06:13.731025,1239,1615903573,732450247,mocap,-2.81918457031,10.345859375,1.92621887207,0.139761388259,0.264935991244,0.954045898313,-0.00849026418812
2021/03/16/15:06:13.742610,1240,1615903573,742450237,mocap,-2.81853466797,10.3448740234,1.92619433594,0.141036870148,0.265443360349,0.953720625829,-0.00808611613576
2021/03/16/15:06:13.751086,1241,1615903573,752450228,mocap,-2.81781860352,10.3437861328,1.92611853027,0.14111502377,0.264936930163,0.953852243168,-0.00780194478388
2021/03/16/15:06:13.762310,1242,1615903573,762450218,mocap,-2.81720629883,10.3427949219,1.9262857666,0.140301566687,0.265294505731,0.953882455802,-0.00652372561111
2021/03/16/15:06:13.771165,1243,1615903573,772450209,mocap,-2.81656518555,10.3416855469,1.92628820801,0.14151261236,0.265245472781,0.953719469634,-0.00617963710275
2021/03/16/15:06:13.782405,1244,1615903573,782450199,mocap,-2.81588793945,10.3404785156,1.92624780273,0.140993392857,0.264662971352,0.953961505586,-0.00564125627201
2021/03/16/15:06:13.791325,1245,1615903573,792450190,mocap,-2.81524902344,10.3393544922,1.92638696289,0.141145466325,0.265034381802,0.953839026792,-0.00508498504658
2021/03/16/15:06:13.803151,1246,1615903573,802450180,mocap,-2.81451391602,10.338125,1.92633557129,0.141637961578,0.264399935109,0.953941745707,-0.00514703127914
2021/03/16/15:06:13.811226,1247,1615903573,812450171,mocap,-2.81382568359,10.3368701172,1.92635083008,0.141901045865,0.264294643141,0.953933490174,-0.00482968551516
2021/03/16/15:06:13.823109,1248,1615903573,822450161,mocap,-2.81315063477,10.3356171875,1.92634875488,0.141998336622,0.263740407564,0.954073762049,-0.00455176732441
2021/03/16/15:06:13.831457,1249,1615903573,832450151,mocap,-2.81253735352,10.3342333984,1.92635913086,0.14162304383,0.262914170943,0.954357616539,-0.00453858798123
2021/03/16/15:06:13.842823,1250,1615903573,842450142,mocap,-2.81189379883,10.3328740234,1.92631872559,0.141993698289,0.262703647596,0.9543618791,-0.00424149868236
2021/03/16/15:06:13.851225,1251,1615903573,852450132,mocap,-2.81121801758,10.3313857422,1.92617773437,0.141876312654,0.262334198251,0.954481465073,-0.00412446040709
2021/03/16/15:06:13.863015,1252,1615903573,862450123,mocap,-2.81049682617,10.3299208984,1.92611010742,0.141683169368,0.26205313321,0.95458765054,-0.00405724718584
2021/03/16/15:06:13.871274,1253,1615903573,872450113,mocap,-2.80985302734,10.3284101562,1.92598693848,0.141381740333,0.261663247668,0.954740047101,-0.00387205384064
2021/03/16/15:06:13.882998,1254,1615903573,882450104,mocap,-2.80921948242,10.3268496094,1.92575878906,0.141478086749,0.260598607051,0.955015465177,-0.00421665606919
2021/03/16/15:06:13.891247,1255,1615903573,892450094,mocap,-2.8085637207,10.3252333984,1.92556469727,0.141380849808,0.260666314534,0.955011556603,-0.00417799904008
2021/03/16/15:06:13.902835,1256,1615903573,902450085,mocap,-2.80788964844,10.3235878906,1.92521386719,0.140789177443,0.259950136802,0.955294110736,-0.00418220131284
2021/03/16/15:06:13.911355,1257,1615903573,912450075,mocap,-2.80716821289,10.3219179688,1.92476123047,0.140351682952,0.259846921478,0.955386925139,-0.00409768239588
2021/03/16/15:06:13.922484,1258,1615903573,922450066,mocap,-2.80645581055,10.3201943359,1.92429577637,0.140426997699,0.259503839625,0.95546769854,-0.00441680358705
2021/03/16/15:06:13.930952,1259,1615903573,932450056,mocap,-2.80582373047,10.3185683594,1.92390869141,0.140616123659,0.259360710256,0.955478155381,-0.00454055234162
2021/03/16/15:06:13.942766,1260,1615903573,942450047,mocap,-2.80515380859,10.3167480469,1.92315710449,0.139947603097,0.25966852459,0.955494631887,-0.00411666969524
2021/03/16/15:06:13.951272,1261,1615903573,952450037,mocap,-2.80454711914,10.3149990234,1.92251208496,0.140174400831,0.259541762788,0.955494444744,-0.00442429432576
2021/03/16/15:06:13.962814,1262,1615903573,962450027,mocap,-2.80390161133,10.3131699219,1.92175109863,0.140147506794,0.260256247107,0.955304655268,-0.00428736201425
2021/03/16/15:06:13.971145,1263,1615903573,972450256,mocap,-2.80326586914,10.3112724609,1.92087585449,0.139497950821,0.260686156783,0.955283948255,-0.00395205424794
2021/03/16/15:06:13.982708,1264,1615903573,982450247,mocap,-2.80263549805,10.3093164062,1.92003125,0.14005038908,0.260864325131,0.955153479851,-0.00418629605332
2021/03/16/15:06:13.991292,1265,1615903573,992450237,mocap,-2.80201831055,10.3072919922,1.91923535156,0.140268401087,0.261265394326,0.955012305552,-0.00408250473588
2021/03/16/15:06:14.002735,1266,1615903574,2450228,mocap,-2.80146630859,10.3051503906,1.91846264648,0.139572210635,0.261594203092,0.95502647307,-0.00353632785324
2021/03/16/15:06:14.011082,1267,1615903574,12450218,mocap,-2.80094360352,10.3029130859,1.91776733398,0.139829331249,0.261562406074,0.954998067609,-0.00340093751908
2021/03/16/15:06:14.021167,1268,1615903574,22450209,mocap,-2.80042236328,10.3005488281,1.91697314453,0.139112326654,0.261457719581,0.955132925572,-0.00295239847955
2021/03/16/15:06:14.031599,1269,1615903574,32450199,mocap,-2.79997558594,10.2982099609,1.91632824707,0.139487561739,0.260868330655,0.955238976225,-0.00307045850077
2021/03/16/15:06:14.041110,1270,1615903574,42450190,mocap,-2.79950878906,10.29575,1.91555163574,0.14028416836,0.261462762455,0.954960626657,-0.00278634335914
2021/03/16/15:06:14.052672,1271,1615903574,52450180,mocap,-2.7990612793,10.293171875,1.91464001465,0.13959427072,0.261291630445,0.955109484573,-0.00244853984364
2021/03/16/15:06:14.061146,1272,1615903574,62450171,mocap,-2.79871679687,10.2906279297,1.91396252441,0.140338778419,0.261327694637,0.954990648191,-0.00239175341265
2021/03/16/15:06:14.072360,1273,1615903574,72450161,mocap,-2.79833154297,10.2879384766,1.91325305176,0.139898638701,0.261657110305,0.954966290875,-0.00182141918131
2021/03/16/15:06:14.081074,1274,1615903574,82450151,mocap,-2.79801489258,10.2851044922,1.91269177246,0.140122080629,0.261607477796,0.954947823527,-0.00140767297152
2021/03/16/15:06:14.092448,1275,1615903574,92450142,mocap,-2.79775756836,10.282140625,1.91222583008,0.140488107772,0.261245049872,0.95499358944,-0.00116827058225
2021/03/16/15:06:14.101107,1276,1615903574,102450132,mocap,-2.79750024414,10.2789873047,1.91182495117,0.140761653699,0.260126144598,0.955258701471,-0.00117010682643
2021/03/16/15:06:14.112431,1277,1615903574,112450123,mocap,-2.79735961914,10.27578125,1.91172412109,0.140273859615,0.259115625819,0.955605452982,-0.000752548397664
2021/03/16/15:06:14.120969,1278,1615903574,122450113,mocap,-2.79726074219,10.2724335937,1.91169824219,0.141333176155,0.257707037838,0.955830073249,-0.000936888047472
2021/03/16/15:06:14.132536,1279,1615903574,132450104,mocap,-2.79715014648,10.2689052734,1.9116373291,0.141255560444,0.256637600129,0.956129575764,-0.000485751373567
2021/03/16/15:06:14.141292,1280,1615903574,142450094,mocap,-2.797109375,10.2653613281,1.9117388916,0.141413421639,0.254526751138,0.956670389456,-0.000385172749824
2021/03/16/15:06:14.150970,1281,1615903574,152450085,mocap,-2.79708886719,10.2616396484,1.91175524902,0.141439889001,0.253050198282,0.957058170485,8.46021559965e-05
2021/03/16/15:06:14.162280,1282,1615903574,162450075,mocap,-2.79712939453,10.2579746094,1.91191259766,0.142108855447,0.251401625286,0.957393476484,0.000111271140484
2021/03/16/15:06:14.171367,1283,1615903574,172450066,mocap,-2.79715942383,10.2541777344,1.91191589355,0.142004356836,0.250150620238,0.957736506722,0.000463823166264
2021/03/16/15:06:14.180941,1284,1615903574,182450056,mocap,-2.79720849609,10.2503300781,1.91180822754,0.142097609646,0.248751272755,0.958086747428,0.000926230171704
2021/03/16/15:06:14.192036,1285,1615903574,192450047,mocap,-2.79738989258,10.2465253906,1.91184558105,0.142030173838,0.247853677356,0.95832887766,0.00132135171119
2021/03/16/15:06:14.201149,1286,1615903574,202450037,mocap,-2.79751367187,10.2426542969,1.91168457031,0.142364400938,0.246822356522,0.958544869331,0.00168458991458
2021/03/16/15:06:14.212830,1287,1615903574,212450027,mocap,-2.79772802734,10.2387275391,1.91147680664,0.141942057582,0.24626757456,0.958748743822,0.00236252489056
2021/03/16/15:06:14.221005,1288,1615903574,222450256,mocap,-2.79798730469,10.2347402344,1.91121887207,0.141428147252,0.245968268259,0.958899018321,0.00321813896646
2021/03/16/15:06:14.233110,1289,1615903574,232450247,mocap,-2.79829833984,10.2307939453,1.91098461914,0.141762653362,0.245593197051,0.95894461897,0.00354343933031
2021/03/16/15:06:14.241142,1290,1615903574,242450237,mocap,-2.79859350586,10.2266845703,1.91059020996,0.141072558,0.245672770457,0.959022326991,0.00442768606679
2021/03/16/15:06:14.252058,1291,1615903574,252450228,mocap,-2.79887646484,10.2225644531,1.91012768555,0.141108169369,0.245955430202,0.958942132707,0.0049387024826
2021/03/16/15:06:14.262813,1292,1615903574,262450218,mocap,-2.7992644043,10.2184189453,1.90969555664,0.140782501216,0.245771448244,0.959033677335,0.00557518380337
2021/03/16/15:06:14.271136,1293,1615903574,272450209,mocap,-2.79964404297,10.2141269531,1.90906970215,0.139920489363,0.24650438415,0.958965549945,0.00655164488467
2021/03/16/15:06:14.281859,1294,1615903574,282450199,mocap,-2.8000625,10.2097929687,1.9084798584,0.139606057445,0.246936990761,0.958895615085,0.00717477817293
2021/03/16/15:06:14.293108,1295,1615903574,292450190,mocap,-2.8005065918,10.2053974609,1.90791845703,0.139677319606,0.247305835089,0.958787412286,0.00753427222053
2021/03/16/15:06:14.303117,1296,1615903574,302450180,mocap,-2.80093261719,10.2008632812,1.90719274902,0.139377329001,0.247797611587,0.95869865745,0.00819704318515
2021/03/16/15:06:14.311444,1297,1615903574,312450171,mocap,-2.80141357422,10.1962353516,1.90651123047,0.138391481028,0.248458035688,0.958662713329,0.00906654619941
2021/03/16/15:06:14.321851,1298,1615903574,322450161,mocap,-2.80187890625,10.1915136719,1.90576013184,0.138494293341,0.248920503692,0.95852306637,0.00956248125003
2021/03/16/15:06:14.332807,1299,1615903574,332450151,mocap,-2.80231835938,10.1866826172,1.90498596191,0.138344137357,0.249778559498,0.958317052489,0.00999995335297
2021/03/16/15:06:14.341154,1300,1615903574,342450142,mocap,-2.80282324219,10.1817294922,1.90422155762,0.137846236897,0.250212441996,0.958268327512,0.0106752493395
2021/03/16/15:06:14.352695,1301,1615903574,352450132,mocap,-2.80332568359,10.1767080078,1.90343884277,0.137661030378,0.25113957448,0.958045538763,0.0112734067781
2021/03/16/15:06:14.361617,1302,1615903574,362450123,mocap,-2.80383227539,10.1715996094,1.90269238281,0.138456272747,0.251984139039,0.957707084717,0.011444942052
2021/03/16/15:06:14.370945,1303,1615903574,372450113,mocap,-2.80431274414,10.1662861328,1.90175524902,0.137983313163,0.252934494652,0.957514146695,0.0123047428835
2021/03/16/15:06:14.382703,1304,1615903574,382450104,mocap,-2.80490087891,10.1609033203,1.90090148926,0.137380919151,0.253317792271,0.957493098398,0.0127884000238
2021/03/16/15:06:14.391347,1305,1615903574,392450094,mocap,-2.80539941406,10.1554257813,1.90007092285,0.137323171058,0.254196218038,0.957260088907,0.0134069770884
2021/03/16/15:06:14.402472,1306,1615903574,402450085,mocap,-2.80597143555,10.1498085938,1.8991887207,0.137537427026,0.255192284665,0.956955490228,0.0140192259711
2021/03/16/15:06:14.411049,1307,1615903574,412450075,mocap,-2.80661157227,10.1441152344,1.89836669922,0.137405908589,0.255686884419,0.956837895382,0.0143203638941
2021/03/16/15:06:14.422718,1308,1615903574,422450066,mocap,-2.80717822266,10.1382558594,1.89756970215,0.137256812149,0.256782014311,0.956555501282,0.0150049287321
2021/03/16/15:06:14.431233,1309,1615903574,432450056,mocap,-2.80777246094,10.1323105469,1.89669995117,0.138022647308,0.257668079963,0.956203975069,0.0151947227436
2021/03/16/15:06:14.442411,1310,1615903574,442450047,mocap,-2.808421875,10.1261611328,1.89578601074,0.138056493636,0.25861185734,0.95594143221,0.0153717837033
2021/03/16/15:06:14.451030,1311,1615903574,452450037,mocap,-2.80909350586,10.1200058594,1.89509973145,0.137515872716,0.259491429638,0.955769247866,0.0160848374189
2021/03/16/15:06:14.462400,1312,1615903574,462450027,mocap,-2.80976220703,10.1136894531,1.89430578613,0.138033076921,0.260393802853,0.955448055589,0.0161536365101
2021/03/16/15:06:14.471131,1313,1615903574,472450256,mocap,-2.81057983398,10.1072431641,1.89367834473,0.137830543708,0.261009849003,0.955306940421,0.0162864829332
2021/03/16/15:06:14.482431,1314,1615903574,482450247,mocap,-2.81129980469,10.1007041016,1.89301611328,0.138585142146,0.261574942089,0.955048402663,0.015976835503
2021/03/16/15:06:14.491953,1315,1615903574,492450237,mocap,-2.81214282227,10.0940742188,1.89247900391,0.138186177981,0.26241616304,0.954870314506,0.0162792376114
2021/03/16/15:06:14.501050,1316,1615903574,502450228,mocap,-2.81297851562,10.0873056641,1.89190820313,0.138647410299,0.26251883481,0.954779509998,0.0160266467746
2021/03/16/15:06:14.511111,1317,1615903574,512450218,mocap,-2.81386401367,10.0804462891,1.89151257324,0.138524352787,0.263100951063,0.954638733063,0.0159308321033
2021/03/16/15:06:14.522282,1318,1615903574,522450209,mocap,-2.81488037109,10.0735195312,1.89112268066,0.138185620908,0.263747496086,0.954506826084,0.0160845273766
2021/03/16/15:06:14.531011,1319,1615903574,532450199,mocap,-2.81578442383,10.0665185547,1.89091491699,0.137937354049,0.264293911979,0.954392364446,0.0160387481971
2021/03/16/15:06:14.542474,1320,1615903574,542450190,mocap,-2.81686425781,10.059421875,1.89069311523,0.137642057126,0.264768387728,0.954307026444,0.0158255396943
2021/03/16/15:06:14.550967,1321,1615903574,552450180,mocap,-2.81781616211,10.0522226563,1.89057397461,0.137771602188,0.265026941192,0.954221485609,0.0155263144567
2021/03/16/15:06:14.563080,1322,1615903574,562450171,mocap,-2.81888256836,10.0449414063,1.89054174805,0.137504693767,0.265524995487,0.954129799432,0.0150081620513
2021/03/16/15:06:14.571374,1323,1615903574,572450161,mocap,-2.81990380859,10.0376142578,1.89079309082,0.13716478314,0.266125169811,0.954011457985,0.0150118775928
2021/03/16/15:06:14.581048,1324,1615903574,582450151,mocap,-2.8210793457,10.0302636719,1.89122021484,0.136839259023,0.267425167666,0.953699517245,0.0146979192247
2021/03/16/15:06:14.591026,1325,1615903574,592450142,mocap,-2.82216235352,10.0228330078,1.89197631836,0.136352268007,0.268178686393,0.953561135862,0.0144711617503
2021/03/16/15:06:14.603067,1326,1615903574,602450132,mocap,-2.8233112793,10.0153085937,1.89297119141,0.137161113481,0.269414320612,0.953106536061,0.013808728989
2021/03/16/15:06:14.611028,1327,1615903574,612450123,mocap,-2.82441015625,10.0076289062,1.8940579834,0.136229525367,0.269622478076,0.953187604318,0.0133646683764
2021/03/16/15:06:14.622991,1328,1615903574,622450113,mocap,-2.8254284668,9.99988671875,1.89529064941,0.136583775141,0.270063274607,0.953028001696,0.0121787419376
2021/03/16/15:06:14.631184,1329,1615903574,632450104,mocap,-2.82651586914,9.99202539063,1.89657250977,0.137113898686,0.27013706002,0.95294509034,0.0110183685433
2021/03/16/15:06:14.642964,1330,1615903574,642450094,mocap,-2.82756030273,9.98423730469,1.89810351562,0.137821127376,0.270820882097,0.952664138814,0.0096138690182
2021/03/16/15:06:14.651391,1331,1615903574,652450085,mocap,-2.82868798828,9.97638574219,1.89989916992,0.137906247188,0.271694148877,0.952414763935,0.00838322730767
2021/03/16/15:06:14.662997,1332,1615903574,662450075,mocap,-2.82984326172,9.96850488281,1.90176708984,0.137610051826,0.271658038104,0.952477078575,0.00726599865046
2021/03/16/15:06:14.671060,1333,1615903574,672450066,mocap,-2.83093823242,9.96043359375,1.90369787598,0.137865245934,0.271329401806,0.952544262113,0.00574027458205
2021/03/16/15:06:14.683028,1334,1615903574,682450056,mocap,-2.83199414062,9.95240136719,1.90569921875,0.137886023509,0.270513896925,0.952782749263,0.00383497389658
2021/03/16/15:06:14.691346,1335,1615903574,692450047,mocap,-2.8330559082,9.94431640625,1.90751879883,0.137688164394,0.269109182585,0.95321457864,0.0020466311507
2021/03/16/15:06:14.702830,1336,1615903574,702450037,mocap,-2.83402685547,9.93624804688,1.90929260254,0.138693976601,0.268159204677,0.953338622558,-0.000296174566099
2021/03/16/15:06:14.712827,1337,1615903574,712450027,mocap,-2.83502172852,9.92821875,1.91080957031,0.138110152486,0.266694156202,0.953831489002,-0.00230085517701
2021/03/16/15:06:14.721288,1338,1615903574,722450256,mocap,-2.83597509766,9.92031152344,1.91221838379,0.138831961026,0.266041832404,0.953901592059,-0.00437948754894
2021/03/16/15:06:14.732682,1339,1615903574,732450247,mocap,-2.83691308594,9.91253710938,1.91336169434,0.139199060189,0.265526258665,0.953980921417,-0.00631231337318
2021/03/16/15:06:14.741258,1340,1615903574,742450237,mocap,-2.83778930664,9.90486035156,1.91423535156,0.139567894849,0.265053342395,0.954041884244,-0.00846254986367
2021/03/16/15:06:14.752650,1341,1615903574,752450228,mocap,-2.83865356445,9.8972734375,1.9148536377,0.13915733128,0.264755906599,0.95416735107,-0.0102081610174
2021/03/16/15:06:14.762850,1342,1615903574,762450218,mocap,-2.8395,9.88982128906,1.91539953613,0.138142391572,0.265789232378,0.954013285462,-0.0114638521056
2021/03/16/15:06:14.771285,1343,1615903574,772450209,mocap,-2.8404296875,9.88248339844,1.91589135742,0.138183612949,0.267156817448,0.953610992038,-0.0125936770457
2021/03/16/15:06:14.782622,1344,1615903574,782450199,mocap,-2.84121484375,9.87512304688,1.91597644043,0.13814825912,0.268004933058,0.953360801983,-0.0138416411726
2021/03/16/15:06:14.791274,1345,1615903574,792450190,mocap,-2.84202978516,9.86781640625,1.9160123291,0.13745594197,0.269407771781,0.953048452837,-0.014965770738
2021/03/16/15:06:14.801287,1346,1615903574,802450180,mocap,-2.84278198242,9.86053417969,1.91613452148,0.136635695037,0.270899303225,0.952722245468,-0.0162656435702
2021/03/16/15:06:14.811173,1347,1615903574,812450171,mocap,-2.84350537109,9.85323925781,1.91612084961,0.136347490321,0.272737999546,0.952216098044,-0.0175457443848
2021/03/16/15:06:14.821842,1348,1615903574,822450161,mocap,-2.84422387695,9.84592480469,1.9161706543,0.13563738803,0.274487095698,0.951798140816,-0.018428901897
2021/03/16/15:06:14.831081,1349,1615903574,832450151,mocap,-2.84482470703,9.83849902344,1.91624047852,0.135763969461,0.275910286822,0.951335728375,-0.0200497507046
2021/03/16/15:06:14.842626,1350,1615903574,842450142,mocap,-2.84537915039,9.83102734375,1.91646350098,0.135148664444,0.27652607639,0.951210608663,-0.0215997154158
2021/03/16/15:06:14.850990,1351,1615903574,852450132,mocap,-2.84585913086,9.82345214844,1.91667687988,0.134653223788,0.278427844394,0.950700427643,-0.0226965060818
2021/03/16/15:06:14.862371,1352,1615903574,862450123,mocap,-2.84630639648,9.81580273437,1.91711437988,0.133813112021,0.279462711518,0.950482081142,-0.024051037808
2021/03/16/15:06:14.871032,1353,1615903574,872450113,mocap,-2.8466640625,9.80800292969,1.9175345459,0.134036036414,0.279604146639,0.950367416995,-0.025644130915
2021/03/16/15:06:14.882158,1354,1615903574,882450104,mocap,-2.84697021484,9.80015234375,1.91807141113,0.133352892466,0.27980796696,0.950370278476,-0.0268483363336
2021/03/16/15:06:14.891305,1355,1615903574,892450094,mocap,-2.84730004883,9.79220605469,1.91873486328,0.133547589811,0.279785251024,0.950304172157,-0.0284116667964
2021/03/16/15:06:14.902160,1356,1615903574,902450085,mocap,-2.8474987793,9.78415820312,1.91954626465,0.133304044074,0.279706761997,0.950320503166,-0.0297505694871
2021/03/16/15:06:14.911132,1357,1615903574,912450075,mocap,-2.84765649414,9.77599316406,1.92024755859,0.133427420794,0.278824910763,0.950516798281,-0.0311704514444
2021/03/16/15:06:14.922279,1358,1615903574,922450066,mocap,-2.84774414063,9.76770019531,1.92100109863,0.132872668336,0.277574679788,0.950916302946,-0.0324860559318
2021/03/16/15:06:14.931104,1359,1615903574,932450056,mocap,-2.84778613281,9.75945019531,1.92195300293,0.132983956075,0.276883821837,0.951057145173,-0.0337774421158
2021/03/16/15:06:14.942047,1360,1615903574,942450047,mocap,-2.84778881836,9.75102929688,1.92270166016,0.133632264936,0.275409491151,0.951327035143,-0.0356214420006
2021/03/16/15:06:14.951184,1361,1615903574,952450037,mocap,-2.84773364258,9.74260839844,1.92350061035,0.133610025819,0.274555069051,0.95152982521,-0.0368628393317
2021/03/16/15:06:14.961009,1362,1615903574,962450027,mocap,-2.84759960938,9.73403710938,1.92414013672,0.133948424499,0.273101774883,0.951832739505,-0.0385704023179
2021/03/16/15:06:14.973288,1363,1615903574,972450256,mocap,-2.84738916016,9.72547363281,1.92463745117,0.134583529863,0.272256303009,0.951927848108,-0.0399643814804
2021/03/16/15:06:14.981111,1364,1615903574,982450247,mocap,-2.84713378906,9.71690332031,1.92511804199,0.135325710924,0.270977955317,0.952116268299,-0.0416234742519
2021/03/16/15:06:14.993184,1365,1615903574,992450237,mocap,-2.84682885742,9.70828222656,1.92541699219,0.136386711275,0.269905701632,0.952190089171,-0.0434006245811
2021/03/16/15:06:15.001193,1366,1615903575,2450228,mocap,-2.84651660156,9.69957714844,1.92549365234,0.137107833661,0.269354697033,0.952168868408,-0.0449883043516
2021/03/16/15:06:15.012785,1367,1615903575,12450218,mocap,-2.84618286133,9.6909609375,1.92554943848,0.138173968691,0.268283245899,0.952236331893,-0.0466694179264
2021/03/16/15:06:15.020815,1368,1615903575,22450209,mocap,-2.84582324219,9.68223144531,1.92535510254,0.139242032143,0.267729332216,0.952169126628,-0.0480272558016
2021/03/16/15:06:15.032868,1369,1615903575,32450199,mocap,-2.84548144531,9.67347851562,1.92500170898,0.140554178828,0.267396377124,0.952001026187,-0.0493735503457
2021/03/16/15:06:15.041594,1370,1615903575,42450190,mocap,-2.84508642578,9.66477734375,1.9245222168,0.141622067337,0.267160415216,0.95184772927,-0.0505410975543
2021/03/16/15:06:15.052749,1371,1615903575,52450180,mocap,-2.84473486328,9.65603710937,1.92392895508,0.142043430167,0.267636511435,0.951614621494,-0.051224736457
2021/03/16/15:06:15.061050,1372,1615903575,62450171,mocap,-2.8444152832,9.64723632813,1.92309570312,0.143035854278,0.267712340669,0.951395200483,-0.0521346102387
2021/03/16/15:06:15.072611,1373,1615903575,72450161,mocap,-2.84407763672,9.638390625,1.92202612305,0.144264421642,0.267961230964,0.951093885918,-0.0529620055503
2021/03/16/15:06:15.081355,1374,1615903575,82450151,mocap,-2.84371313477,9.62954394531,1.92090625,0.145230917619,0.268611964418,0.950736531732,-0.0534381709539
2021/03/16/15:06:15.090984,1375,1615903575,92450142,mocap,-2.84333886719,9.62063476563,1.91953125,0.145920509503,0.269012549513,0.950504883759,-0.0536649124758
2021/03/16/15:06:15.102960,1376,1615903575,102450132,mocap,-2.84298168945,9.61160546875,1.91790039063,0.147316500553,0.269318777549,0.950173741377,-0.0541766009164
2021/03/16/15:06:15.111030,1377,1615903575,112450123,mocap,-2.84257446289,9.60262988281,1.9162989502,0.146964602192,0.270368567378,0.949940418897,-0.053994791682
2021/03/16/15:06:15.122617,1378,1615903575,122450113,mocap,-2.84219970703,9.59355371094,1.9145604248,0.148794979611,0.271345222929,0.949358572689,-0.0543149439975
2021/03/16/15:06:15.131049,1379,1615903575,132450104,mocap,-2.84179199219,9.58439453125,1.91261938477,0.149495885836,0.272302584145,0.94897771059,-0.0542548688104
2021/03/16/15:06:15.142833,1380,1615903575,142450094,mocap,-2.84142895508,9.57520410156,1.91066015625,0.150230865538,0.273124750033,0.948635605071,-0.0540744915774
