time,.header.seq,.header.stamp.secs,.header.stamp.nsecs,.header.frame_id,.pose.position.x,.pose.position.y,.pose.position.z,.pose.orientation.x,.pose.orientation.y,.pose.orientation.z,.pose.orientation.w
2021/03/16/14:38:25.814641,878817,1615901905,818171024,mocap,-2.77475610352,10.3648574219,1.93347570801,0.160002731348,0.206119142835,0.965286192049,0.0116875119835
2021/03/16/14:38:25.826081,878818,1615901905,828171015,mocap,-2.77487524414,10.3649150391,1.93347509766,0.160088577548,0.205979803987,0.965298147962,0.0119767106881
2021/03/16/14:38:25.834612,878819,1615901905,838171005,mocap,-2.77499609375,10.3650019531,1.93347387695,0.160025574422,0.205952622535,0.965309493979,0.0123657331153
2021/03/16/14:38:25.846015,878820,1615901905,848170996,mocap,-2.77513232422,10.365078125,1.93349511719,0.160096693221,0.205946281283,0.965294682384,0.0127028245997
2021/03/16/14:38:25.854217,878821,1615901905,858170986,mocap,-2.77525170898,10.3651611328,1.93347058105,0.160128445605,0.205827913579,0.965311068518,0.0129729933282
2021/03/16/14:38:25.866006,878822,1615901905,868170977,mocap,-2.77537573242,10.3652666016,1.93349816895,0.160227474184,0.205705853906,0.965318539824,0.0131293517224
2021/03/16/14:38:25.874228,878823,1615901905,878171206,mocap,-2.77550244141,10.3653613281,1.93351135254,0.160249702768,0.205770181894,0.965297013353,0.0134288968533
2021/03/16/14:38:25.885790,878824,1615901905,888171196,mocap,-2.77556030273,10.3654765625,1.93341540527,0.160047096748,0.20579231721,0.96531957407,0.0138772662693
2021/03/16/14:38:25.894322,878825,1615901905,898171186,mocap,-2.77568457031,10.365578125,1.93340588379,0.160127632039,0.205764561886,0.965310342996,0.0140011826041
2021/03/16/14:38:25.904917,878826,1615901905,908171177,mocap,-2.77581201172,10.3657080078,1.93341687012,0.160039909172,0.205546727445,0.96536707103,0.0142895051441
2021/03/16/14:38:25.914514,878827,1615901905,918171167,mocap,-2.77592456055,10.3658134766,1.93340588379,0.160070811181,0.205669967877,0.965333374208,0.0144453518259
2021/03/16/14:38:25.925985,878828,1615901905,928171158,mocap,-2.77605053711,10.3659423828,1.93340942383,0.16011972376,0.205715420201,0.965312511843,0.0146488253583
2021/03/16/14:38:25.934316,878829,1615901905,938171148,mocap,-2.77615454102,10.3660722656,1.93339709473,0.159948196257,0.205753191725,0.965328743311,0.0149205262097
2021/03/16/14:38:25.944885,878830,1615901905,948171139,mocap,-2.77626879883,10.3661982422,1.93341467285,0.159880075721,0.205700088854,0.965349759685,0.0150224139001
2021/03/16/14:38:25.954194,878831,1615901905,958171129,mocap,-2.77634643555,10.3663173828,1.93339172363,0.159846820338,0.205706558004,0.965352360652,0.0151200581044
2021/03/16/14:38:25.965930,878832,1615901905,968171120,mocap,-2.77646533203,10.3664472656,1.93338891602,0.159837187723,0.205850346469,0.965322344919,0.0151813652718
2021/03/16/14:38:25.974068,878833,1615901905,978171110,mocap,-2.77655444336,10.3665791016,1.9333951416,0.159747333174,0.205900363725,0.965323271106,0.0153891175598
2021/03/16/14:38:25.984782,878834,1615901905,988171101,mocap,-2.77662524414,10.3666728516,1.93335546875,0.159826698482,0.206001563991,0.965286963901,0.0154877697525
2021/03/16/14:38:25.994354,878835,1615901905,998171091,mocap,-2.77674169922,10.3668115234,1.93337841797,0.159861313986,0.206127402252,0.96525206787,0.0156298846092
2021/03/16/14:38:26.005698,878836,1615901906,8171082,mocap,-2.77682421875,10.3669482422,1.93340270996,0.159910958966,0.206203350249,0.965225244693,0.0157763567833
2021/03/16/14:38:26.014632,878837,1615901906,18171072,mocap,-2.77686694336,10.3670664063,1.93336242676,0.159989709503,0.206279612239,0.965194082558,0.0158868616808
2021/03/16/14:38:26.025824,878838,1615901906,28171062,mocap,-2.77692773438,10.3672236328,1.93338586426,0.159987006335,0.206509514348,0.965141374036,0.0161278633903
2021/03/16/14:38:26.034431,878839,1615901906,38171053,mocap,-2.77703198242,10.36734375,1.93342468262,0.160162126314,0.206555607649,0.965100582395,0.0162401155286
2021/03/16/14:38:26.045736,878840,1615901906,48171043,mocap,-2.77706445312,10.3674707031,1.93342358398,0.159986469439,0.206712354765,0.96509077794,0.0165565365955
2021/03/16/14:38:26.054586,878841,1615901906,58171034,mocap,-2.77710302734,10.3676083984,1.93342175293,0.160344161182,0.206763859594,0.965020491748,0.0165502293198
2021/03/16/14:38:26.065506,878842,1615901906,68171024,mocap,-2.77717016602,10.3677207031,1.9334465332,0.16025422937,0.206870970176,0.965009065126,0.0167481205358
2021/03/16/14:38:26.075114,878843,1615901906,78171015,mocap,-2.77720166016,10.3678330078,1.93346057129,0.160308318959,0.207019067389,0.964965202626,0.016926443667
2021/03/16/14:38:26.085282,878844,1615901906,88171005,mocap,-2.77721704102,10.3679277344,1.93344726562,0.160447658605,0.206991098418,0.96494488051,0.0171059891221
2021/03/16/14:38:26.094072,878845,1615901906,98170996,mocap,-2.77726123047,10.3680380859,1.93349279785,0.160595267727,0.207108776035,0.964892583067,0.0172460790754
2021/03/16/14:38:26.105556,878846,1615901906,108170986,mocap,-2.77729052734,10.3681240234,1.93350598145,0.160594887261,0.2070925135,0.964894637028,0.017329784645
2021/03/16/14:38:26.114442,878847,1615901906,118170977,mocap,-2.77730371094,10.3682070312,1.93350170898,0.160732453717,0.207106830225,0.964864846435,0.0175404033898
2021/03/16/14:38:26.125762,878848,1615901906,128171206,mocap,-2.7773203125,10.3682939453,1.9335369873,0.160771687388,0.207219882679,0.964831533625,0.0176775618417
2021/03/16/14:38:26.134509,878849,1615901906,138171196,mocap,-2.7773269043,10.3683349609,1.93352294922,0.160852883199,0.207252694692,0.964808343709,0.0178193181544
2021/03/16/14:38:26.144279,878850,1615901906,148171186,mocap,-2.77731567383,10.3684091797,1.93350939941,0.160799599037,0.207268799535,0.964809548393,0.0180460013994
2021/03/16/14:38:26.155514,878851,1615901906,158171177,mocap,-2.77734912109,10.3684746094,1.93355651855,0.160832756021,0.207219356806,0.964813919224,0.0180851218927
2021/03/16/14:38:26.164094,878852,1615901906,168171167,mocap,-2.77733300781,10.3685175781,1.93353564453,0.160830432608,0.207345886419,0.96478255074,0.0183269999844
2021/03/16/14:38:26.175457,878853,1615901906,178171158,mocap,-2.77732202148,10.3685556641,1.93351940918,0.161017762528,0.207252567475,0.964770542101,0.0183699295045
2021/03/16/14:38:26.184763,878854,1615901906,188171148,mocap,-2.7773046875,10.3685947266,1.93353942871,0.160945197042,0.20730495426,0.964768294809,0.018532194075
2021/03/16/14:38:26.195376,878855,1615901906,198171139,mocap,-2.77728735352,10.3686318359,1.93355688477,0.160875896759,0.20728554006,0.964779901902,0.0187455716195
2021/03/16/14:38:26.204431,878856,1615901906,208171129,mocap,-2.7772590332,10.3686552734,1.93354504395,0.161113179073,0.207214182278,0.964756787972,0.0186858889454
2021/03/16/14:38:26.214251,878857,1615901906,218171120,mocap,-2.77721362305,10.3686787109,1.93352807617,0.161170925017,0.207253435973,0.964736337899,0.0188078645414
2021/03/16/14:38:26.225482,878858,1615901906,228171110,mocap,-2.77716333008,10.3686884766,1.9335333252,0.161120014481,0.207060512014,0.964785083732,0.0188685540496
2021/03/16/14:38:26.234262,878859,1615901906,238171101,mocap,-2.77710668945,10.3687109375,1.93353918457,0.161255529862,0.207092234312,0.96475717411,0.018789906456
2021/03/16/14:38:26.245443,878860,1615901906,248171091,mocap,-2.77703857422,10.3687294922,1.93353503418,0.161374708196,0.207040126538,0.964747288936,0.0188482702464
2021/03/16/14:38:26.254564,878861,1615901906,258171082,mocap,-2.77697387695,10.3687421875,1.93353881836,0.161285253134,0.207069807329,0.964752748962,0.0190077950428
2021/03/16/14:38:26.266343,878862,1615901906,268171072,mocap,-2.77689160156,10.3687734375,1.93350305176,0.161643051542,0.207250115922,0.964655483272,0.0189396231205
2021/03/16/14:38:26.275342,878863,1615901906,278171062,mocap,-2.77681787109,10.3687939453,1.93353063965,0.161527072962,0.2072410413,0.964675649293,0.0190009878876
2021/03/16/14:38:26.286434,878864,1615901906,288171053,mocap,-2.77673974609,10.3688203125,1.93352966309,0.161674188463,0.207445683021,0.9646025136,0.0192282302217
2021/03/16/14:38:26.294315,878865,1615901906,298171043,mocap,-2.77663549805,10.3687998047,1.93348510742,0.161732926862,0.207401879908,0.964603772609,0.0191437844332
2021/03/16/14:38:26.305946,878866,1615901906,308171034,mocap,-2.77653808594,10.3688007813,1.93350012207,0.161932106286,0.207616288511,0.964522281174,0.0192419443333
2021/03/16/14:38:26.314918,878867,1615901906,318171024,mocap,-2.77645629883,10.3688027344,1.93348815918,0.161969593019,0.207569708641,0.964525046589,0.0192899106556
2021/03/16/14:38:26.326345,878868,1615901906,328171015,mocap,-2.77635644531,10.3687578125,1.93348657227,0.162033183746,0.20761801534,0.964501447614,0.0194154679015
2021/03/16/14:38:26.334519,878869,1615901906,338171005,mocap,-2.77627416992,10.3687246094,1.93348815918,0.162058798039,0.207613826212,0.964497546582,0.0194404242482
2021/03/16/14:38:26.345352,878870,1615901906,348170996,mocap,-2.77620776367,10.3686875,1.93349829102,0.162197019117,0.207557055656,0.964485094074,0.0195119749071
2021/03/16/14:38:26.354653,878871,1615901906,358170986,mocap,-2.7761015625,10.3686240234,1.93350292969,0.162193345724,0.20746695027,0.964504135841,0.0195590637644
2021/03/16/14:38:26.364360,878872,1615901906,368170977,mocap,-2.77599536133,10.3685371094,1.93348828125,0.16225444058,0.207232538045,0.964545786946,0.0194834561939
2021/03/16/14:38:26.376041,878873,1615901906,378171206,mocap,-2.77591113281,10.3684482422,1.93346142578,0.162507788219,0.207156103523,0.96452097571,0.0194127463106
2021/03/16/14:38:26.386002,878874,1615901906,388171196,mocap,-2.77577832031,10.3683515625,1.93345898438,0.162461585828,0.206942077187,0.964576382986,0.0193291589565
2021/03/16/14:38:26.394631,878875,1615901906,398171186,mocap,-2.77566186523,10.3682431641,1.93343591309,0.162565255894,0.206648958398,0.964622788862,0.0192776351028
2021/03/16/14:38:26.405055,878876,1615901906,408171177,mocap,-2.77555639648,10.3681474609,1.93344372559,0.162808422092,0.206433485209,0.964630952913,0.0191250545941
2021/03/16/14:38:26.413966,878877,1615901906,418171167,mocap,-2.77543066406,10.3680136719,1.93341992187,0.162940698652,0.206305348276,0.964636946535,0.0190789386287
2021/03/16/14:38:26.424896,878878,1615901906,428171158,mocap,-2.77531860352,10.3678945313,1.9333972168,0.162799158754,0.206003109872,0.964726251714,0.0190371345206
2021/03/16/14:38:26.434334,878879,1615901906,438171148,mocap,-2.77518188477,10.3677910156,1.93339050293,0.162942498493,0.205970646014,0.964709739799,0.0189988369763
2021/03/16/14:38:26.444613,878880,1615901906,448171139,mocap,-2.77505541992,10.3676875,1.93336962891,0.16301806141,0.205802309756,0.964732090284,0.0190394250075
2021/03/16/14:38:26.455778,878881,1615901906,458171129,mocap,-2.77491455078,10.3675400391,1.93332995605,0.16317031161,0.205701986425,0.9647310863,0.0188697882614
2021/03/16/14:38:26.464516,878882,1615901906,468171120,mocap,-2.7747902832,10.3674189453,1.93330078125,0.163217883149,0.205508345977,0.964765105344,0.0188289359434
2021/03/16/14:38:26.475086,878883,1615901906,478171110,mocap,-2.77469140625,10.3672871094,1.93330432129,0.163215332419,0.205496413686,0.964767537987,0.0188571133747
2021/03/16/14:38:26.484655,878884,1615901906,488171101,mocap,-2.77453662109,10.3671152344,1.93327905273,0.163117243609,0.205481775291,0.964788659257,0.0187843856128
2021/03/16/14:38:26.495004,878885,1615901906,498171091,mocap,-2.77439599609,10.36696875,1.93326403809,0.163221722879,0.205430405575,0.964784450485,0.0186540691947
2021/03/16/14:38:26.504732,878886,1615901906,508171082,mocap,-2.77426586914,10.3668037109,1.93329431152,0.163225603445,0.205259678755,0.964820807489,0.018619096394
2021/03/16/14:38:26.515749,878887,1615901906,518171072,mocap,-2.77412158203,10.3666181641,1.93331848145,0.163279079398,0.205245580835,0.964814513841,0.0186317028671
2021/03/16/14:38:26.524173,878888,1615901906,528171062,mocap,-2.77395849609,10.3663955078,1.93331201172,0.163321096463,0.205168889281,0.964828792255,0.0183672074762
2021/03/16/14:38:26.535390,878889,1615901906,538171053,mocap,-2.77381152344,10.366203125,1.9333338623,0.163299624899,0.20511546233,0.964845742289,0.0182642434088
2021/03/16/14:38:26.544662,878890,1615901906,548171043,mocap,-2.77366040039,10.3659902344,1.93334802246,0.163401562741,0.205257563035,0.964798737067,0.018238740913
2021/03/16/14:38:26.555818,878891,1615901906,558171034,mocap,-2.77351489258,10.3657783203,1.93339160156,0.163373456325,0.205247573801,0.964808158372,0.0181045067801
2021/03/16/14:38:26.564179,878892,1615901906,568171024,mocap,-2.77336230469,10.3655595703,1.93343457031,0.163410082484,0.205288336253,0.964796126885,0.017952140991
2021/03/16/14:38:26.575702,878893,1615901906,578171015,mocap,-2.7732109375,10.3653095703,1.93348083496,0.163535170339,0.205303253257,0.96477353076,0.0178568540403
2021/03/16/14:38:26.584697,878894,1615901906,588171005,mocap,-2.77302148438,10.3650449219,1.93352282715,0.163346684649,0.205455983468,0.964773893723,0.0178053133246
2021/03/16/14:38:26.595258,878895,1615901906,598170996,mocap,-2.77283325195,10.3647441406,1.9335065918,0.163490122647,0.205644804703,0.964711562457,0.0176859454683
2021/03/16/14:38:26.604575,878896,1615901906,608170986,mocap,-2.77262207031,10.3644345703,1.93350793457,0.163449092253,0.205740755042,0.964701792664,0.0174813788028
2021/03/16/14:38:26.614347,878897,1615901906,618170977,mocap,-2.77240942383,10.3641005859,1.93353527832,0.162995245979,0.206093580881,0.964704217744,0.0174288085717
2021/03/16/14:38:26.625354,878898,1615901906,628171206,mocap,-2.77220336914,10.3637529297,1.93358557129,0.163172863617,0.206526270987,0.964586687014,0.0171476801304
2021/03/16/14:38:26.634497,878899,1615901906,638171196,mocap,-2.77197436523,10.3633369141,1.93359179688,0.162975128794,0.206881173367,0.964546304484,0.0170211900317
2021/03/16/14:38:26.644111,878900,1615901906,648171186,mocap,-2.77173901367,10.3629394531,1.93363000488,0.162992534094,0.207127999831,0.964494363947,0.0167940109657
2021/03/16/14:38:26.654536,878901,1615901906,658171177,mocap,-2.77150366211,10.3625380859,1.9336986084,0.163004968124,0.207464457331,0.964423717546,0.0165763326331
2021/03/16/14:38:26.666152,878902,1615901906,668171167,mocap,-2.77122875977,10.36209375,1.93371289063,0.162950761014,0.207673903161,0.964393070309,0.0162663368099
2021/03/16/14:38:26.674328,878903,1615901906,678171158,mocap,-2.77090405273,10.3615488281,1.93367419434,0.162784821718,0.208119314677,0.9643277553,0.0161068515952
2021/03/16/14:38:26.686214,878904,1615901906,688171148,mocap,-2.77060351562,10.3609980469,1.93375341797,0.162752586762,0.208580023994,0.964238220041,0.0158307425669
2021/03/16/14:38:26.694228,878905,1615901906,698171139,mocap,-2.77022875977,10.3603925781,1.93375085449,0.162499670204,0.209051738088,0.964187460642,0.0152897675268
2021/03/16/14:38:26.705149,878906,1615901906,708171129,mocap,-2.76985546875,10.3597333984,1.93374987793,0.162127716384,0.209173566047,0.96422628962,0.0151221113693
2021/03/16/14:38:26.714305,878907,1615901906,718171120,mocap,-2.76941992187,10.3590751953,1.93376342773,0.162208663483,0.209455863712,0.964161944709,0.0144342237617
2021/03/16/14:38:26.726026,878908,1615901906,728171110,mocap,-2.76898925781,10.3583369141,1.93379980469,0.162178817502,0.209958248894,0.964065299501,0.0139160511455
2021/03/16/14:38:26.734412,878909,1615901906,738171101,mocap,-2.76851708984,10.3575615234,1.9338104248,0.162091004518,0.210483170054,0.96397284148,0.0134050107096
2021/03/16/14:38:26.746183,878910,1615901906,748171091,mocap,-2.76800634766,10.3567314453,1.93379931641,0.162082583694,0.210556782321,0.963966750981,0.0127742368899
2021/03/16/14:38:26.754103,878911,1615901906,758171082,mocap,-2.76747265625,10.3558798828,1.93378588867,0.162000349368,0.210654755553,0.963968204048,0.0120727723791
2021/03/16/14:38:26.765953,878912,1615901906,768171072,mocap,-2.76694970703,10.3549599609,1.93376623535,0.161902926227,0.211237013128,0.963865479194,0.0113893438291
2021/03/16/14:38:26.774388,878913,1615901906,778171062,mocap,-2.76639453125,10.3540195312,1.93373486328,0.16205672628,0.211654973061,0.96375570068,0.0107118711861
2021/03/16/14:38:26.785914,878914,1615901906,788171053,mocap,-2.76579785156,10.3531503906,1.93390209961,0.162952602966,0.211993787871,0.96354037448,0.00974877962504
2021/03/16/14:38:26.794554,878915,1615901906,798171043,mocap,-2.76511132813,10.3520117187,1.93363366699,0.16145217628,0.212740898954,0.963630291583,0.0095475926094
2021/03/16/14:38:26.805974,878916,1615901906,808171034,mocap,-2.76449072266,10.3509697266,1.93360168457,0.161236912311,0.213202290019,0.963571072035,0.00884403547122
2021/03/16/14:38:26.814229,878917,1615901906,818171024,mocap,-2.76386523437,10.3499863281,1.93357739258,0.162199434122,0.212777111888,0.963515521889,0.0074216330492
2021/03/16/14:38:26.825994,878918,1615901906,828171015,mocap,-2.76319238281,10.3488164063,1.93343640137,0.161341756014,0.213821475479,0.963430953324,0.00707160265521
2021/03/16/14:38:26.834411,878919,1615901906,838171005,mocap,-2.76257055664,10.3476816406,1.9333770752,0.161338371733,0.214343535409,0.963320057962,0.00642195273775
2021/03/16/14:38:26.845970,878920,1615901906,848170996,mocap,-2.76185986328,10.3465800781,1.93327587891,0.161271158068,0.214795824248,0.96323474515,0.00576090413013
2021/03/16/14:38:26.854228,878921,1615901906,858170986,mocap,-2.76119287109,10.3454091797,1.93318823242,0.16119825883,0.215373222474,0.963121212476,0.0051989959396
2021/03/16/14:38:26.865752,878922,1615901906,868170977,mocap,-2.76052124023,10.3441884766,1.93307543945,0.161171969298,0.215756583819,0.963044539215,0.00423099038959
2021/03/16/14:38:26.874548,878923,1615901906,878171206,mocap,-2.75977197266,10.3429472656,1.93291333008,0.160739338947,0.216092790963,0.963042906815,0.00389090782962
2021/03/16/14:38:26.885736,878924,1615901906,888171196,mocap,-2.75908642578,10.3417080078,1.93282348633,0.160778465853,0.216483987047,0.962950946396,0.00323040709564
2021/03/16/14:38:26.894671,878925,1615901906,898171186,mocap,-2.75840844727,10.3403798828,1.93266040039,0.160622736134,0.217158581847,0.962826229519,0.00285339480769
2021/03/16/14:38:26.905340,878926,1615901906,908171177,mocap,-2.75761621094,10.3391328125,1.93252270508,0.160601620386,0.217673223511,0.962715388325,0.00213594600816
2021/03/16/14:38:26.913965,878927,1615901906,918171167,mocap,-2.75688964844,10.3377880859,1.9323828125,0.160407776428,0.218380445739,0.962588040239,0.00189250658921
2021/03/16/14:38:26.925652,878928,1615901906,928171158,mocap,-2.7561418457,10.3364414062,1.93224316406,0.160401402766,0.218822751126,0.962489495282,0.00140505549981
2021/03/16/14:38:26.934476,878929,1615901906,938171148,mocap,-2.75541357422,10.335046875,1.93205700684,0.159912375235,0.21940691447,0.96243787726,0.00140011832427
2021/03/16/14:38:26.945727,878930,1615901906,948171139,mocap,-2.75459667969,10.333671875,1.93189880371,0.159998166511,0.219962632898,0.962297423211,0.000830115206298
2021/03/16/14:38:26.954381,878931,1615901906,958171129,mocap,-2.75382836914,10.3321875,1.93166235352,0.159922131108,0.220624453543,0.962158659998,0.000697892774045
2021/03/16/14:38:26.965301,878932,1615901906,968171120,mocap,-2.75304614258,10.3307285156,1.93148278809,0.159493079292,0.221137492983,0.962112189477,0.000549003878405
2021/03/16/14:38:26.975265,878933,1615901906,978171110,mocap,-2.75230322266,10.32925,1.9313203125,0.159365167653,0.221661708726,0.962012821298,0.000393427234403
2021/03/16/14:38:26.986533,878934,1615901906,988171101,mocap,-2.75153173828,10.3277451172,1.93113256836,0.158991734834,0.222175006515,0.961956228504,0.000338825147944
2021/03/16/14:38:26.994298,878935,1615901906,998171091,mocap,-2.75069580078,10.3261679687,1.93087817383,0.159047821388,0.2227689362,0.961809630946,0.000175981214899
2021/03/16/14:38:27.004505,878936,1615901907,8171082,mocap,-2.74991943359,10.3247070312,1.93075158691,0.158522751771,0.223153146666,0.961807245046,0.000154014688693
2021/03/16/14:38:27.015601,878937,1615901907,18171072,mocap,-2.74910131836,10.3231035156,1.93051745605,0.158187345818,0.223973686377,0.961671696061,0.00033146646228
2021/03/16/14:38:27.024312,878938,1615901907,28171062,mocap,-2.74828344727,10.3215878906,1.93028430176,0.15767446277,0.224531982779,0.961625697874,0.00041545794133
2021/03/16/14:38:27.034095,878939,1615901907,38171053,mocap,-2.74747265625,10.3199873047,1.93004772949,0.157451872422,0.225328436836,0.961475841794,0.000448024393034
2021/03/16/14:38:27.045140,878940,1615901907,48171043,mocap,-2.7466105957,10.3184355469,1.92982897949,0.157006543968,0.225892402429,0.96141630355,0.0005039382946
2021/03/16/14:38:27.054834,878941,1615901907,58171034,mocap,-2.74577783203,10.3167636719,1.9294552002,0.156919249854,0.226358311555,0.961320932385,0.000573441177878
2021/03/16/14:38:27.066208,878942,1615901907,68171024,mocap,-2.7448828125,10.3151582031,1.92912280273,0.156687880223,0.22737605468,0.961118308944,0.00079038526268
2021/03/16/14:38:27.074107,878943,1615901907,78171015,mocap,-2.74405688477,10.313484375,1.92875305176,0.156332614173,0.227714167255,0.96109605272,0.00087272967983
2021/03/16/14:38:27.086174,878944,1615901907,88171005,mocap,-2.74315551758,10.3118222656,1.92830187988,0.156151340089,0.228205652604,0.961009053923,0.000741883991914
2021/03/16/14:38:27.094391,878945,1615901907,98170996,mocap,-2.74224316406,10.3101152344,1.92771826172,0.156039447308,0.229077408552,0.960819275879,0.00124463608286
2021/03/16/14:38:27.106378,878946,1615901907,108170986,mocap,-2.74137109375,10.3083964844,1.92711083984,0.155463638565,0.229489374905,0.960813894308,0.00152899281653
2021/03/16/14:38:27.114398,878947,1615901907,118170977,mocap,-2.74052734375,10.3066542969,1.9264564209,0.155217624792,0.229956827614,0.960741581367,0.0017190925849
2021/03/16/14:38:27.126085,878948,1615901907,128171206,mocap,-2.73960644531,10.3048857422,1.92562915039,0.154823003666,0.230375699869,0.960704325476,0.00201729552411
2021/03/16/14:38:27.134480,878949,1615901907,138171196,mocap,-2.73872070312,10.3031464844,1.92482458496,0.155020666147,0.230950239729,0.960533499111,0.00244396311795
2021/03/16/14:38:27.146420,878950,1615901907,148171186,mocap,-2.73781225586,10.3013310547,1.92383190918,0.154832331209,0.231676759723,0.960387514476,0.00294065725801
2021/03/16/14:38:27.154696,878951,1615901907,158171177,mocap,-2.73689916992,10.2994970703,1.92284960938,0.154763685385,0.232215928119,0.960267088959,0.0033301039148
2021/03/16/14:38:27.164680,878952,1615901907,168171167,mocap,-2.73605664063,10.2976708984,1.92200195313,0.154327962453,0.232671575005,0.960225236741,0.00378274432345
2021/03/16/14:38:27.175425,878953,1615901907,178171158,mocap,-2.73518798828,10.2957773438,1.92113757324,0.154072697331,0.23304288533,0.960174141043,0.00426997584791
2021/03/16/14:38:27.186318,878954,1615901907,188171148,mocap,-2.73430908203,10.2938007813,1.92033642578,0.153861502388,0.233617704177,0.960065826243,0.00479756166312
2021/03/16/14:38:27.194680,878955,1615901907,198171139,mocap,-2.73348095703,10.2918154297,1.91964575195,0.153742460281,0.234055252331,0.959975373479,0.00535446314755
2021/03/16/14:38:27.205016,878956,1615901907,208171129,mocap,-2.73264428711,10.2897373047,1.9189486084,0.153422329018,0.234278100436,0.959967581182,0.00613267424338
2021/03/16/14:38:27.215984,878957,1615901907,218171120,mocap,-2.73177099609,10.287640625,1.91832165527,0.153487023373,0.234304003051,0.95994813897,0.00655232954772
2021/03/16/14:38:27.224607,878958,1615901907,228171110,mocap,-2.73092260742,10.2854609375,1.91769604492,0.15340504396,0.234633843768,0.959875791854,0.00723281858062
2021/03/16/14:38:27.234937,878959,1615901907,238171101,mocap,-2.73006811523,10.2832226563,1.91710839844,0.153610167529,0.234165262574,0.959953758236,0.0077019566043
2021/03/16/14:38:27.244960,878960,1615901907,248171091,mocap,-2.72924438477,10.28096875,1.91656359863,0.153964627524,0.234217936408,0.959881527974,0.00801965668744
2021/03/16/14:38:27.254524,878961,1615901907,258171082,mocap,-2.72842089844,10.2786542969,1.9160645752,0.154193619854,0.234143026233,0.959858296089,0.0085684167317
2021/03/16/14:38:27.265743,878962,1615901907,268171072,mocap,-2.72764819336,10.2762207031,1.91569348145,0.154564981902,0.233841447574,0.959866655906,0.00915653169886
2021/03/16/14:38:27.274658,878963,1615901907,278171062,mocap,-2.72684228516,10.2737207031,1.91529553223,0.155204756823,0.233565764365,0.959826959708,0.00952557588627
2021/03/16/14:38:27.285899,878964,1615901907,288171053,mocap,-2.72610571289,10.2711894531,1.91517529297,0.155486082464,0.232978864181,0.959919824816,0.00994303939989
2021/03/16/14:38:27.294497,878965,1615901907,298171043,mocap,-2.72541088867,10.2685214844,1.9150604248,0.15596846525,0.232076640862,0.960059152199,0.0100346899657
2021/03/16/14:38:27.306097,878966,1615901907,308171034,mocap,-2.72475561523,10.2657587891,1.91502600098,0.156148480247,0.231342131208,0.960202812388,0.0104414844122
2021/03/16/14:38:27.314841,878967,1615901907,318171024,mocap,-2.72408911133,10.2629824219,1.91502770996,0.156990838746,0.230516743374,0.960261471526,0.0106681660994
2021/03/16/14:38:27.326004,878968,1615901907,328171015,mocap,-2.72348803711,10.2600859375,1.91507250977,0.157324995863,0.22963428776,0.960417063824,0.0107705532408
2021/03/16/14:38:27.334842,878969,1615901907,338171005,mocap,-2.72294604492,10.2571474609,1.91519799805,0.157890292017,0.228603589708,0.960568326111,0.0109340216263
2021/03/16/14:38:27.344261,878970,1615901907,348170996,mocap,-2.72240185547,10.2541748047,1.91531848145,0.158050943014,0.227792567166,0.960731809978,0.0111730376439
2021/03/16/14:38:27.355480,878971,1615901907,358170986,mocap,-2.72196826172,10.2511484375,1.9154284668,0.158525097294,0.226927224696,0.960859512638,0.0110818758024
2021/03/16/14:38:27.364776,878972,1615901907,368170977,mocap,-2.72155737305,10.2480673828,1.91557763672,0.158729561206,0.226297965261,0.960973265998,0.0111597974371
2021/03/16/14:38:27.374507,878973,1615901907,378171206,mocap,-2.72123144531,10.2449199219,1.91563977051,0.158890063114,0.22564525671,0.961099006292,0.0112634158162
2021/03/16/14:38:27.384542,878974,1615901907,388171196,mocap,-2.7209230957,10.2417666016,1.9157401123,0.15921218978,0.22509151084,0.961174385212,0.0113619217589
2021/03/16/14:38:27.395427,878975,1615901907,398171186,mocap,-2.72068383789,10.2385947266,1.91582434082,0.159273774714,0.225020543984,0.961177338544,0.0116506462864
2021/03/16/14:38:27.404544,878976,1615901907,408171177,mocap,-2.72046850586,10.2352978516,1.91581225586,0.159396921416,0.224747503593,0.96121871524,0.0118219593958
2021/03/16/14:38:27.414490,878977,1615901907,418171167,mocap,-2.72033618164,10.2320068359,1.91579382324,0.159017302933,0.224695706399,0.961288132314,0.012266203557
2021/03/16/14:38:27.426627,878978,1615901907,428171158,mocap,-2.72023754883,10.2286689453,1.91580981445,0.158782061194,0.224572716413,0.961352010815,0.0125564040458
2021/03/16/14:38:27.434615,878979,1615901907,438171148,mocap,-2.7201706543,10.2252089844,1.91567248535,0.158886071008,0.224866736712,0.961261206278,0.0129252269876
2021/03/16/14:38:27.444134,878980,1615901907,448171139,mocap,-2.72016259766,10.2217041016,1.91556213379,0.158599811594,0.225219889006,0.961221637431,0.0132312360614
2021/03/16/14:38:27.456511,878981,1615901907,458171129,mocap,-2.72027416992,10.2182763672,1.91562634277,0.159913663404,0.225384275578,0.960965807428,0.013201009701
2021/03/16/14:38:27.464556,878982,1615901907,468171120,mocap,-2.72025634766,10.2145341797,1.91523022461,0.157998879206,0.225910553183,0.961144541324,0.0142107705942
2021/03/16/14:38:27.476271,878983,1615901907,478171110,mocap,-2.72043383789,10.210921875,1.91519018555,0.159728987199,0.226142664144,0.960806481028,0.0140376292801
2021/03/16/14:38:27.484513,878984,1615901907,488171101,mocap,-2.72050683594,10.2069941406,1.91472277832,0.157167158867,0.226693319776,0.961081307978,0.0152098593726
2021/03/16/14:38:27.496120,878985,1615901907,498171091,mocap,-2.72075366211,10.2032197266,1.91464111328,0.159107433081,0.226706314486,0.960768266058,0.0146079504031
2021/03/16/14:38:27.504699,878986,1615901907,508171082,mocap,-2.72082641602,10.1991464844,1.91409436035,0.15720372827,0.227768031353,0.960810769261,0.0158552178679
2021/03/16/14:38:27.516372,878987,1615901907,518171072,mocap,-2.72113598633,10.1951777344,1.91399584961,0.158489594091,0.227740373384,0.960614010395,0.0153651247071
2021/03/16/14:38:27.524597,878988,1615901907,528171062,mocap,-2.7212434082,10.1908964844,1.91338183594,0.156936704909,0.229020261409,0.960545894255,0.016497409332
2021/03/16/14:38:27.536104,878989,1615901907,538171053,mocap,-2.72154394531,10.1867617188,1.91314990234,0.158643990477,0.229193087038,0.960228549914,0.0162398585043
2021/03/16/14:38:27.544388,878990,1615901907,548171043,mocap,-2.72174829102,10.1823291016,1.91253076172,0.156514903099,0.230135093014,0.960329188889,0.0175719071466
2021/03/16/14:38:27.555948,878991,1615901907,558171034,mocap,-2.72212915039,10.1780449219,1.91230249023,0.158334197706,0.230110926646,0.960045454742,0.0170869471847
2021/03/16/14:38:27.564458,878992,1615901907,568171024,mocap,-2.72238964844,10.1734980469,1.91175671387,0.158800122587,0.230722768892,0.959818568495,0.0172578273803
2021/03/16/14:38:27.576723,878993,1615901907,578171015,mocap,-2.72269018555,10.1689521484,1.91130163574,0.15838264098,0.231387348803,0.959718225323,0.0177698834024
2021/03/16/14:38:27.584282,878994,1615901907,588171005,mocap,-2.72303759766,10.1643076172,1.91081066895,0.159003757939,0.232279760669,0.959395008003,0.0180314705719
2021/03/16/14:38:27.596089,878995,1615901907,598170996,mocap,-2.72328344727,10.1594550781,1.9100279541,0.157412134691,0.23342647273,0.959355952419,0.0192266200055
2021/03/16/14:38:27.603976,878996,1615901907,608170986,mocap,-2.72375219727,10.1547646484,1.90967785645,0.159757431376,0.233912892226,0.958863819881,0.0185062477813
2021/03/16/14:38:27.615901,878997,1615901907,618170977,mocap,-2.72414648437,10.1499101562,1.90917370605,0.159078064608,0.235147397431,0.958664632973,0.0190261872655
2021/03/16/14:38:27.624314,878998,1615901907,628171206,mocap,-2.72456005859,10.1449433594,1.90855529785,0.159699734706,0.236230956758,0.95828883009,0.019324875175
2021/03/16/14:38:27.634966,878999,1615901907,638171196,mocap,-2.72501293945,10.139859375,1.90785888672,0.158535335669,0.237983103049,0.958028763942,0.0202850665115
2021/03/16/14:38:27.645166,879000,1615901907,648171186,mocap,-2.72557641602,10.1348193359,1.90750524902,0.160087233779,0.238769122087,0.957587699273,0.019677189629
2021/03/16/14:38:27.655679,879001,1615901907,658171177,mocap,-2.72614526367,10.1296298828,1.90700158691,0.160170680375,0.240024862047,0.957258781322,0.0197242825981
2021/03/16/14:38:27.664485,879002,1615901907,668171167,mocap,-2.72673852539,10.124328125,1.90643518066,0.16063658341,0.241197469332,0.956881896841,0.0199173879492
2021/03/16/14:38:27.675906,879003,1615901907,678171158,mocap,-2.72737353516,10.1188623047,1.90581286621,0.159666296288,0.242624900974,0.956673333328,0.0203953374495
2021/03/16/14:38:27.684501,879004,1615901907,688171148,mocap,-2.72801757812,10.1133398437,1.90531225586,0.15943928353,0.243738389726,0.956423141973,0.0206269258113
2021/03/16/14:38:27.694536,879005,1615901907,698171139,mocap,-2.72877441406,10.1077353516,1.90495788574,0.161191939253,0.244591580036,0.95591610926,0.0204087217073
2021/03/16/14:38:27.704730,879006,1615901907,708171129,mocap,-2.72951708984,10.1019091797,1.90434387207,0.159918502363,0.245965945505,0.955766885864,0.0208924932504
2021/03/16/14:38:27.715777,879007,1615901907,718171120,mocap,-2.73037402344,10.0961796875,1.90411645508,0.161666745268,0.246726790036,0.955286295852,0.0204416402267
2021/03/16/14:38:27.724426,879008,1615901907,728171110,mocap,-2.73121850586,10.0901386719,1.90358679199,0.1605830801,0.247943647971,0.955145601413,0.0208302088355
2021/03/16/14:38:27.735538,879009,1615901907,738171101,mocap,-2.73211206055,10.0840302734,1.90322216797,0.160680943834,0.248713198609,0.95493286682,0.0206545081647
2021/03/16/14:38:27.744123,879010,1615901907,748171091,mocap,-2.73314819336,10.0779726562,1.90303234863,0.162237605178,0.249188464053,0.954558100258,0.0200724025191
2021/03/16/14:38:27.755665,879011,1615901907,758171082,mocap,-2.73411499023,10.0716337891,1.90254614258,0.160758275739,0.250349197127,0.954497045509,0.0204313905637
2021/03/16/14:38:27.766640,879012,1615901907,768171072,mocap,-2.73517016602,10.0653427734,1.90239648438,0.162721193031,0.250754234883,0.954073504345,0.0196944887246
2021/03/16/14:38:27.774787,879013,1615901907,778171062,mocap,-2.73628588867,10.0588203125,1.90194213867,0.161303913867,0.251879700474,0.954008638665,0.0201291837015
2021/03/16/14:38:27.784657,879014,1615901907,788171053,mocap,-2.73734912109,10.0522675781,1.90171240234,0.161339248951,0.252509769106,0.953843432271,0.0197780171617
2021/03/16/14:38:27.795434,879015,1615901907,798171043,mocap,-2.73859570313,10.0456328125,1.90143798828,0.161459886728,0.253180733825,0.953648775049,0.0196019829892
2021/03/16/14:38:27.804654,879016,1615901907,808171034,mocap,-2.73978979492,10.0388867187,1.9013503418,0.1615243981,0.254154986957,0.95338874826,0.0191049473461
2021/03/16/14:38:27.816269,879017,1615901907,818171024,mocap,-2.74114331055,10.0321435547,1.90147436523,0.16081918442,0.255398640322,0.953171619463,0.0193026767019
2021/03/16/14:38:27.824182,879018,1615901907,828171015,mocap,-2.74247851562,10.0253144531,1.90190344238,0.160643877194,0.256593551406,0.952891649541,0.0187294285912
2021/03/16/14:38:27.835186,879019,1615901907,838171005,mocap,-2.74397460937,10.0183798828,1.9025723877,0.160388391657,0.257687425052,0.952639933179,0.0187058553274
2021/03/16/14:38:27.846214,879020,1615901907,848170996,mocap,-2.74537670898,10.0112685547,1.90333605957,0.160086706241,0.258506130846,0.952481826711,0.0180331006367
2021/03/16/14:38:27.854545,879021,1615901907,858170986,mocap,-2.74681005859,10.0040332031,1.90420019531,0.16020195148,0.259328873081,0.952246315645,0.0176300412258
2021/03/16/14:38:27.864524,879022,1615901907,868170977,mocap,-2.74826806641,9.99669140625,1.90521496582,0.159598757568,0.259557949354,0.952301318293,0.0167363383511
2021/03/16/14:38:27.874383,879023,1615901907,878171206,mocap,-2.74969555664,9.98929492188,1.90640405273,0.159485728782,0.259943024249,0.952229415189,0.0159077764977
2021/03/16/14:38:27.886446,879024,1615901907,888171196,mocap,-2.75120361328,9.98183789063,1.90777062988,0.159315402019,0.260312959764,0.952168422391,0.0152006861509
2021/03/16/14:38:27.896365,879025,1615901907,898171186,mocap,-2.75270703125,9.97434570312,1.90929211426,0.159281953442,0.260621258511,0.95210750394,0.0140401557472
2021/03/16/14:38:27.906269,879026,1615901907,908171177,mocap,-2.7542121582,9.96678515625,1.91083703613,0.158821470152,0.260347840279,0.952270054019,0.0132848946942
2021/03/16/14:38:27.914307,879027,1615901907,918171167,mocap,-2.75565991211,9.95915332031,1.91240368652,0.158668272404,0.259751676213,0.95248124004,0.0115295097144
2021/03/16/14:38:27.924399,879028,1615901907,928171158,mocap,-2.75708813477,9.95151171875,1.91389880371,0.158889362054,0.259037381418,0.952651265716,0.0104580420692
2021/03/16/14:38:27.934357,879029,1615901907,938171148,mocap,-2.75842553711,9.94384863281,1.91514440918,0.158357424208,0.258355390571,0.952937983316,0.00919833055774
2021/03/16/14:38:27.944405,879030,1615901907,948171139,mocap,-2.75972485352,9.93622753906,1.91625500488,0.158489343636,0.257474140694,0.953166468297,0.00786619279031
2021/03/16/14:38:27.954879,879031,1615901907,958171129,mocap,-2.76098730469,9.92875878906,1.91714013672,0.158797166227,0.256945943228,0.953267094698,0.00663964960283
2021/03/16/14:38:27.964218,879032,1615901907,968171120,mocap,-2.76219311523,9.92136425781,1.91786010742,0.15826363402,0.25697051937,0.95335545646,0.00566951669034
2021/03/16/14:38:27.976120,879033,1615901907,978171110,mocap,-2.76339819336,9.91409179688,1.91845568848,0.158376076919,0.257205015232,0.95327821657,0.00482158853985
2021/03/16/14:38:27.984622,879034,1615901907,988171101,mocap,-2.76455151367,9.90690136719,1.91888061523,0.157945002762,0.258029542357,0.953130878368,0.00395769859885
2021/03/16/14:38:27.994984,879035,1615901907,998171091,mocap,-2.76561816406,9.89978417969,1.91916992188,0.15771114666,0.258939431903,0.952924644799,0.00349138711443
2021/03/16/14:38:28.006006,879036,1615901908,8171082,mocap,-2.76669067383,9.892609375,1.91937512207,0.157645741251,0.260143097277,0.952609141472,0.0030338299421
2021/03/16/14:38:28.014322,879037,1615901908,18171072,mocap,-2.7676496582,9.88550195313,1.91944250488,0.157273460234,0.261199942687,0.952383253047,0.00240347642989
2021/03/16/14:38:28.025148,879038,1615901908,28171062,mocap,-2.76869018555,9.87846289063,1.9195333252,0.15677473613,0.262384840082,0.95214036987,0.00214508309183
2021/03/16/14:38:28.034255,879039,1615901908,38171053,mocap,-2.76959741211,9.87136035156,1.9195456543,0.156395631992,0.263650716192,0.951853975589,0.00165047458802
2021/03/16/14:38:28.045942,879040,1615901908,48171043,mocap,-2.77056591797,9.86429492188,1.91965661621,0.155581891112,0.265292383359,0.951531782735,0.00122135327874
2021/03/16/14:38:28.054421,879041,1615901908,58171034,mocap,-2.77144018555,9.857234375,1.91983935547,0.154395246167,0.267178901642,0.951197042269,0.00131935490414
2021/03/16/14:38:28.065706,879042,1615901908,68171024,mocap,-2.77223242188,9.85001757812,1.91981860352,0.154977204994,0.267710604219,0.95095376994,0.000122531185304
2021/03/16/14:38:28.074291,879043,1615901908,78171015,mocap,-2.77303613281,9.84279394531,1.91996643066,0.153870035862,0.268698892026,0.950854669587,-0.000560602798573
2021/03/16/14:38:28.085557,879044,1615901908,88171005,mocap,-2.77372412109,9.83549023437,1.92025,0.153537428009,0.269555325562,0.950665074556,-0.00144674477313
2021/03/16/14:38:28.094352,879045,1615901908,98170996,mocap,-2.77445629883,9.82813378906,1.9206862793,0.153180712407,0.27003577724,0.950584018471,-0.0025235405931
2021/03/16/14:38:28.105580,879046,1615901908,108170986,mocap,-2.77510546875,9.82065429688,1.92109545898,0.152848504458,0.270182180696,0.950593369037,-0.00334243677308
2021/03/16/14:38:28.114265,879047,1615901908,118170977,mocap,-2.77568188477,9.81308886719,1.92159997559,0.151985916193,0.270055071744,0.950763356174,-0.00442496950397
2021/03/16/14:38:28.124825,879048,1615901908,128171206,mocap,-2.77625390625,9.80549121094,1.92220507812,0.151467614791,0.2696137895,0.950964691658,-0.00566720153144
2021/03/16/14:38:28.134504,879049,1615901908,138171196,mocap,-2.7766484375,9.79774316406,1.92272106934,0.151438170184,0.268785456696,0.951193525315,-0.00719235398729
2021/03/16/14:38:28.144434,879050,1615901908,148171186,mocap,-2.77709326172,9.78997070313,1.92337646484,0.151068480434,0.268019678111,0.951458576397,-0.00838718968496
2021/03/16/14:38:28.155661,879051,1615901908,158171177,mocap,-2.77754443359,9.78222167969,1.92411779785,0.150012942264,0.267119704939,0.951871798504,-0.0091244431659
2021/03/16/14:38:28.164236,879052,1615901908,168171167,mocap,-2.77786181641,9.77444921875,1.9248182373,0.149413792352,0.266774296785,0.952054916093,-0.00992136371513
2021/03/16/14:38:28.175439,879053,1615901908,178171158,mocap,-2.77804882813,9.7665859375,1.92533984375,0.14942592618,0.26561145493,0.952366026445,-0.0110178569404
2021/03/16/14:38:28.184522,879054,1615901908,188171148,mocap,-2.77815991211,9.75859765625,1.92568200684,0.150029526083,0.263949261392,0.952715449597,-0.012457867494
2021/03/16/14:38:28.195642,879055,1615901908,198171139,mocap,-2.77824804687,9.7506875,1.92604577637,0.150399018009,0.263055663706,0.952886535956,-0.0137514208526
2021/03/16/14:38:28.204269,879056,1615901908,208171129,mocap,-2.77820922852,9.74280859375,1.9263861084,0.150857927999,0.262736779737,0.952881500533,-0.0151031885114
2021/03/16/14:38:28.214585,879057,1615901908,218171120,mocap,-2.77821020508,9.73490722656,1.92661889648,0.151380844345,0.262080249083,0.952961102449,-0.0162146262548
2021/03/16/14:38:28.226367,879058,1615901908,228171110,mocap,-2.77811645508,9.72688183594,1.92654272461,0.152421610475,0.261173132405,0.953023209374,-0.0174073856116
2021/03/16/14:38:28.234571,879059,1615901908,238171101,mocap,-2.77800048828,9.71892773438,1.92653088379,0.152849800144,0.26085799067,0.95302365499,-0.0183292124654
2021/03/16/14:38:28.246059,879060,1615901908,248171091,mocap,-2.77796630859,9.71108496094,1.92668774414,0.152110502917,0.261410573984,0.952988216091,-0.0184488439099
2021/03/16/14:38:28.254390,879061,1615901908,258171082,mocap,-2.77782641602,9.70304492187,1.92642456055,0.152334695835,0.261440105852,0.952930696412,-0.0191389449251
2021/03/16/14:38:28.266186,879062,1615901908,268171072,mocap,-2.77764599609,9.69504199219,1.92611315918,0.153094347262,0.261286866894,0.95283090244,-0.0201138215379
2021/03/16/14:38:28.274086,879063,1615901908,278171062,mocap,-2.77742626953,9.68694726562,1.9256439209,0.153292102903,0.261848879449,0.952632096522,-0.02070720793
2021/03/16/14:38:28.286551,879064,1615901908,288171053,mocap,-2.77717382813,9.67883007812,1.92500256348,0.154792203365,0.261741633054,0.952387821721,-0.0220936683392
2021/03/16/14:38:28.294612,879065,1615901908,298171043,mocap,-2.7769050293,9.67063671875,1.9243104248,0.155353661219,0.261709988326,0.952287556193,-0.0228371210799
2021/03/16/14:38:28.306070,879066,1615901908,308171034,mocap,-2.77667138672,9.6624375,1.92361645508,0.155169462477,0.262392501432,0.952127959202,-0.0229119352653
2021/03/16/14:38:28.314251,879067,1615901908,318171024,mocap,-2.77636694336,9.6541484375,1.92276623535,0.155425235655,0.262472503303,0.952054477848,-0.0233120775647
2021/03/16/14:38:28.326282,879068,1615901908,328171015,mocap,-2.77602880859,9.64576855469,1.92167687988,0.156058468177,0.262703913329,0.951870522654,-0.0239774753761
2021/03/16/14:38:28.334290,879069,1615901908,338171005,mocap,-2.77560668945,9.63730371094,1.92043151855,0.157777732025,0.262525262095,0.951609454069,-0.0250224873865
2021/03/16/14:38:28.345981,879070,1615901908,348170996,mocap,-2.77534228516,9.62883691406,1.91929406738,0.157205721726,0.262929368638,0.951601671562,-0.0246732626829
2021/03/16/14:38:28.354249,879071,1615901908,358170986,mocap,-2.77490039063,9.62022265625,1.91783447266,0.15841979877,0.262683116912,0.951443878071,-0.025598710678
2021/03/16/14:38:28.366117,879072,1615901908,368170977,mocap,-2.77451879883,9.61161621094,1.91638354492,0.159144160088,0.262763336105,0.951287585668,-0.0260863000116
2021/03/16/14:38:28.374192,879073,1615901908,378171206,mocap,-2.77420751953,9.60295898438,1.91490698242,0.158842023981,0.263052455209,0.951269978941,-0.0256525768157
2021/03/16/14:38:28.386012,879074,1615901908,388171196,mocap,-2.77372680664,9.594171875,1.91321643066,0.159713554128,0.262697063849,0.951207906366,-0.0261789623259
2021/03/16/14:38:28.394272,879075,1615901908,398171186,mocap,-2.77335498047,9.58540527344,1.91158728027,0.159782560988,0.263142176812,0.951086295036,-0.0257020660329
2021/03/16/14:38:28.405985,879076,1615901908,408171177,mocap,-2.77284204102,9.5765546875,1.90980639648,0.160749169841,0.262983869057,0.950956324097,-0.0261009576264
2021/03/16/14:38:28.414366,879077,1615901908,418171167,mocap,-2.77238647461,9.567625,1.90798303223,0.161012748696,0.263127422967,0.950878356513,-0.0258690512594
2021/03/16/14:38:28.425592,879078,1615901908,428171158,mocap,-2.77189160156,9.55873925781,1.90623620605,0.160735283058,0.263590390752,0.950822245044,-0.0249265231377
2021/03/16/14:38:28.434417,879079,1615901908,438171148,mocap,-2.77136083984,9.54978125,1.90440209961,0.162012631312,0.263774433876,0.950542014247,-0.0253937219673
2021/03/16/14:38:28.444546,879080,1615901908,448171139,mocap,-2.77085498047,9.54079492187,1.9026328125,0.161819829939,0.264711554674,0.95033940539,-0.0244365696148
2021/03/16/14:38:28.455791,879081,1615901908,458171129,mocap,-2.7702019043,9.53175585938,1.90087414551,0.16283042406,0.265305162876,0.949996198157,-0.0246300985007
2021/03/16/14:38:28.464472,879082,1615901908,468171120,mocap,-2.76959790039,9.52264648438,1.89928747559,0.163014689625,0.266226560212,0.949717990841,-0.0241944362429
2021/03/16/14:38:28.474789,879083,1615901908,478171110,mocap,-2.76899707031,9.51348925781,1.89789892578,0.162830853173,0.26702461019,0.949551731935,-0.0231404681608
2021/03/16/14:38:28.484692,879084,1615901908,488171101,mocap,-2.76825512695,9.50422070313,1.89657287598,0.164040404117,0.267586349057,0.949180555164,-0.0233356030641
2021/03/16/14:38:28.495882,879085,1615901908,498171091,mocap,-2.7676574707,9.49482714844,1.89551452637,0.163743814725,0.268183366536,0.949090760633,-0.0221893085099
2021/03/16/14:38:28.504294,879086,1615901908,508171082,mocap,-2.76693969727,9.4854140625,1.8945501709,0.164678100875,0.268669916312,0.948792342182,-0.0221511345726
2021/03/16/14:38:28.515626,879087,1615901908,518171072,mocap,-2.7662890625,9.47593652344,1.89386633301,0.164391641134,0.269778470974,0.948554815424,-0.020945919126
2021/03/16/14:38:28.525619,879088,1615901908,528171062,mocap,-2.76561035156,9.46645996094,1.89341882324,0.164436400477,0.270650211206,0.948318187681,-0.020043858617
2021/03/16/14:38:28.534178,879089,1615901908,538171053,mocap,-2.76495263672,9.45694140625,1.89321081543,0.163960490119,0.271916383288,0.948063370947,-0.0188223016101
2021/03/16/14:38:28.545573,879090,1615901908,548171043,mocap,-2.76421704102,9.44732324219,1.89323034668,0.164748719585,0.273142003726,0.947584369949,-0.0183075592609
2021/03/16/14:38:28.554609,879091,1615901908,558171034,mocap,-2.76364355469,9.43774023437,1.89378222656,0.163628067348,0.274698965551,0.947360594403,-0.0165602067695
2021/03/16/14:38:28.566434,879092,1615901908,568171024,mocap,-2.76293505859,9.42795019531,1.89436230469,0.164513416582,0.275536504001,0.946974806042,-0.0159276408131
2021/03/16/14:38:28.574187,879093,1615901908,578171015,mocap,-2.76222705078,9.41805957031,1.89521630859,0.164513957879,0.276198054486,0.946801903865,-0.0146947789703
2021/03/16/14:38:28.584157,879094,1615901908,588171005,mocap,-2.76156005859,9.4081875,1.89630029297,0.163794818827,0.276624688894,0.946822166857,-0.0133353437358
2021/03/16/14:38:28.596705,879095,1615901908,598170996,mocap,-2.76079516602,9.3982265625,1.89736767578,0.165321424888,0.277096041548,0.946429018865,-0.0125984183504
2021/03/16/14:38:28.604390,879096,1615901908,608170986,mocap,-2.76015527344,9.38817773438,1.89861181641,0.16498245938,0.276951141561,0.946544490705,-0.0115057434356
2021/03/16/14:38:28.616559,879097,1615901908,618170977,mocap,-2.75948828125,9.37820507812,1.89994384766,0.165354928947,0.276787443287,0.946537296266,-0.0106588359758
2021/03/16/14:38:28.624460,879098,1615901908,628171206,mocap,-2.7589855957,9.36814550781,1.90135974121,0.164984782245,0.275978975117,0.946852336272,-0.00928862657352
2021/03/16/14:38:28.636366,879099,1615901908,638171196,mocap,-2.75841357422,9.35803222656,1.90255944824,0.165371084941,0.274780932396,0.947140903717,-0.00848256137841
2021/03/16/14:38:28.644302,879100,1615901908,648171186,mocap,-2.75786987305,9.34793164062,1.90373242188,0.16650282836,0.27306546139,0.947439291854,-0.00841703557188
2021/03/16/14:38:28.656411,879101,1615901908,658171177,mocap,-2.75744116211,9.33788476563,1.90493127441,0.167064481026,0.271244320769,0.947868069077,-0.0078802762478
2021/03/16/14:38:28.664292,879102,1615901908,668171167,mocap,-2.75709667969,9.32781835937,1.90603405762,0.166868493974,0.26902057121,0.948541588076,-0.00719038459759
2021/03/16/14:38:28.676314,879103,1615901908,678171158,mocap,-2.75675463867,9.31789160156,1.90699975586,0.167492226667,0.267229441506,0.948942199106,-0.00659407320552
2021/03/16/14:38:28.684280,879104,1615901908,688171148,mocap,-2.75651000977,9.308078125,1.90796911621,0.168060352126,0.265700472286,0.949275748971,-0.00587691036299
2021/03/16/14:38:28.696421,879105,1615901908,698171139,mocap,-2.75638525391,9.29845800781,1.90883703613,0.167955025892,0.264593458141,0.949609942732,-0.00472991186683
2021/03/16/14:38:28.704178,879106,1615901908,708171129,mocap,-2.75627880859,9.28895996094,1.90959460449,0.168176904278,0.263661139698,0.94983502386,-0.00357048927446
2021/03/16/14:38:28.716784,879107,1615901908,718171120,mocap,-2.75630859375,9.27959277344,1.91037695313,0.168094322208,0.263061032355,0.950019984913,-0.00228679977004
2021/03/16/14:38:28.724253,879108,1615901908,728171110,mocap,-2.75638256836,9.27029785156,1.91113195801,0.168405363526,0.262752078859,0.950052381941,-0.00120421995951
2021/03/16/14:38:28.736138,879109,1615901908,738171101,mocap,-2.75643359375,9.26118847656,1.91185632324,0.168826788804,0.262735594135,0.949982849707,0.000312575145053
2021/03/16/14:38:28.744516,879110,1615901908,748171091,mocap,-2.75661645508,9.25204589844,1.9125592041,0.168754507799,0.262561652524,0.95004219476,0.00176909707957
2021/03/16/14:38:28.756066,879111,1615901908,758171082,mocap,-2.75685791016,9.24291015625,1.91326171875,0.168482882328,0.262084918358,0.950217384952,0.00345384782378
2021/03/16/14:38:28.764376,879112,1615901908,768171072,mocap,-2.75717236328,9.23374804688,1.91383532715,0.169113700777,0.261417033864,0.950284171581,0.00465614357012
2021/03/16/14:38:28.775957,879113,1615901908,778171062,mocap,-2.75753466797,9.22470996094,1.91459350586,0.169290631984,0.260658796499,0.950453626094,0.00596510004754
2021/03/16/14:38:28.784535,879114,1615901908,788171053,mocap,-2.75800634766,9.21564160156,1.91541674805,0.169204586838,0.260095512944,0.950611113698,0.0076583251092
2021/03/16/14:38:28.795865,879115,1615901908,798171043,mocap,-2.75849047852,9.20654980469,1.91619567871,0.169180495657,0.259361384256,0.950804347602,0.00898394822717
2021/03/16/14:38:28.804348,879116,1615901908,808171034,mocap,-2.75900219727,9.19753125,1.91700366211,0.169291702431,0.258568941703,0.950981857464,0.0107668760751
2021/03/16/14:38:28.815860,879117,1615901908,818171024,mocap,-2.75956542969,9.18846582031,1.91775915527,0.169233377352,0.257577483874,0.951239738158,0.0125247373263
2021/03/16/14:38:28.824214,879118,1615901908,828171015,mocap,-2.76018432617,9.17939746094,1.91846508789,0.169146873791,0.256329580895,0.951576757716,0.0136438634837
2021/03/16/14:38:28.835761,879119,1615901908,838171005,mocap,-2.76084375,9.17042089844,1.91907666016,0.169338171547,0.255199686495,0.951825248448,0.015046397894
2021/03/16/14:38:28.844399,879120,1615901908,848170996,mocap,-2.76150073242,9.16140136719,1.91961181641,0.169138363366,0.254112614837,0.95213051021,0.016324257709
2021/03/16/14:38:28.855762,879121,1615901908,858170986,mocap,-2.76215161133,9.15241503906,1.92005651855,0.169111456834,0.252970217507,0.952408928084,0.0180170564269
2021/03/16/14:38:28.864290,879122,1615901908,868170977,mocap,-2.76292602539,9.14347851563,1.92038415527,0.168932084641,0.252105769179,0.952649302671,0.0190770578243
2021/03/16/14:38:28.875643,879123,1615901908,878171206,mocap,-2.76368164063,9.13453613281,1.92061083984,0.169098265595,0.251056234411,0.952869240262,0.0204145959702
2021/03/16/14:38:28.884555,879124,1615901908,888171196,mocap,-2.76442675781,9.12562109375,1.92073901367,0.168335856588,0.250047776094,0.953235580721,0.0219334312451
2021/03/16/14:38:28.894373,879125,1615901908,898171186,mocap,-2.76516088867,9.11659375,1.92056298828,0.167270384288,0.249667703663,0.953474402875,0.0239420373931
2021/03/16/14:38:28.905318,879126,1615901908,908171177,mocap,-2.76609960937,9.1077890625,1.92069238281,0.168169671578,0.248550415265,0.953599311504,0.0242899367304
2021/03/16/14:38:28.914286,879127,1615901908,918171167,mocap,-2.76693896484,9.09883496094,1.9205057373,0.167872588977,0.247950765298,0.953768700408,0.0257774439545
2021/03/16/14:38:28.925628,879128,1615901908,928171158,mocap,-2.76767138672,9.08987402344,1.92010705566,0.166219807843,0.247758102775,0.954049068947,0.0278796187408
2021/03/16/14:38:28.934426,879129,1615901908,938171148,mocap,-2.76849755859,9.08092285156,1.9197019043,0.166036188908,0.247257324996,0.954179446303,0.0289374330481
2021/03/16/14:38:28.944756,879130,1615901908,948171139,mocap,-2.76939746094,9.07201269531,1.91928417969,0.165683033395,0.246972047212,0.954279630164,0.0300721675524
2021/03/16/14:38:28.956377,879131,1615901908,958171129,mocap,-2.77020410156,9.06302636719,1.91869921875,0.165478634976,0.246600928384,0.954376594939,0.0311466126988
2021/03/16/14:38:28.965280,879132,1615901908,968171120,mocap,-2.77110205078,9.0540625,1.91807727051,0.165266002406,0.24639029672,0.954442325521,0.0319187762582
2021/03/16/14:38:28.974628,879133,1615901908,978171110,mocap,-2.77194262695,9.04520117188,1.91735852051,0.164541664891,0.246177312486,0.954587353949,0.0329508155479
2021/03/16/14:38:28.984339,879134,1615901908,988171101,mocap,-2.77272875977,9.03600878906,1.91644714355,0.164937626957,0.24633086593,0.954456821549,0.0335983719359
2021/03/16/14:38:28.996121,879135,1615901908,998171091,mocap,-2.77361914063,9.02698046875,1.91554785156,0.164629676777,0.246720534235,0.954387532135,0.0342123567873
2021/03/16/14:38:29.004176,879136,1615901909,8171082,mocap,-2.77446118164,9.01788964844,1.91455749512,0.164325130026,0.246531963309,0.954458858938,0.0350361025126
2021/03/16/14:38:29.016099,879137,1615901909,18171072,mocap,-2.77533325195,9.00876269531,1.91346398926,0.16402318206,0.246958406464,0.954383597569,0.0354949192942
2021/03/16/14:38:29.024339,879138,1615901909,28171062,mocap,-2.77615112305,8.999578125,1.91219641113,0.164048493702,0.247539082648,0.954203823704,0.0361602823946
2021/03/16/14:38:29.036110,879139,1615901909,38171053,mocap,-2.77709301758,8.99038671875,1.91100805664,0.163831053853,0.247681604601,0.954201629608,0.0362277511339
2021/03/16/14:38:29.044476,879140,1615901909,48171043,mocap,-2.77795727539,8.9811328125,1.90963415527,0.163453053127,0.247946097718,0.954174409895,0.0368379283105
2021/03/16/14:38:29.056360,879141,1615901909,58171034,mocap,-2.77891333008,8.97195703125,1.90816467285,0.163478421151,0.248176629751,0.954123146336,0.0364992143809
2021/03/16/14:38:29.064198,879142,1615901909,68171024,mocap,-2.77980615234,8.96253222656,1.90668933105,0.163574101353,0.248525884085,0.953992839385,0.0370952917341
2021/03/16/14:38:29.076019,879143,1615901909,78171015,mocap,-2.78078027344,8.95326757813,1.90514404297,0.162878227821,0.249184304505,0.953935731749,0.0372086743661
2021/03/16/14:38:29.084478,879144,1615901909,88171005,mocap,-2.78167651367,8.94408398438,1.90351269531,0.162820907756,0.250043988188,0.953715719804,0.0373320630809
2021/03/16/14:38:29.096269,879145,1615901909,98170996,mocap,-2.78269873047,8.93468554688,1.9020546875,0.162885972116,0.250742350309,0.953526553006,0.0371960290649
2021/03/16/14:38:29.104399,879146,1615901909,108170986,mocap,-2.78370239258,8.92532226563,1.90053271484,0.162956956265,0.25179909168,0.953226459294,0.0374375879847
2021/03/16/14:38:29.115860,879147,1615901909,118170977,mocap,-2.78465356445,8.91596484375,1.89905859375,0.162903549718,0.253148455758,0.952891571352,0.0370938150333
2021/03/16/14:38:29.124587,879148,1615901909,128171206,mocap,-2.78570996094,8.90656933594,1.89775549316,0.163187012605,0.254150358473,0.952578207983,0.0370453098269
2021/03/16/14:38:29.135078,879149,1615901909,138171196,mocap,-2.78679418945,8.89711132812,1.89663366699,0.163084033048,0.255070404928,0.952368522053,0.0365634148462
2021/03/16/14:38:29.144717,879150,1615901909,148171186,mocap,-2.78791479492,8.887578125,1.89564318848,0.163155436109,0.255811374184,0.952168046798,0.0362883454711
2021/03/16/14:38:29.155050,879151,1615901909,158171177,mocap,-2.78895288086,8.87797851562,1.89472961426,0.163249481267,0.256580935615,0.95197066775,0.035604316134
2021/03/16/14:38:29.164359,879152,1615901909,168171167,mocap,-2.79010302734,8.86834082031,1.89401123047,0.163673586498,0.25738764407,0.951707215415,0.034870223577
2021/03/16/14:38:29.174879,879153,1615901909,178171158,mocap,-2.79118847656,8.85863769531,1.89338513184,0.163661400883,0.258055710372,0.951561380019,0.033957860678
2021/03/16/14:38:29.184402,879154,1615901909,188171148,mocap,-2.79234545898,8.84897167969,1.89291015625,0.16450998801,0.258817649148,0.951250852404,0.0327370395456
2021/03/16/14:38:29.194891,879155,1615901909,198171139,mocap,-2.79348779297,8.83925683594,1.89259924316,0.164460519385,0.259824613308,0.951019846773,0.0317041613068
2021/03/16/14:38:29.205872,879156,1615901909,208171129,mocap,-2.794609375,8.82958691406,1.8926895752,0.164911532878,0.261320386086,0.950561727228,0.0307934671638
2021/03/16/14:38:29.214324,879157,1615901909,218171120,mocap,-2.79589306641,8.81985839844,1.89318652344,0.165245823714,0.263032906507,0.950062623909,0.0298078673471
2021/03/16/14:38:29.225816,879158,1615901909,228171110,mocap,-2.79709130859,8.81011230469,1.89402062988,0.165244540791,0.264223837768,0.949761867166,0.0288513362506
2021/03/16/14:38:29.234477,879159,1615901909,238171101,mocap,-2.79839282227,8.80025976563,1.89510949707,0.165666331745,0.265073908732,0.94948223366,0.0278203676213
2021/03/16/14:38:29.244648,879160,1615901909,248171091,mocap,-2.79956958008,8.79029003906,1.8963885498,0.165944475163,0.265617751044,0.949325186645,0.0262930698198
2021/03/16/14:38:29.254666,879161,1615901909,258171082,mocap,-2.80080737305,8.78029882812,1.89791552734,0.166445171237,0.266099762076,0.949140278591,0.0248930988425
2021/03/16/14:38:29.264688,879162,1615901909,268171072,mocap,-2.80198730469,8.77028417969,1.89966113281,0.167061816985,0.26648784393,0.948962761854,0.023329250507
2021/03/16/14:38:29.274701,879163,1615901909,278171062,mocap,-2.80323583984,8.76028613281,1.90168688965,0.168310572901,0.266047578125,0.948923936438,0.0208228601374
2021/03/16/14:38:29.285745,879164,1615901909,288171053,mocap,-2.80439013672,8.75023339844,1.90367553711,0.169392040124,0.265543377778,0.948913587959,0.0188692349883
2021/03/16/14:38:29.294677,879165,1615901909,298171043,mocap,-2.80553759766,8.74026171875,1.90553076172,0.169191687128,0.264403859724,0.949302347843,0.0170239988995
2021/03/16/14:38:29.304728,879166,1615901909,308171034,mocap,-2.80667993164,8.73017871094,1.90743005371,0.16938708953,0.262947592287,0.949707329365,0.0149186614603
2021/03/16/14:38:29.314432,879167,1615901909,318171024,mocap,-2.80770996094,8.72020898438,1.90923510742,0.169645143877,0.261108673149,0.950201389336,0.0126534737753
2021/03/16/14:38:29.324179,879168,1615901909,328171015,mocap,-2.80883007813,8.71031738281,1.91097460937,0.169610820651,0.259584607759,0.950648851353,0.0107130293048
2021/03/16/14:38:29.335399,879169,1615901909,338171005,mocap,-2.80978564453,8.70044042969,1.91251879883,0.169482370579,0.258090528911,0.951098194441,0.0087873501959
2021/03/16/14:38:29.344311,879170,1615901909,348170996,mocap,-2.81075073242,8.690703125,1.91390270996,0.169356494371,0.256612051376,0.951536089275,0.00690738544255
2021/03/16/14:38:29.355562,879171,1615901909,358170986,mocap,-2.8117109375,8.68112109375,1.91523706055,0.168724148562,0.255505521462,0.951955186844,0.00551477512758
2021/03/16/14:38:29.365487,879172,1615901909,368170977,mocap,-2.81258837891,8.6716015625,1.91649780273,0.168014953077,0.254406467525,0.952382509853,0.00398454768898
2021/03/16/14:38:29.374633,879173,1615901909,378171206,mocap,-2.81337817383,8.66222558594,1.91769970703,0.167136006146,0.253970888533,0.952658171537,0.00259826651315
2021/03/16/14:38:29.385449,879174,1615901909,388171196,mocap,-2.81409375,8.65286914063,1.91882580566,0.166776861121,0.253565930513,0.952831309049,0.00151916318786
2021/03/16/14:38:29.396589,879175,1615901909,398171186,mocap,-2.81471728516,8.64359179688,1.91993786621,0.166024808183,0.253189287512,0.953063978524,-1.6053242595e-05
2021/03/16/14:38:29.404632,879176,1615901909,408171177,mocap,-2.81511962891,8.634390625,1.92102624512,0.165778116115,0.25315765446,0.953114376634,-0.0013440704067
2021/03/16/14:38:29.414531,879177,1615901909,418171167,mocap,-2.81550024414,8.62513183594,1.92199084473,0.165489162711,0.252861055837,0.953239731059,-0.00293865553913
2021/03/16/14:38:29.426271,879178,1615901909,428171158,mocap,-2.81584423828,8.61600976562,1.9230456543,0.165207713296,0.252444762175,0.953390319042,-0.00499450099841
2021/03/16/14:38:29.434464,879179,1615901909,438171148,mocap,-2.8160402832,8.60681542969,1.92396508789,0.165445329149,0.252590420043,0.953298506031,-0.00691977372075
