time,.header.seq,.header.stamp.secs,.header.stamp.nsecs,.header.frame_id,.pose.position.x,.pose.position.y,.pose.position.z,.pose.orientation.x,.pose.orientation.y,.pose.orientation.z,.pose.orientation.w
2021/03/16/14:06:44.976648,751562,1615900004,978171110,mocap,-2.74397973633,10.4167900391,1.93600036621,0.162400080917,0.193690293607,0.966678997522,-0.0405216078026
2021/03/16/14:06:44.984980,751563,1615900004,988171101,mocap,-2.74405297852,10.4168632813,1.93593212891,0.162133845822,0.193906139585,0.966681147883,-0.0405041712372
2021/03/16/14:06:44.997077,751564,1615900004,998171091,mocap,-2.74415185547,10.4169433594,1.93594226074,0.161672754477,0.194162991411,0.966709795797,-0.0404330388586
2021/03/16/14:06:45.005158,751565,1615900005,8171082,mocap,-2.7442019043,10.4170615234,1.93587744141,0.161633584323,0.194374097306,0.966668785164,-0.040555571621
2021/03/16/14:06:45.016899,751566,1615900005,18171072,mocap,-2.7442199707,10.4170449219,1.93562475586,0.160433043993,0.194321017651,0.966886173324,-0.0403943898468
2021/03/16/14:06:45.025242,751567,1615900005,28171062,mocap,-2.74432739258,10.4172490234,1.93583129883,0.161201378112,0.194998650057,0.966618692952,-0.0404715312368
2021/03/16/14:06:45.037064,751568,1615900005,38171053,mocap,-2.74436791992,10.4173857422,1.9357947998,0.161003631251,0.195343134391,0.966580800273,-0.0405024452984
2021/03/16/14:06:45.045260,751569,1615900005,48171043,mocap,-2.74440405273,10.4174970703,1.93579016113,0.16064896645,0.195654016073,0.966584022287,-0.0403329890749
2021/03/16/14:06:45.056949,751570,1615900005,58171034,mocap,-2.74443823242,10.4176396484,1.93579284668,0.160892931868,0.196258651726,0.966419755229,-0.0403592828837
2021/03/16/14:06:45.065051,751571,1615900005,68171024,mocap,-2.7444519043,10.4177734375,1.9357590332,0.160849358806,0.196585408555,0.966360182346,-0.0403691107633
2021/03/16/14:06:45.077129,751572,1615900005,78171015,mocap,-2.7444609375,10.4179091797,1.93570410156,0.160658658599,0.197061622851,0.966297637276,-0.0403036600408
2021/03/16/14:06:45.084968,751573,1615900005,88171005,mocap,-2.74448803711,10.4180693359,1.9357565918,0.160493746904,0.197652734866,0.966210227767,-0.0401615468578
2021/03/16/14:06:45.096937,751574,1615900005,98170996,mocap,-2.74448217773,10.4181972656,1.93566650391,0.160413341685,0.198020326307,0.966147950608,-0.04017014927
2021/03/16/14:06:45.105034,751575,1615900005,108170986,mocap,-2.74449389648,10.4183466797,1.93563830566,0.160321363245,0.198485563561,0.966074255411,-0.0400133681032
2021/03/16/14:06:45.116687,751576,1615900005,118170977,mocap,-2.74453491211,10.4185068359,1.93571765137,0.160551197948,0.199054534682,0.96591947411,-0.0400021173265
2021/03/16/14:06:45.125381,751577,1615900005,128171206,mocap,-2.74446191406,10.4185634766,1.93546130371,0.159820151193,0.199240766684,0.966011660977,-0.0397755680306
2021/03/16/14:06:45.136937,751578,1615900005,138171196,mocap,-2.7444387207,10.4187119141,1.93546789551,0.159789662371,0.199542627185,0.965966108559,-0.0394903737325
2021/03/16/14:06:45.145249,751579,1615900005,148171186,mocap,-2.74445727539,10.4189902344,1.93568713379,0.16069735924,0.20029133621,0.965665544504,-0.039367327769
2021/03/16/14:06:45.156732,751580,1615900005,158171177,mocap,-2.74441552734,10.4191669922,1.93568737793,0.160599917976,0.200760732719,0.965596434408,-0.0390680935288
2021/03/16/14:06:45.165505,751581,1615900005,168171167,mocap,-2.74436938477,10.41934375,1.9357010498,0.160716904275,0.201283161525,0.965479915176,-0.0387775957441
2021/03/16/14:06:45.175329,751582,1615900005,178171158,mocap,-2.74432470703,10.4195253906,1.93575866699,0.161166154919,0.201798459517,0.965305403254,-0.0385788774095
2021/03/16/14:06:45.186560,751583,1615900005,188171148,mocap,-2.74423632812,10.4196816406,1.93568005371,0.16161098788,0.202278446107,0.965135653738,-0.0384510280855
2021/03/16/14:06:45.195570,751584,1615900005,198171139,mocap,-2.74416162109,10.4198408203,1.93570373535,0.161540718464,0.202708960051,0.965066405331,-0.0382166305864
2021/03/16/14:06:45.206559,751585,1615900005,208171129,mocap,-2.74409228516,10.4200117188,1.93575402832,0.161866022162,0.203280950024,0.964891895838,-0.0382083307147
2021/03/16/14:06:45.215543,751586,1615900005,218171120,mocap,-2.74403051758,10.4201835938,1.93573425293,0.162143359421,0.203829159957,0.964734160034,-0.0380946453502
2021/03/16/14:06:45.227529,751587,1615900005,228171110,mocap,-2.74391918945,10.4203378906,1.93558874512,0.161854942692,0.205016277221,0.964555898191,-0.0374596160799
2021/03/16/14:06:45.235714,751588,1615900005,238171101,mocap,-2.74386914063,10.4204941406,1.9356138916,0.162262589212,0.20560390385,0.964359184934,-0.0375400393106
2021/03/16/14:06:45.247482,751589,1615900005,248171091,mocap,-2.74382666016,10.4206708984,1.93562927246,0.16236005281,0.206124154742,0.964234039774,-0.0374801440541
2021/03/16/14:06:45.255462,751590,1615900005,258171082,mocap,-2.74376000977,10.4208330078,1.93564794922,0.162339471097,0.206595087611,0.964136312185,-0.0374904531526
2021/03/16/14:06:45.267303,751591,1615900005,268171072,mocap,-2.74373803711,10.4209824219,1.93570239258,0.162657252268,0.207357323896,0.963916070041,-0.0375682366992
2021/03/16/14:06:45.275678,751592,1615900005,278171062,mocap,-2.74370483398,10.4211279297,1.93564782715,0.162692019416,0.207832858502,0.963805794814,-0.0376191727194
2021/03/16/14:06:45.287475,751593,1615900005,288171053,mocap,-2.74366674805,10.42125,1.93568347168,0.162634663697,0.208367330988,0.963696512032,-0.03771009204
2021/03/16/14:06:45.295383,751594,1615900005,298171043,mocap,-2.74365844727,10.4213613281,1.93568737793,0.162974433546,0.209088846032,0.963474212897,-0.0379291820838
2021/03/16/14:06:45.307201,751595,1615900005,308171034,mocap,-2.7436237793,10.4214550781,1.93561877441,0.162648679728,0.209405407383,0.963462071955,-0.0378896267001
2021/03/16/14:06:45.315237,751596,1615900005,318171024,mocap,-2.74362890625,10.4215214844,1.93562316895,0.162895562529,0.210066303444,0.963268492182,-0.0380918078368
2021/03/16/14:06:45.327130,751597,1615900005,328171015,mocap,-2.74362744141,10.4215800781,1.93560693359,0.163021149236,0.210566078358,0.963133264886,-0.0382145669685
2021/03/16/14:06:45.335477,751598,1615900005,338171005,mocap,-2.74363891602,10.4216298828,1.93556274414,0.162756595129,0.210779062105,0.963128128319,-0.0382974142949
2021/03/16/14:06:45.347158,751599,1615900005,348170996,mocap,-2.74364233398,10.4216259766,1.93556335449,0.162817265319,0.211086388883,0.963042612828,-0.0384969014635
2021/03/16/14:06:45.355340,751600,1615900005,358170986,mocap,-2.74368041992,10.4216220703,1.93556079102,0.162782326225,0.211402944468,0.962973917982,-0.0386257285297
2021/03/16/14:06:45.367131,751601,1615900005,368170977,mocap,-2.74367016602,10.4216201172,1.93550097656,0.162367913668,0.211492865082,0.963021368161,-0.0386944583915
2021/03/16/14:06:45.375360,751602,1615900005,378171206,mocap,-2.74370288086,10.4215888672,1.9355333252,0.162531370968,0.211700777812,0.962939835659,-0.0389000175361
2021/03/16/14:06:45.386953,751603,1615900005,388171196,mocap,-2.74371606445,10.4215283203,1.9355078125,0.16258236936,0.211778891563,0.962907655577,-0.0390577977829
2021/03/16/14:06:45.395619,751604,1615900005,398171186,mocap,-2.74372583008,10.4214511719,1.9354375,0.162458244748,0.211881756837,0.962901774994,-0.0391612191021
2021/03/16/14:06:45.407040,751605,1615900005,408171177,mocap,-2.7437434082,10.4213515625,1.93546618652,0.162317183971,0.211858406049,0.962928144486,-0.039224203464
2021/03/16/14:06:45.415191,751606,1615900005,418171167,mocap,-2.74377734375,10.4212587891,1.93544958496,0.162626191232,0.211844281902,0.962872309636,-0.0393908920058
2021/03/16/14:06:45.427117,751607,1615900005,428171158,mocap,-2.74377807617,10.4211220703,1.93541442871,0.162447894849,0.21165997595,0.96293826498,-0.0395049825886
2021/03/16/14:06:45.435318,751608,1615900005,438171148,mocap,-2.74380883789,10.4209599609,1.93542712402,0.162412116795,0.21159997639,0.962956664198,-0.0395250344058
2021/03/16/14:06:45.446919,751609,1615900005,448171139,mocap,-2.74380981445,10.4208017578,1.93538562012,0.162621007789,0.211461426406,0.962942218752,-0.0397584703782
2021/03/16/14:06:45.455431,751610,1615900005,458171129,mocap,-2.74386328125,10.4206220703,1.93537182617,0.162265916832,0.21120147059,0.96306042209,-0.0397280963328
2021/03/16/14:06:45.467049,751611,1615900005,468171120,mocap,-2.74391577148,10.420421875,1.93537353516,0.162547619062,0.211023119229,0.963046040092,-0.0398728769511
2021/03/16/14:06:45.475287,751612,1615900005,478171110,mocap,-2.74396948242,10.4202480469,1.93533813477,0.162476210241,0.210785464378,0.963108595189,-0.0399100287777
2021/03/16/14:06:45.485232,751613,1615900005,488171101,mocap,-2.74399975586,10.4200732422,1.93531494141,0.162255539823,0.210429240436,0.963228224558,-0.0398003598767
2021/03/16/14:06:45.496861,751614,1615900005,498171091,mocap,-2.74408959961,10.4198710938,1.93535314941,0.162278807083,0.210391051625,0.963230885398,-0.0398428399915
2021/03/16/14:06:45.505237,751615,1615900005,508171082,mocap,-2.74412573242,10.4196884766,1.93529333496,0.162297048088,0.210269710914,0.963246803874,-0.0400239551501
2021/03/16/14:06:45.516936,751616,1615900005,518171072,mocap,-2.74416650391,10.4195,1.93524694824,0.162160099693,0.210153821632,0.963296073682,-0.0400019734216
2021/03/16/14:06:45.525419,751617,1615900005,528171062,mocap,-2.74424316406,10.4192900391,1.93526660156,0.162070199347,0.210072803183,0.963330475972,-0.0399633729125
2021/03/16/14:06:45.536831,751618,1615900005,538171053,mocap,-2.74427856445,10.4191113281,1.93518737793,0.162130866334,0.209964951518,0.963340723719,-0.0400369395153
2021/03/16/14:06:45.545965,751619,1615900005,548171043,mocap,-2.74432568359,10.4188847656,1.93515759277,0.162019983483,0.209736769315,0.963410753515,-0.0399966027603
2021/03/16/14:06:45.556742,751620,1615900005,558171034,mocap,-2.74443481445,10.4186337891,1.9352980957,0.162216997879,0.20910432245,0.963492586415,-0.0405346985531
2021/03/16/14:06:45.565402,751621,1615900005,568171024,mocap,-2.74448828125,10.4184013672,1.93525476074,0.162194409138,0.208841259847,0.963550333895,-0.0406085266444
2021/03/16/14:06:45.576648,751622,1615900005,578171015,mocap,-2.74447949219,10.4180498047,1.93504614258,0.16116101147,0.208275985027,0.963856922161,-0.0403492972414
2021/03/16/14:06:45.585379,751623,1615900005,588171005,mocap,-2.74453149414,10.4179257813,1.93512976074,0.161817597618,0.209099750071,0.963585987446,-0.0399299419613
2021/03/16/14:06:45.596673,751624,1615900005,598170996,mocap,-2.74455834961,10.4176923828,1.93507543945,0.161667471872,0.208926420331,0.963649991966,-0.0399008506017
2021/03/16/14:06:45.605824,751625,1615900005,608170986,mocap,-2.74456445313,10.4174697266,1.93507470703,0.161280339159,0.208854915267,0.963739581874,-0.0396773642815
2021/03/16/14:06:45.615429,751626,1615900005,618170977,mocap,-2.74461694336,10.4172197266,1.9351262207,0.161452418506,0.208932368524,0.963690775426,-0.0397552028095
2021/03/16/14:06:45.625225,751627,1615900005,628171206,mocap,-2.74462402344,10.4169707031,1.93509851074,0.161677847795,0.208964292814,0.963640636654,-0.0398863046752
2021/03/16/14:06:45.636457,751628,1615900005,638171196,mocap,-2.74458227539,10.4165908203,1.93491320801,0.160718066331,0.208718652194,0.963858050735,-0.0397980526611
2021/03/16/14:06:45.645394,751629,1615900005,648171186,mocap,-2.74464404297,10.4164033203,1.93514160156,0.161575240312,0.209169065155,0.963607482553,-0.0400294795835
2021/03/16/14:06:45.655368,751630,1615900005,658171177,mocap,-2.7446472168,10.4161074219,1.93511755371,0.161847332292,0.209232714105,0.96353886664,-0.0402489452832
2021/03/16/14:06:45.666374,751631,1615900005,668171167,mocap,-2.7446628418,10.4157724609,1.93514001465,0.161687925529,0.209267576013,0.963560068969,-0.0402006074351
2021/03/16/14:06:45.677503,751632,1615900005,678171158,mocap,-2.74466625977,10.4154775391,1.93521179199,0.161606292415,0.209428873577,0.963538186179,-0.0402133366866
2021/03/16/14:06:45.685426,751633,1615900005,688171148,mocap,-2.74465380859,10.4151113281,1.93522998047,0.161364312461,0.209655051877,0.963531389268,-0.0401694615444
2021/03/16/14:06:45.695781,751634,1615900005,698171139,mocap,-2.74463867188,10.4147412109,1.93526062012,0.161352283161,0.210057544638,0.963445994636,-0.0401631862048
2021/03/16/14:06:45.705472,751635,1615900005,708171129,mocap,-2.74465405273,10.4143466797,1.93546337891,0.161614720934,0.209818584852,0.963431231725,-0.0407073657478
2021/03/16/14:06:45.717132,751636,1615900005,718171120,mocap,-2.74459692383,10.4139580078,1.93531066895,0.159777751692,0.21145136531,0.963428091968,-0.0395689143606
2021/03/16/14:06:45.725268,751637,1615900005,728171110,mocap,-2.74453442383,10.4135146484,1.93536376953,0.159895384915,0.212041486027,0.963278933953,-0.0395672782469
2021/03/16/14:06:45.737227,751638,1615900005,738171101,mocap,-2.74447631836,10.4130634766,1.93534802246,0.162086745896,0.212220335007,0.962843624926,-0.0402811212664
2021/03/16/14:06:45.745431,751639,1615900005,748171091,mocap,-2.74441357422,10.4125751953,1.93527099609,0.162326026189,0.213239491224,0.962585060275,-0.0401145492929
2021/03/16/14:06:45.756996,751640,1615900005,758171082,mocap,-2.74438891602,10.4121591797,1.93548352051,0.161473368327,0.215008639355,0.962364780539,-0.0393911177535
2021/03/16/14:06:45.765095,751641,1615900005,768171072,mocap,-2.74424194336,10.4114521484,1.93520568848,0.162757426008,0.21545372259,0.962027900272,-0.039900179593
2021/03/16/14:06:45.777207,751642,1615900005,778171062,mocap,-2.74409741211,10.4107402344,1.93491223145,0.162198592492,0.216380079312,0.961922629071,-0.0397005702738
2021/03/16/14:06:45.787119,751643,1615900005,788171053,mocap,-2.74409082031,10.4101308594,1.93505615234,0.161539242496,0.218456917913,0.961601097974,-0.0387938710399
2021/03/16/14:06:45.795115,751644,1615900005,798171043,mocap,-2.74404003906,10.4093652344,1.93494018555,0.162025411503,0.219628943611,0.96126178759,-0.0385573524872
2021/03/16/14:06:45.807187,751645,1615900005,808171034,mocap,-2.74399707031,10.4086318359,1.93498266602,0.163045948752,0.221439547635,0.960685053284,-0.0382721969011
2021/03/16/14:06:45.815402,751646,1615900005,818171024,mocap,-2.74391894531,10.4076640625,1.93495300293,0.162986843619,0.222747474782,0.960408220061,-0.0378800902258
2021/03/16/14:06:45.826307,751647,1615900005,828171015,mocap,-2.74383618164,10.4066582031,1.93485522461,0.163371740542,0.224038287916,0.960052059036,-0.0376373599236
2021/03/16/14:06:45.835552,751648,1615900005,838171005,mocap,-2.74377001953,10.4055400391,1.93476403809,0.163154341926,0.225146620914,0.959848166407,-0.0371639106479
2021/03/16/14:06:45.847091,751649,1615900005,848170996,mocap,-2.74362451172,10.4042138672,1.93449780273,0.164337795179,0.22540025108,0.959569585432,-0.0376035043599
2021/03/16/14:06:45.855295,751650,1615900005,858170986,mocap,-2.74351782227,10.4028701172,1.93432177734,0.162951086624,0.227168981311,0.959426195413,-0.036641260002
2021/03/16/14:06:45.866015,751651,1615900005,868170977,mocap,-2.7433737793,10.4014208984,1.93418029785,0.16289612815,0.228016015831,0.95925052003,-0.0362215226026
2021/03/16/14:06:45.875182,751652,1615900005,878171206,mocap,-2.74329492188,10.399984375,1.93425268555,0.164136706558,0.22933420089,0.958727846971,-0.0361370525786
2021/03/16/14:06:45.886095,751653,1615900005,888171196,mocap,-2.74316772461,10.3983574219,1.93413317871,0.164050264158,0.229897877831,0.958625081303,-0.0356710987817
2021/03/16/14:06:45.895281,751654,1615900005,898171186,mocap,-2.74303271484,10.3966259766,1.93400891113,0.164458809647,0.230499691807,0.958420340935,-0.0354067070242
2021/03/16/14:06:45.906669,751655,1615900005,908171177,mocap,-2.74283935547,10.3947519531,1.93391296387,0.164428008064,0.231097879931,0.958292344329,-0.0351139086772
2021/03/16/14:06:45.915456,751656,1615900005,918171167,mocap,-2.74266967773,10.3927958984,1.93373999023,0.164259263697,0.231299919572,0.958287212914,-0.0347110190363
2021/03/16/14:06:45.926856,751657,1615900005,928171158,mocap,-2.74252783203,10.3907353516,1.9335111084,0.164186489419,0.231513674613,0.958266391524,-0.0342013632634
2021/03/16/14:06:45.935378,751658,1615900005,938171148,mocap,-2.74229418945,10.3885556641,1.93338134766,0.164092465572,0.231419924485,0.958316609333,-0.0338785652714
2021/03/16/14:06:45.945702,751659,1615900005,948171139,mocap,-2.74209667969,10.3863417969,1.93323181152,0.163988249779,0.231241597097,0.958387783653,-0.0335861561406
2021/03/16/14:06:45.955126,751660,1615900005,958171129,mocap,-2.74186328125,10.3840771484,1.93301013184,0.163967144773,0.231103995844,0.958437303245,-0.0332212330237
2021/03/16/14:06:45.966766,751661,1615900005,968171120,mocap,-2.74157519531,10.3816904297,1.93278894043,0.163789010028,0.230811548511,0.958547255578,-0.0329598995343
2021/03/16/14:06:45.975557,751662,1615900005,978171110,mocap,-2.74128930664,10.3792832031,1.9325300293,0.163996440353,0.230108563537,0.958679290536,-0.0330035709549
2021/03/16/14:06:45.986264,751663,1615900005,988171101,mocap,-2.74099755859,10.3768349609,1.93229296875,0.164049318945,0.229690239413,0.958775483978,-0.0328599751885
2021/03/16/14:06:45.995231,751664,1615900005,998171091,mocap,-2.74064794922,10.374296875,1.93203991699,0.164143887193,0.229251094847,0.958858753686,-0.0330243989469
2021/03/16/14:06:46.005696,751665,1615900006,8171082,mocap,-2.74030151367,10.3717392578,1.9317010498,0.16436308403,0.22844909016,0.959010168533,-0.0330952434166
2021/03/16/14:06:46.015399,751666,1615900006,18171072,mocap,-2.73992553711,10.3691513672,1.93145495605,0.16437429512,0.227754876605,0.959176924074,-0.032991395798
2021/03/16/14:06:46.025575,751667,1615900006,28171062,mocap,-2.73958129883,10.3665820312,1.93122485352,0.164652938258,0.22695476078,0.959311085849,-0.0332142535507
2021/03/16/14:06:46.037378,751668,1615900006,38171053,mocap,-2.73908203125,10.3638447266,1.93066308594,0.16554997823,0.225297746826,0.959531080491,-0.0336785316562
2021/03/16/14:06:46.045357,751669,1615900006,48171043,mocap,-2.73871459961,10.3613349609,1.93062890625,0.164916574142,0.225407728555,0.959630138878,-0.0332246730418
2021/03/16/14:06:46.056605,751670,1615900006,58171034,mocap,-2.73823486328,10.3586162109,1.93018994141,0.166042160777,0.223763876444,0.959806715102,-0.0336272740871
2021/03/16/14:06:46.065335,751671,1615900006,68171024,mocap,-2.73779541016,10.35615625,1.93005969238,0.165189914799,0.223676320456,0.959997453897,-0.0329556941347
2021/03/16/14:06:46.077264,751672,1615900006,78171015,mocap,-2.73733764648,10.3535478516,1.92985522461,0.165335361527,0.222873855591,0.960172542561,-0.032559822543
2021/03/16/14:06:46.085299,751673,1615900006,88171005,mocap,-2.73683422852,10.3509775391,1.92962011719,0.16541823147,0.222228477388,0.960321779625,-0.032146349182
2021/03/16/14:06:46.095159,751674,1615900006,98170996,mocap,-2.73625146484,10.3482695313,1.92912023926,0.165951959395,0.220167681046,0.96069996697,-0.0322754408031
2021/03/16/14:06:46.107360,751675,1615900006,108170986,mocap,-2.73582788086,10.3458369141,1.92915087891,0.164947973932,0.220290669974,0.960878424651,-0.0312544626171
2021/03/16/14:06:46.115456,751676,1615900006,118170977,mocap,-2.73524145508,10.3431689453,1.92863635254,0.166185725279,0.218904317355,0.960974188624,-0.0314929845003
2021/03/16/14:06:46.127210,751677,1615900006,128171206,mocap,-2.73468774414,10.3406572266,1.92832983398,0.166165719259,0.218054090242,0.96118292737,-0.0311249170231
2021/03/16/14:06:46.135373,751678,1615900006,138171196,mocap,-2.73412402344,10.3381962891,1.9280657959,0.165613529711,0.217480029332,0.96143367797,-0.0303297881562
2021/03/16/14:06:46.146137,751679,1615900006,148171186,mocap,-2.73354272461,10.3357666016,1.92781848145,0.165853848312,0.217068741744,0.961502227146,-0.0297847682147
2021/03/16/14:06:46.157302,751680,1615900006,158171177,mocap,-2.73289135742,10.3333603516,1.92732873535,0.166031355402,0.216714425546,0.96157266203,-0.0290939225838
2021/03/16/14:06:46.165362,751681,1615900006,168171167,mocap,-2.73226757813,10.3310019531,1.92694055176,0.165749022871,0.216573044007,0.961678335672,-0.0282518021896
2021/03/16/14:06:46.177195,751682,1615900006,178171158,mocap,-2.73166552734,10.3287109375,1.9264708252,0.165857478327,0.216496719644,0.96169662729,-0.0275692843722
2021/03/16/14:06:46.185208,751683,1615900006,188171148,mocap,-2.73095410156,10.3264111328,1.92579968262,0.165269562175,0.216365093275,0.961853614108,-0.0266411008364
2021/03/16/14:06:46.197077,751684,1615900006,198171139,mocap,-2.73030981445,10.3242001953,1.92520983887,0.165187928434,0.216496693316,0.961853466933,-0.0260777514334
2021/03/16/14:06:46.205621,751685,1615900006,208171129,mocap,-2.72962060547,10.3219677734,1.92453710938,0.164826292835,0.216837395462,0.961862026298,-0.0252047221912
2021/03/16/14:06:46.216774,751686,1615900006,218171120,mocap,-2.72888989258,10.3197490234,1.92373095703,0.164469026261,0.216839446255,0.961940203471,-0.0245280856695
2021/03/16/14:06:46.225254,751687,1615900006,228171110,mocap,-2.72819018555,10.3175566406,1.92311328125,0.164492477909,0.217027293376,0.961906874577,-0.0240111876916
2021/03/16/14:06:46.237229,751688,1615900006,238171101,mocap,-2.72745947266,10.3153115234,1.92234765625,0.164609614633,0.217146074536,0.96186854066,-0.0236682527547
2021/03/16/14:06:46.245292,751689,1615900006,248171091,mocap,-2.72670874023,10.3131337891,1.9215949707,0.164201126837,0.217173409746,0.96194566394,-0.0231136391857
2021/03/16/14:06:46.256757,751690,1615900006,258171082,mocap,-2.72602001953,10.3109511719,1.92102783203,0.164419045072,0.217716767804,0.961793068959,-0.0228006587211
2021/03/16/14:06:46.265159,751691,1615900006,268171072,mocap,-2.72528393555,10.3088007812,1.92043566895,0.164443025095,0.217887014836,0.961755210811,-0.0225975122409
2021/03/16/14:06:46.276917,751692,1615900006,278171062,mocap,-2.72453710937,10.3066025391,1.91983642578,0.164202130794,0.21859864209,0.961647298779,-0.0220625122029
2021/03/16/14:06:46.285397,751693,1615900006,288171053,mocap,-2.72381591797,10.3043925781,1.91935083008,0.16453647371,0.219193174571,0.961455407178,-0.022036449271
2021/03/16/14:06:46.296935,751694,1615900006,298171043,mocap,-2.72305761719,10.3021904297,1.91879968262,0.164747109761,0.219757070658,0.961290682265,-0.0220326593544
2021/03/16/14:06:46.305256,751695,1615900006,308171034,mocap,-2.72229199219,10.2999326172,1.91824304199,0.164915656683,0.220294390804,0.961140812711,-0.02194444136
2021/03/16/14:06:46.316666,751696,1615900006,318171024,mocap,-2.72156811523,10.2976572266,1.91780224609,0.165351061841,0.220857574748,0.960936685887,-0.0219464332926
2021/03/16/14:06:46.325411,751697,1615900006,328171015,mocap,-2.72084985352,10.2953681641,1.91730273437,0.165809367812,0.2214587117,0.960721588689,-0.0218476502938
2021/03/16/14:06:46.336889,751698,1615900006,338171005,mocap,-2.72014868164,10.2930234375,1.91686413574,0.166341597503,0.221864153322,0.960530877339,-0.0220728668594
2021/03/16/14:06:46.345604,751699,1615900006,348170996,mocap,-2.71943994141,10.2906132812,1.91656835938,0.166557333507,0.222547497772,0.960336435171,-0.0220272503567
2021/03/16/14:06:46.355472,751700,1615900006,358170986,mocap,-2.71880200195,10.2881816406,1.91629223633,0.167291592348,0.222976486121,0.960102098085,-0.0223373288231
2021/03/16/14:06:46.366629,751701,1615900006,368170977,mocap,-2.71817260742,10.2857294922,1.91614892578,0.16758934979,0.223386303057,0.959953440019,-0.0223999424384
2021/03/16/14:06:46.375308,751702,1615900006,378171206,mocap,-2.71765527344,10.2832363281,1.91622839355,0.166970957431,0.224556855165,0.959792416315,-0.0222136394845
2021/03/16/14:06:46.386667,751703,1615900006,388171196,mocap,-2.71709472656,10.2805195313,1.91593652344,0.168267149361,0.223994002678,0.959677870841,-0.023048380832
2021/03/16/14:06:46.395564,751704,1615900006,398171186,mocap,-2.71665820313,10.278015625,1.91611950684,0.167846217618,0.224860797457,0.959553644776,-0.0228487631665
2021/03/16/14:06:46.406288,751705,1615900006,408171177,mocap,-2.71621166992,10.2752285156,1.91591796875,0.169383724066,0.224415343948,0.959367710421,-0.0236748899683
2021/03/16/14:06:46.415358,751706,1615900006,418171167,mocap,-2.71578320312,10.2724755859,1.915859375,0.170089697225,0.224679452795,0.959168620387,-0.0241702460975
2021/03/16/14:06:46.426256,751707,1615900006,428171158,mocap,-2.71549560547,10.2697558594,1.91588134766,0.170249036377,0.225081278207,0.959045913182,-0.0241790292157
2021/03/16/14:06:46.435434,751708,1615900006,438171148,mocap,-2.71527294922,10.2669208984,1.9159005127,0.170995553074,0.22583431184,0.958728826157,-0.0244629164235
2021/03/16/14:06:46.447410,751709,1615900006,448171139,mocap,-2.71514355469,10.264234375,1.91613330078,0.170348230822,0.227111814622,0.95855249442,-0.024058462975
2021/03/16/14:06:46.455750,751710,1615900006,458171129,mocap,-2.71498852539,10.2611923828,1.91587646484,0.171495215142,0.227234437125,0.958303470077,-0.0246648471532
2021/03/16/14:06:46.465257,751711,1615900006,468171120,mocap,-2.71498022461,10.2583203125,1.9160480957,0.170610554508,0.22878634886,0.958104431071,-0.0241815782063
2021/03/16/14:06:46.477537,751712,1615900006,478171110,mocap,-2.71491992187,10.2552255859,1.91579919434,0.171400933359,0.228808310082,0.957945880968,-0.0246610081713
2021/03/16/14:06:46.485338,751713,1615900006,488171101,mocap,-2.71501074219,10.252203125,1.91584667969,0.170431874291,0.230688829068,0.957686258494,-0.0239302388243
2021/03/16/14:06:46.497180,751714,1615900006,498171091,mocap,-2.71507666016,10.2489306641,1.91549511719,0.171178501868,0.230846623599,0.957511532219,-0.0240711382803
2021/03/16/14:06:46.505193,751715,1615900006,508171082,mocap,-2.71521801758,10.2457597656,1.91543432617,0.169941682191,0.232323506596,0.957387849973,-0.0235399213626
2021/03/16/14:06:46.517016,751716,1615900006,518171072,mocap,-2.71535668945,10.2423203125,1.91499841309,0.170186562986,0.23247985765,0.957303759644,-0.0236468916535
2021/03/16/14:06:46.525222,751717,1615900006,528171062,mocap,-2.71560229492,10.2388955078,1.91466918945,0.170295672079,0.233540634812,0.957032324343,-0.0233940815569
2021/03/16/14:06:46.537150,751718,1615900006,538171053,mocap,-2.71584399414,10.2354121094,1.91442700195,0.169491885846,0.234957808173,0.956839211328,-0.0229358735143
2021/03/16/14:06:46.545485,751719,1615900006,548171043,mocap,-2.71612011719,10.2317070313,1.91389880371,0.16978240493,0.234995634019,0.956772383888,-0.0231860050616
2021/03/16/14:06:46.557006,751720,1615900006,558171034,mocap,-2.71645166016,10.2280419922,1.91361218262,0.169176978695,0.236521732385,0.956511679542,-0.0228480626911
2021/03/16/14:06:46.565336,751721,1615900006,568171024,mocap,-2.71677978516,10.2241123047,1.91298364258,0.168605729723,0.237160142859,0.956452439889,-0.0229327372405
2021/03/16/14:06:46.577123,751722,1615900006,578171015,mocap,-2.71711938477,10.22015625,1.91250280762,0.1679558833,0.237828834807,0.956400877762,-0.0229265573089
2021/03/16/14:06:46.585257,751723,1615900006,588171005,mocap,-2.71747509766,10.2160644531,1.91192443848,0.167926448052,0.238283539726,0.95629073318,-0.0230152119857
2021/03/16/14:06:46.596986,751724,1615900006,598170996,mocap,-2.7178659668,10.2117412109,1.91110778809,0.16840916285,0.238361634812,0.956176812357,-0.0234092914304
2021/03/16/14:06:46.605273,751725,1615900006,608170986,mocap,-2.71830297852,10.2074824219,1.91062280273,0.167466664436,0.239616840497,0.956038820721,-0.0229883268472
2021/03/16/14:06:46.616708,751726,1615900006,618170977,mocap,-2.71869091797,10.2030517578,1.90995874023,0.167118469469,0.240199868293,0.955952975013,-0.0230078845847
2021/03/16/14:06:46.625378,751727,1615900006,628171206,mocap,-2.71908349609,10.1984775391,1.90923522949,0.166869579834,0.240641880147,0.955883723901,-0.0230723210605
2021/03/16/14:06:46.637053,751728,1615900006,638171196,mocap,-2.71951806641,10.1936923828,1.90842126465,0.167353975768,0.240479720575,0.955829706889,-0.0234889109769
2021/03/16/14:06:46.645405,751729,1615900006,648171186,mocap,-2.72000561523,10.1889570313,1.90792651367,0.167111414647,0.24162245915,0.955590912003,-0.0232028585624
2021/03/16/14:06:46.655926,751730,1615900006,658171177,mocap,-2.7204362793,10.1839951172,1.90714453125,0.166895173979,0.241851837943,0.955573922558,-0.0230689156664
2021/03/16/14:06:46.666734,751731,1615900006,668171167,mocap,-2.72088354492,10.1788896484,1.90649023438,0.16722025486,0.242188558475,0.955423670943,-0.0234029209018
2021/03/16/14:06:46.675217,751732,1615900006,678171158,mocap,-2.72137841797,10.1736289063,1.90573474121,0.167043131349,0.242317441117,0.955422618186,-0.023376597532
2021/03/16/14:06:46.686815,751733,1615900006,688171148,mocap,-2.72185644531,10.1682089844,1.90488818359,0.167754952608,0.241857106966,0.95541155247,-0.0234986444995
2021/03/16/14:06:46.695359,751734,1615900006,698171139,mocap,-2.72240087891,10.1628603516,1.90440209961,0.167262178238,0.242894600744,0.955243086659,-0.0231563517434
2021/03/16/14:06:46.706841,751735,1615900006,708171129,mocap,-2.72294140625,10.1573359375,1.90369824219,0.167544946327,0.243243526186,0.955103415562,-0.0232110235026
2021/03/16/14:06:46.715359,751736,1615900006,718171120,mocap,-2.72351464844,10.1516757813,1.90294567871,0.167296954814,0.243430976301,0.955103704192,-0.0230217201316
2021/03/16/14:06:46.726506,751737,1615900006,728171110,mocap,-2.72408569336,10.1459287109,1.90228076172,0.167603985266,0.243993372979,0.954907673173,-0.0229665900292
2021/03/16/14:06:46.735270,751738,1615900006,738171101,mocap,-2.72469482422,10.1400986328,1.90155957031,0.167935165906,0.244224343497,0.954786423835,-0.0231331116945
2021/03/16/14:06:46.746723,751739,1615900006,748171091,mocap,-2.72535766602,10.1341279297,1.90089782715,0.168211459124,0.244593889351,0.954645936689,-0.0230189121824
2021/03/16/14:06:46.755283,751740,1615900006,758171082,mocap,-2.72606884766,10.1280322266,1.90024755859,0.168274997126,0.245150686134,0.954489856371,-0.0231036705004
2021/03/16/14:06:46.766608,751741,1615900006,768171072,mocap,-2.72682910156,10.1218789063,1.89975610352,0.167133408414,0.24495049403,0.954749630094,-0.0227778188662
2021/03/16/14:06:46.775469,751742,1615900006,778171062,mocap,-2.72758349609,10.1155585938,1.89912585449,0.167213696802,0.245267890826,0.954656839581,-0.022661615756
2021/03/16/14:06:46.786388,751743,1615900006,788171053,mocap,-2.72827514648,10.1090927734,1.89855737305,0.167363919176,0.246110749887,0.954414831641,-0.022608748323
2021/03/16/14:06:46.795406,751744,1615900006,798171043,mocap,-2.72919995117,10.1026318359,1.89805151367,0.167328578371,0.246257615876,0.954389101273,-0.0223557803356
2021/03/16/14:06:46.805375,751745,1615900006,808171034,mocap,-2.73001367188,10.0960224609,1.8975723877,0.167699300614,0.246975206279,0.954138880989,-0.0223427860521
2021/03/16/14:06:46.815221,751746,1615900006,818171024,mocap,-2.73096362305,10.0893417969,1.89720214844,0.167121641859,0.247487293393,0.954113439917,-0.0220894879783
2021/03/16/14:06:46.826146,751747,1615900006,828171015,mocap,-2.73189135742,10.0825683594,1.8968302002,0.167973996037,0.248268264836,0.953760388694,-0.0221070750752
2021/03/16/14:06:46.835729,751748,1615900006,838171005,mocap,-2.7328972168,10.0757080078,1.89644396973,0.167441909873,0.249035396492,0.953660501853,-0.0218226286141
2021/03/16/14:06:46.847207,751749,1615900006,848170996,mocap,-2.73393041992,10.0687714844,1.89634277344,0.167824464052,0.249963978806,0.953353588647,-0.0216769981434
2021/03/16/14:06:46.855197,751750,1615900006,858170986,mocap,-2.73501416016,10.0616816406,1.89614306641,0.167268039875,0.250935795149,0.953205410114,-0.0212620938773
2021/03/16/14:06:46.866228,751751,1615900006,868170977,mocap,-2.73622753906,10.0545488281,1.89624401855,0.16641075438,0.25171281515,0.953166171263,-0.0205518637108
2021/03/16/14:06:46.875339,751752,1615900006,878171206,mocap,-2.73733496094,10.0473378906,1.89629541016,0.166510976605,0.25249378314,0.952940180323,-0.0206399031939
2021/03/16/14:06:46.887051,751753,1615900006,888171196,mocap,-2.73855981445,10.0399931641,1.89637792969,0.166287341417,0.253430671544,0.952738433366,-0.0202703453168
2021/03/16/14:06:46.895192,751754,1615900006,898171186,mocap,-2.7397175293,10.0325917969,1.89668859863,0.166261672313,0.254792880676,0.952379325847,-0.0202797154793
2021/03/16/14:06:46.907133,751755,1615900006,908171177,mocap,-2.7409609375,10.0251435547,1.89725854492,0.166710169634,0.256155374726,0.951936621948,-0.0202189005241
2021/03/16/14:06:46.915127,751756,1615900006,918171167,mocap,-2.74212426758,10.0176054688,1.89786010742,0.167566131946,0.257295788131,0.951466618485,-0.0207783897685
2021/03/16/14:06:46.926853,751757,1615900006,928171158,mocap,-2.74342871094,10.009984375,1.8988737793,0.166381269805,0.258665342292,0.951316258558,-0.020171587262
2021/03/16/14:06:46.935094,751758,1615900006,938171148,mocap,-2.74470996094,10.0021904297,1.89990307617,0.167000097632,0.259348691187,0.95101336778,-0.0205621666439
2021/03/16/14:06:46.946033,751759,1615900006,948171139,mocap,-2.74593823242,9.9943203125,1.90091894531,0.167024205348,0.259715792349,0.950897647249,-0.0210780866714
2021/03/16/14:06:46.955193,751760,1615900006,958171129,mocap,-2.74720703125,9.98633886719,1.90201123047,0.167362364271,0.259805038284,0.950804324093,-0.0215017112649
2021/03/16/14:06:46.967466,751761,1615900006,968171120,mocap,-2.7484699707,9.9782734375,1.90323193359,0.167489969463,0.259823504843,0.950761694852,-0.0221596437002
2021/03/16/14:06:46.975316,751762,1615900006,978171110,mocap,-2.74971606445,9.97017871094,1.9043984375,0.167408632404,0.259709458544,0.950801409066,-0.0224057415552
2021/03/16/14:06:46.987029,751763,1615900006,988171101,mocap,-2.75099121094,9.96209863281,1.9057355957,0.167184146686,0.25925847985,0.950951576179,-0.0229261974591
2021/03/16/14:06:46.996603,751764,1615900006,998171091,mocap,-2.75211035156,9.95397460938,1.90691064453,0.168619808647,0.258228389031,0.950944281888,-0.0242989343121
2021/03/16/14:06:47.005472,751765,1615900007,8171082,mocap,-2.75339526367,9.94587304688,1.90814013672,0.167427110924,0.257829637701,0.951268569136,-0.0240862308422
2021/03/16/14:06:47.017093,751766,1615900007,18171072,mocap,-2.75444775391,9.93784472656,1.90919470215,0.167788743253,0.256730489472,0.951477174112,-0.0250517149349
2021/03/16/14:06:47.025623,751767,1615900007,28171062,mocap,-2.7556574707,9.92990136719,1.91030175781,0.167354092852,0.256247283355,0.951686109147,-0.024969584571
2021/03/16/14:06:47.036881,751768,1615900007,38171053,mocap,-2.75662866211,9.92200097656,1.91105212402,0.167886838099,0.255433875926,0.95178417574,-0.0259696954066
2021/03/16/14:06:47.045318,751769,1615900007,48171043,mocap,-2.7576640625,9.91416308594,1.91174975586,0.168062819279,0.255160939044,0.951819643814,-0.0262136297447
2021/03/16/14:06:47.056661,751770,1615900007,58171034,mocap,-2.75866503906,9.90653222656,1.91258325195,0.1672863048,0.255240416148,0.951946467962,-0.0257983483641
2021/03/16/14:06:47.065496,751771,1615900007,68171024,mocap,-2.75954736328,9.89888671875,1.91311425781,0.167261944391,0.255530277752,0.951872902152,-0.0258013196301
2021/03/16/14:06:47.076869,751772,1615900007,78171015,mocap,-2.76043139648,9.89133496094,1.91361694336,0.167162498716,0.255716805727,0.951839964367,-0.0258129146934
2021/03/16/14:06:47.085534,751773,1615900007,88171005,mocap,-2.76120166016,9.88382128906,1.91402160645,0.167448286418,0.256138652854,0.951673622095,-0.0259110496801
2021/03/16/14:06:47.096662,751774,1615900007,98170996,mocap,-2.76195825195,9.87631152344,1.91440698242,0.167465983649,0.256350787377,0.951610691122,-0.0260097298629
2021/03/16/14:06:47.105433,751775,1615900007,108170986,mocap,-2.76256201172,9.86875390625,1.91474511719,0.168326019692,0.256381323181,0.951434551525,-0.0265944440976
2021/03/16/14:06:47.116666,751776,1615900007,118170977,mocap,-2.76315112305,9.86120605469,1.91520849609,0.168531779855,0.256584324106,0.951338289339,-0.0267765237165
2021/03/16/14:06:47.125416,751777,1615900007,128171206,mocap,-2.76374487305,9.85361425781,1.9156920166,0.168503248987,0.256274767476,0.951416994505,-0.0271219772768
2021/03/16/14:06:47.136744,751778,1615900007,138171196,mocap,-2.76434643555,9.84597851562,1.91636779785,0.167563348486,0.256386806974,0.951564237909,-0.0267177645433
2021/03/16/14:06:47.148586,751779,1615900007,148171186,mocap,-2.76482788086,9.83828222656,1.91703210449,0.167875705712,0.256094279475,0.951577407582,-0.0270904895369
2021/03/16/14:06:47.160005,751780,1615900007,158171177,mocap,-2.76525756836,9.83053613281,1.91766577148,0.167519670043,0.255383879321,0.951817459877,-0.0275637609373
2021/03/16/14:06:47.165479,751781,1615900007,168171167,mocap,-2.76560986328,9.82277148438,1.91837280273,0.168592565229,0.254447366759,0.951846132461,-0.028670966834
2021/03/16/14:06:47.175637,751782,1615900007,178171158,mocap,-2.76597802734,9.8149140625,1.91910339355,0.168690322569,0.253851909959,0.951971966945,-0.0291918371941
2021/03/16/14:06:47.185187,751783,1615900007,188171148,mocap,-2.76635302734,9.80708886719,1.9199888916,0.167654185336,0.253357307438,0.952299127636,-0.0287838042961
2021/03/16/14:06:47.196489,751784,1615900007,198171139,mocap,-2.76660180664,9.79923925781,1.92079858398,0.168263844199,0.252363818186,0.952424667588,-0.0297831098465
2021/03/16/14:06:47.205700,751785,1615900007,208171129,mocap,-2.76685522461,9.79128613281,1.9215982666,0.168082147915,0.251595330326,0.952642342039,-0.0303441406783
2021/03/16/14:06:47.217362,751786,1615900007,218171120,mocap,-2.76714428711,9.78337402344,1.92243823242,0.167696967738,0.250561080081,0.952969991868,-0.0307418035936
2021/03/16/14:06:47.225425,751787,1615900007,228171110,mocap,-2.76736547852,9.77534277344,1.92323620605,0.167971314137,0.249506523787,0.953174855539,-0.0314616646873
2021/03/16/14:06:47.237399,751788,1615900007,238171101,mocap,-2.76749169922,9.76736523437,1.92391809082,0.167802258014,0.248390582913,0.953478817853,-0.0319790228279
2021/03/16/14:06:47.245272,751789,1615900007,248171091,mocap,-2.7675793457,9.75927246094,1.92442480469,0.167646686646,0.247503593157,0.95371956338,-0.0324894028798
2021/03/16/14:06:47.257130,751790,1615900007,258171082,mocap,-2.767671875,9.75121484375,1.92488647461,0.167864309472,0.246634808804,0.953884494418,-0.0331241456492
2021/03/16/14:06:47.265643,751791,1615900007,268171072,mocap,-2.7676940918,9.74319824219,1.92520776367,0.167784422349,0.245958358532,0.954050607404,-0.0337685533931
2021/03/16/14:06:47.277329,751792,1615900007,278171062,mocap,-2.76770996094,9.73516308594,1.9253692627,0.167631453367,0.245319871957,0.954225225644,-0.0342356776589
2021/03/16/14:06:47.285416,751793,1615900007,288171053,mocap,-2.76768041992,9.72720117188,1.92552636719,0.168161343272,0.245191030641,0.95414613524,-0.0347600782623
2021/03/16/14:06:47.297024,751794,1615900007,298171043,mocap,-2.76757617188,9.71919335937,1.92542358398,0.168502076277,0.245319079844,0.954028678305,-0.035424090942
2021/03/16/14:06:47.305753,751795,1615900007,308171034,mocap,-2.76749145508,9.71125292969,1.92529260254,0.168426295115,0.245597834292,0.953958545535,-0.0357404952681
2021/03/16/14:06:47.317122,751796,1615900007,318171024,mocap,-2.76737084961,9.70323339844,1.92502758789,0.169133151722,0.246195637809,0.953658439321,-0.0362941957905
2021/03/16/14:06:47.325555,751797,1615900007,328171015,mocap,-2.76722045898,9.69514941406,1.92455944824,0.169145402424,0.246845070358,0.953465901055,-0.0368797891768
2021/03/16/14:06:47.336980,751798,1615900007,338171005,mocap,-2.7670390625,9.68707910156,1.92410644531,0.169256075671,0.247357649738,0.953299459531,-0.0372384428269
2021/03/16/14:06:47.345409,751799,1615900007,348170996,mocap,-2.76684375,9.67891894531,1.92355773926,0.169609164045,0.248020898247,0.95303911854,-0.0378788079159
2021/03/16/14:06:47.357066,751800,1615900007,358170986,mocap,-2.76663842773,9.67068457031,1.92282226563,0.169650157309,0.248624090025,0.952866143893,-0.0380919037686
2021/03/16/14:06:47.365288,751801,1615900007,368170977,mocap,-2.76640356445,9.66236816406,1.92200964355,0.169751627914,0.249131314121,0.952713392839,-0.0381466333782
2021/03/16/14:06:47.377484,751802,1615900007,378171206,mocap,-2.76614794922,9.65398535156,1.9211060791,0.170325850358,0.249838721527,0.952413778257,-0.0384410255283
2021/03/16/14:06:47.385368,751803,1615900007,388171196,mocap,-2.76589794922,9.64556933594,1.92012609863,0.170549247424,0.250407189886,0.952219462558,-0.0385654548734
2021/03/16/14:06:47.396820,751804,1615900007,398171186,mocap,-2.76561230469,9.63707910156,1.9190300293,0.170298210443,0.251002757715,0.952109593308,-0.0385156427871
2021/03/16/14:06:47.405479,751805,1615900007,408171177,mocap,-2.76534545898,9.62848535156,1.91792041016,0.170648465454,0.251576441607,0.951882380947,-0.0388371346196
2021/03/16/14:06:47.416909,751806,1615900007,418171167,mocap,-2.76494458008,9.619859375,1.91662072754,0.170518171626,0.252176650455,0.951748471495,-0.0387986669632
2021/03/16/14:06:47.425142,751807,1615900007,428171158,mocap,-2.7645793457,9.61120996094,1.91532495117,0.170918879904,0.252704247662,0.951532385652,-0.0389026606209
2021/03/16/14:06:47.436717,751808,1615900007,438171148,mocap,-2.76420996094,9.60246386719,1.91408044434,0.170282807564,0.253392947699,0.951474472572,-0.0386277069128
2021/03/16/14:06:47.445513,751809,1615900007,448171139,mocap,-2.76369311523,9.59366015625,1.91247973633,0.171347616692,0.2536490151,0.951184525298,-0.0393722703084
2021/03/16/14:06:47.456990,751810,1615900007,458171129,mocap,-2.76322338867,9.58483691406,1.91093518066,0.171559569172,0.254277587947,0.950971938784,-0.0395297401884
2021/03/16/14:06:47.465243,751811,1615900007,468171120,mocap,-2.76278271484,9.57598730469,1.9095291748,0.170748955179,0.255160747144,0.950897741273,-0.0391314879662
2021/03/16/14:06:47.475909,751812,1615900007,478171110,mocap,-2.76219213867,9.56713574219,1.90774035645,0.171744636222,0.255936574347,0.950479102416,-0.0398714152763
2021/03/16/14:06:47.485214,751813,1615900007,488171101,mocap,-2.76167236328,9.55817773438,1.90608666992,0.171182001611,0.256757734598,0.950365370835,-0.0397222032532
2021/03/16/14:06:47.495559,751814,1615900007,498171091,mocap,-2.76120214844,9.54924804688,1.90467272949,0.170358739754,0.257998000797,0.950195500686,-0.0392866669422
2021/03/16/14:06:47.505671,751815,1615900007,508171082,mocap,-2.7605793457,9.54027734375,1.90311669922,0.171276235195,0.258963421736,0.949751621955,-0.0396768747096
2021/03/16/14:06:47.515719,751816,1615900007,518171072,mocap,-2.76002563477,9.53121582031,1.90183630371,0.170988095371,0.260115475045,0.94950439331,-0.0392990876991
2021/03/16/14:06:47.527287,751817,1615900007,528171062,mocap,-2.75942797852,9.52208789063,1.90081787109,0.170132144477,0.260984817892,0.94944797307,-0.0386073037169
2021/03/16/14:06:47.535145,751818,1615900007,538171053,mocap,-2.75882519531,9.51292480469,1.89983056641,0.170120052066,0.26167689178,0.949272130713,-0.0382988215694
2021/03/16/14:06:47.546724,751819,1615900007,548171043,mocap,-2.75812304688,9.50366210938,1.89901416016,0.169478971522,0.2623871033,0.949219927375,-0.037568848325
2021/03/16/14:06:47.555400,751820,1615900007,558171034,mocap,-2.75741137695,9.49436914063,1.89831274414,0.169623465067,0.26302367277,0.949029393402,-0.0372779014637
2021/03/16/14:06:47.566399,751821,1615900007,568171024,mocap,-2.75662670898,9.485046875,1.89763183594,0.169392346247,0.263537528888,0.94894785214,-0.0367720672148
2021/03/16/14:06:47.575449,751822,1615900007,578171015,mocap,-2.75584130859,9.47575976562,1.89722521973,0.169582375699,0.26424860358,0.948741392504,-0.0361143961348
2021/03/16/14:06:47.585404,751823,1615900007,588171005,mocap,-2.75508666992,9.46656933594,1.89718457031,0.170001369708,0.265596470552,0.948324127271,-0.0352050897932
2021/03/16/14:06:47.596417,751824,1615900007,598170996,mocap,-2.75426782227,9.45724609375,1.89720617676,0.169652712853,0.267061276672,0.948012130597,-0.0341939726317
2021/03/16/14:06:47.605294,751825,1615900007,608170986,mocap,-2.75342797852,9.44791113281,1.89770788574,0.168588562376,0.268298930028,0.947909492249,-0.0325757934301
2021/03/16/14:06:47.615277,751826,1615900007,618170977,mocap,-2.75261303711,9.43858984375,1.89850500488,0.168491969377,0.269403498697,0.947650021299,-0.0314905564934
2021/03/16/14:06:47.626110,751827,1615900007,628171206,mocap,-2.75176245117,9.429140625,1.89941088867,0.167556618069,0.270241186524,0.947625105771,-0.0300190571244
2021/03/16/14:06:47.635261,751828,1615900007,638171196,mocap,-2.75091113281,9.41959277344,1.90055737305,0.166579380512,0.271370874673,0.94753090988,-0.0281837275952
2021/03/16/14:06:47.647252,751829,1615900007,648171186,mocap,-2.74988769531,9.41005761719,1.90168676758,0.166979715594,0.272035752124,0.947299476884,-0.0271666463299
2021/03/16/14:06:47.655341,751830,1615900007,658171177,mocap,-2.74891992187,9.40054003906,1.9030970459,0.167041880346,0.272460829516,0.947197964798,-0.0260407269351
2021/03/16/14:06:47.667106,751831,1615900007,668171167,mocap,-2.74797729492,9.39102929688,1.90470117187,0.166965162858,0.272835388219,0.947133847539,-0.0249188254922
2021/03/16/14:06:47.675417,751832,1615900007,678171158,mocap,-2.74703344727,9.38145117187,1.90630517578,0.166669211917,0.272687667529,0.94726200693,-0.023611691788
2021/03/16/14:06:47.685956,751833,1615900007,688171148,mocap,-2.74596704102,9.37192285156,1.90768994141,0.167239687084,0.272012888831,0.947364746885,-0.0232358951894
2021/03/16/14:06:47.697196,751834,1615900007,698171139,mocap,-2.7449831543,9.36237890625,1.90906530762,0.167778702631,0.271286134486,0.947493637801,-0.0225819276408
2021/03/16/14:06:47.705117,751835,1615900007,708171129,mocap,-2.74412011719,9.35295117188,1.91046044922,0.168367013406,0.270779047797,0.947549451013,-0.0219382455089
2021/03/16/14:06:47.717148,751836,1615900007,718171120,mocap,-2.74315966797,9.34353613281,1.91148901367,0.169456728045,0.270073422604,0.94755645692,-0.0219434890771
2021/03/16/14:06:47.725717,751837,1615900007,728171110,mocap,-2.74227661133,9.33419921875,1.91256311035,0.170249694361,0.269549275692,0.947571836707,-0.0215834583447
2021/03/16/14:06:47.737517,751838,1615900007,738171101,mocap,-2.74147924805,9.32502832031,1.91364477539,0.171678313674,0.26972789286,0.947272554353,-0.0211689944076
2021/03/16/14:06:47.745017,751839,1615900007,748171091,mocap,-2.74071386719,9.31586035156,1.91456652832,0.171731553605,0.269713085705,0.947288261222,-0.0202009043819
2021/03/16/14:06:47.755326,751840,1615900007,758171082,mocap,-2.74009350586,9.30678417969,1.91561633301,0.172791309451,0.269712183564,0.947105850431,-0.019723465213
2021/03/16/14:06:47.767201,751841,1615900007,768171072,mocap,-2.73959814453,9.29773535156,1.91659094238,0.172676339658,0.270115570707,0.947037667443,-0.0184421323361
2021/03/16/14:06:47.775542,751842,1615900007,778171062,mocap,-2.73912280273,9.28872460938,1.9174276123,0.173696712048,0.269716175124,0.946977968881,-0.0177584854943
2021/03/16/14:06:47.786972,751843,1615900007,788171053,mocap,-2.73878955078,9.2797265625,1.91835375977,0.174445011343,0.269863623303,0.94681461255,-0.0168711320138
2021/03/16/14:06:47.795755,751844,1615900007,798171043,mocap,-2.73854174805,9.27070800781,1.91916931152,0.17432304693,0.269681632692,0.946906424778,-0.0158592939319
2021/03/16/14:06:47.807207,751845,1615900007,808171034,mocap,-2.73838134766,9.26175585938,1.92003515625,0.17466317949,0.269439257987,0.946932744006,-0.0146166992396
2021/03/16/14:06:47.815484,751846,1615900007,818171024,mocap,-2.73832128906,9.25280664062,1.92095666504,0.174927147535,0.268916706237,0.947044504057,-0.0138201381951
2021/03/16/14:06:47.827134,751847,1615900007,828171015,mocap,-2.73832739258,9.2438203125,1.9217701416,0.175072009449,0.268256154631,0.947219226133,-0.0128124240208
2021/03/16/14:06:47.835767,751848,1615900007,838171005,mocap,-2.73843383789,9.23486816406,1.92263574219,0.175306856062,0.267550989671,0.947388041343,-0.0118268666166
2021/03/16/14:06:47.846662,751849,1615900007,848170996,mocap,-2.7385715332,9.22597265625,1.9235111084,0.175788988121,0.266520885219,0.947597877988,-0.0110951981539
2021/03/16/14:06:47.855333,751850,1615900007,858170986,mocap,-2.73877416992,9.21701757813,1.92423339844,0.175508640383,0.265319500875,0.947996702937,-0.0102243187724
2021/03/16/14:06:47.866949,751851,1615900007,868170977,mocap,-2.73903320312,9.20809667969,1.92496057129,0.174977428778,0.264421445974,0.948357752821,-0.00904235482186
2021/03/16/14:06:47.875161,751852,1615900007,878171206,mocap,-2.73934326172,9.19917089844,1.92557653809,0.174670646989,0.263120911795,0.948782816811,-0.00828997919192
2021/03/16/14:06:47.886962,751853,1615900007,888171196,mocap,-2.73977685547,9.19032617188,1.92605688477,0.174667987868,0.26217184016,0.949052427186,-0.00751795259947
2021/03/16/14:06:47.895390,751854,1615900007,898171186,mocap,-2.74024902344,9.1814921875,1.9266138916,0.17397169178,0.261036967275,0.949501160419,-0.00641112652965
2021/03/16/14:06:47.906726,751855,1615900007,908171177,mocap,-2.74070703125,9.17265527344,1.9271282959,0.173785365068,0.259808291184,0.949876698536,-0.00570588541722
2021/03/16/14:06:47.915615,751856,1615900007,918171167,mocap,-2.74128198242,9.16382617187,1.92745288086,0.17308601163,0.258927914325,0.950250324096,-0.00467859450847
2021/03/16/14:06:47.926964,751857,1615900007,928171158,mocap,-2.74186547852,9.15500976562,1.9277454834,0.172592576645,0.258004173192,0.950595798759,-0.00364304708292
2021/03/16/14:06:47.935380,751858,1615900007,938171148,mocap,-2.74245996094,9.1462109375,1.92802172852,0.171971865464,0.256979237888,0.950988775407,-0.00277677249925
2021/03/16/14:06:47.946492,751859,1615900007,948171139,mocap,-2.74308349609,9.13740332031,1.92811376953,0.170824699134,0.256217811496,0.951403853936,-0.00143689941744
2021/03/16/14:06:47.955440,751860,1615900007,958171129,mocap,-2.74373046875,9.12864941406,1.92821740723,0.170350552879,0.255587952782,0.951659068014,-0.000709939655789
2021/03/16/14:06:47.966333,751861,1615900007,968171120,mocap,-2.7443984375,9.11990527344,1.92830297852,0.170109182426,0.255031289981,0.951851744765,0.000409229345825
2021/03/16/14:06:47.975419,751862,1615900007,978171110,mocap,-2.74505957031,9.1110859375,1.92810412598,0.169365089953,0.254709401063,0.952069229353,0.00166247773022
2021/03/16/14:06:47.985791,751863,1615900007,988171101,mocap,-2.7457253418,9.1023203125,1.92788366699,0.168462540973,0.254466552378,0.952292258331,0.00257135138424
2021/03/16/14:06:47.995547,751864,1615900007,998171091,mocap,-2.7464387207,9.09351953125,1.92770568848,0.16853668478,0.254223202106,0.952340459779,0.00368764209579
2021/03/16/14:06:48.005371,751865,1615900008,8171082,mocap,-2.74707446289,9.08466601563,1.92721472168,0.168039407638,0.254372802351,0.952383221754,0.00484074485924
2021/03/16/14:06:48.016618,751866,1615900008,18171072,mocap,-2.74784643555,9.07582910156,1.92679125977,0.167630007431,0.254224154721,0.952488350472,0.00601634897117
2021/03/16/14:06:48.025264,751867,1615900008,28171062,mocap,-2.74856030273,9.06693554687,1.92625439453,0.167913052098,0.254196007804,0.952439734087,0.00693952264507
2021/03/16/14:06:48.035344,751868,1615900008,38171053,mocap,-2.7492644043,9.05801074219,1.92551611328,0.166930859553,0.254173027586,0.952606075543,0.00847435567595
2021/03/16/14:06:48.047456,751869,1615900008,48171043,mocap,-2.75007250977,9.04905761719,1.92481994629,0.167158601702,0.254166938618,0.952560507787,0.00925490267102
2021/03/16/14:06:48.055442,751870,1615900008,58171034,mocap,-2.7507409668,9.04022753906,1.92390356445,0.167135694244,0.25421505626,0.952545740426,0.00984782968012
2021/03/16/14:06:48.066902,751871,1615900008,68171024,mocap,-2.75159204102,9.03103613281,1.92290185547,0.166924627921,0.254397310399,0.95251657265,0.0114175364686
2021/03/16/14:06:48.077171,751872,1615900008,78171015,mocap,-2.75238671875,9.02192285156,1.9216427002,0.167716149155,0.254048085238,0.952461277357,0.0121810524495
2021/03/16/14:06:48.085320,751873,1615900008,88171005,mocap,-2.75318579102,9.01295117188,1.92047875977,0.166715266725,0.254907316265,0.952387806074,0.0136294525904
2021/03/16/14:06:48.096431,751874,1615900008,98170996,mocap,-2.7540300293,9.00378808594,1.91894787598,0.167911099282,0.25460916505,0.952253310468,0.0139165808875
2021/03/16/14:06:48.106145,751875,1615900008,108170986,mocap,-2.75483569336,8.99470410156,1.91741247559,0.167468898019,0.255164067071,0.952169110978,0.0148140913715
2021/03/16/14:06:48.115571,751876,1615900008,118170977,mocap,-2.75577075195,8.98561035156,1.91571887207,0.16783010402,0.256027990411,0.951861090706,0.0155947225889
2021/03/16/14:06:48.126818,751877,1615900008,128171206,mocap,-2.75658251953,8.97661914063,1.9141270752,0.167629444666,0.257386438977,0.951520476016,0.0161670517886
2021/03/16/14:06:48.137009,751878,1615900008,138171196,mocap,-2.75758105469,8.96749609375,1.9124017334,0.167728454446,0.258341442437,0.951235179635,0.0166884023228
2021/03/16/14:06:48.145474,751879,1615900008,148171186,mocap,-2.75845458984,8.95835058594,1.91059094238,0.167975597398,0.259396783205,0.950898861722,0.0169958796788
2021/03/16/14:06:48.155377,751880,1615900008,158171177,mocap,-2.75952270508,8.9491796875,1.90886022949,0.16839624259,0.260525398442,0.950510888069,0.0172707271197
2021/03/16/14:06:48.165733,751881,1615900008,168171167,mocap,-2.76048217773,8.93990234375,1.90727026367,0.167677812054,0.26163834336,0.950325379678,0.0176409090125
2021/03/16/14:06:48.175265,751882,1615900008,178171158,mocap,-2.76163134766,8.93060058594,1.90582788086,0.169008440836,0.262505516203,0.949857057622,0.017279366024
2021/03/16/14:06:48.186584,751883,1615900008,188171148,mocap,-2.7626484375,8.92120214844,1.90441638184,0.168134637504,0.263334361524,0.949782263122,0.0173034189774
2021/03/16/14:06:48.195443,751884,1615900008,198171139,mocap,-2.76386474609,8.91178222656,1.90324304199,0.169150725364,0.26399244835,0.94943017528,0.016684226451
2021/03/16/14:06:48.206647,751885,1615900008,208171129,mocap,-2.76507275391,8.90225683594,1.90212817383,0.16932731676,0.264360506048,0.949312291815,0.0157465242289
2021/03/16/14:06:48.215476,751886,1615900008,218171120,mocap,-2.76627050781,8.89276074219,1.90114208984,0.16983040655,0.265235486202,0.948987869943,0.0151592449507
2021/03/16/14:06:48.225648,751887,1615900008,228171110,mocap,-2.76757080078,8.88328125,1.90036816406,0.170060791934,0.265762301535,0.948817250616,0.0139838565367
2021/03/16/14:06:48.235452,751888,1615900008,238171101,mocap,-2.76883129883,8.87379980469,1.89977209473,0.170668775902,0.266759171805,0.948438952035,0.0132389804667
2021/03/16/14:06:48.245687,751889,1615900008,248171091,mocap,-2.77021166992,8.86424707031,1.89953356934,0.170942221416,0.268260598666,0.947980308318,0.0121793587068
2021/03/16/14:06:48.257603,751890,1615900008,258171082,mocap,-2.77173217773,8.85473046875,1.89984814453,0.171034398908,0.269706987059,0.947562668623,0.0114172871356
2021/03/16/14:06:48.265494,751891,1615900008,268171072,mocap,-2.77312255859,8.84521289062,1.90052734375,0.171296719518,0.270653575581,0.947256642722,0.0104372424327
2021/03/16/14:06:48.277341,751892,1615900008,278171062,mocap,-2.77473413086,8.83551171875,1.90142822266,0.170830464728,0.271493012333,0.947107439499,0.00979766072585
2021/03/16/14:06:48.285443,751893,1615900008,288171053,mocap,-2.77616113281,8.82574609375,1.90262524414,0.171045085575,0.271839689993,0.946983413344,0.00831805215089
2021/03/16/14:06:48.296592,751894,1615900008,298171043,mocap,-2.77781689453,8.81602636719,1.9040970459,0.171061722101,0.272071826475,0.946923632679,0.00710273841674
2021/03/16/14:06:48.307346,751895,1615900008,308171034,mocap,-2.77935253906,8.80621777344,1.9058001709,0.170731528306,0.271869819759,0.947051828385,0.00551233530019
2021/03/16/14:06:48.315456,751896,1615900008,318171024,mocap,-2.78091235352,8.79642675781,1.90762609863,0.170513441661,0.271126377515,0.947311124987,0.00415874247565
2021/03/16/14:06:48.327567,751897,1615900008,328171015,mocap,-2.78240161133,8.78675390625,1.90930834961,0.170243149296,0.269805677961,0.947744111016,0.001808100682
2021/03/16/14:06:48.335486,751898,1615900008,338171005,mocap,-2.78387329102,8.77691796875,1.91102893066,0.169745676188,0.268326603258,0.948254696167,0.000512740013747
2021/03/16/14:06:48.346502,751899,1615900008,348170996,mocap,-2.78530786133,8.76742578125,1.91260314941,0.169886343338,0.266973372557,0.948609490174,-0.00197076920431
2021/03/16/14:06:48.357178,751900,1615900008,358170986,mocap,-2.78662915039,8.75781640625,1.91396691895,0.169435988171,0.265606309656,0.94906831656,-0.00374926814996
2021/03/16/14:06:48.365458,751901,1615900008,368170977,mocap,-2.78803955078,8.74846582031,1.91531213379,0.16912766684,0.26399232281,0.949566490934,-0.00523147136819
2021/03/16/14:06:48.376065,751902,1615900008,378171206,mocap,-2.78934375,8.73914355469,1.9165291748,0.16868528573,0.263211473417,0.949852476775,-0.00672707391118
2021/03/16/14:06:48.386143,751903,1615900008,388171196,mocap,-2.79058325195,8.73004199219,1.91760742188,0.167642109086,0.262160612189,0.950319421236,-0.00780556241138
2021/03/16/14:06:48.397095,751904,1615900008,398171186,mocap,-2.79186328125,8.72104589844,1.91866625977,0.166561018841,0.261876997888,0.950582701703,-0.00838960164859
2021/03/16/14:06:48.405023,751905,1615900008,408171177,mocap,-2.79307495117,8.71217285156,1.91969873047,0.16560496812,0.261788177177,0.950769805526,-0.0088731138027
2021/03/16/14:06:48.416003,751906,1615900008,418171167,mocap,-2.79423266602,8.70346679688,1.92068457031,0.164112096795,0.261932050087,0.950987702072,-0.00901142532281
2021/03/16/14:06:48.426143,751907,1615900008,428171158,mocap,-2.79534033203,8.69485449219,1.92165429687,0.162930165752,0.26237386813,0.951065668525,-0.00937036575076
2021/03/16/14:06:48.435557,751908,1615900008,438171148,mocap,-2.79631103516,8.68636816406,1.9226262207,0.16165377423,0.26284727403,0.951150529689,-0.00959423375926
2021/03/16/14:06:48.446996,751909,1615900008,448171139,mocap,-2.79726342773,8.67782421875,1.9234519043,0.160580380827,0.263544582652,0.951135763936,-0.00994747101437
2021/03/16/14:06:48.456163,751910,1615900008,458171129,mocap,-2.79808007812,8.66933691406,1.92438500977,0.15918579546,0.264040705835,0.95122973601,-0.0102165555739
2021/03/16/14:06:48.466055,751911,1615900008,468171120,mocap,-2.79874536133,8.66087597656,1.92525915527,0.158525598769,0.264635659189,0.951169885402,-0.0106514775581
2021/03/16/14:06:48.475315,751912,1615900008,478171110,mocap,-2.79942700195,8.65243945312,1.92612268066,0.158351060127,0.265003021781,0.951084783119,-0.0116647898768
2021/03/16/14:06:48.485499,751913,1615900008,488171101,mocap,-2.79992895508,8.64411425781,1.92705529785,0.157659157341,0.26537693361,0.951087007908,-0.0123359428706
2021/03/16/14:06:48.495798,751914,1615900008,498171091,mocap,-2.80032568359,8.6356875,1.92792700195,0.157938020462,0.265378025715,0.951028010085,-0.0132591574511
2021/03/16/14:06:48.505239,751915,1615900008,508171082,mocap,-2.80072265625,8.62732617187,1.92866577148,0.15761502085,0.265572521248,0.951014926816,-0.0141189106628
2021/03/16/14:06:48.515672,751916,1615900008,518171072,mocap,-2.80100537109,8.61890527344,1.9293861084,0.157421170366,0.26535895037,0.95109480246,-0.0148956572056
2021/03/16/14:06:48.525493,751917,1615900008,528171062,mocap,-2.80120385742,8.61054980469,1.93005834961,0.157175859823,0.265269605592,0.95114845388,-0.0156338867609
2021/03/16/14:06:48.536086,751918,1615900008,538171053,mocap,-2.80130859375,8.60216699219,1.93060961914,0.157112700043,0.265167965551,0.95117633983,-0.0162827679158
2021/03/16/14:06:48.546710,751919,1615900008,548171043,mocap,-2.8013762207,8.59382128906,1.93113171387,0.157385410271,0.264728307759,0.951235633922,-0.0173067813213
2021/03/16/14:06:48.555450,751920,1615900008,558171034,mocap,-2.80140014648,8.58546582031,1.93159350586,0.157620815732,0.264468520296,0.95125464328,-0.0180743379042
2021/03/16/14:06:48.566499,751921,1615900008,568171024,mocap,-2.80137670898,8.57718066406,1.9319407959,0.15756132955,0.264066439352,0.951359426819,-0.0189362067554
2021/03/16/14:06:48.577779,751922,1615900008,578171015,mocap,-2.80122998047,8.56885839844,1.93223718262,0.158100930096,0.263862007958,0.95130559933,-0.0199647433011
2021/03/16/14:06:48.585764,751923,1615900008,588171005,mocap,-2.8010246582,8.56054589844,1.93246508789,0.159129534828,0.263693342514,0.951157814564,-0.0210338398208
