time,.header.seq,.header.stamp.secs,.header.stamp.nsecs,.header.frame_id,.pose.position.x,.pose.position.y,.pose.position.z,.pose.orientation.x,.pose.orientation.y,.pose.orientation.z,.pose.orientation.w
2021/03/16/13:56:48.237478,705137,1615899408,238171101,mocap,-2.78858203125,10.3613027344,1.93334814453,0.172119628422,0.198042568609,0.961861166492,-0.0773115003505
2021/03/16/13:56:48.245759,705138,1615899408,248171091,mocap,-2.78854174805,10.3613339844,1.93316723633,0.173827258302,0.198657117663,0.961403400399,-0.0776075544372
2021/03/16/13:56:48.257597,705139,1615899408,258171082,mocap,-2.78850561523,10.3614130859,1.93318847656,0.173663313441,0.198675050293,0.961450765352,-0.0773415041915
2021/03/16/13:56:48.266003,705140,1615899408,268171072,mocap,-2.78847949219,10.3614736328,1.93317822266,0.173734122253,0.19884921344,0.961417768221,-0.0771447620495
2021/03/16/13:56:48.277946,705141,1615899408,278171062,mocap,-2.78845043945,10.3615732422,1.93322155762,0.173580624561,0.198897255047,0.961459413544,-0.0768469319582
2021/03/16/13:56:48.285811,705142,1615899408,288171053,mocap,-2.78841723633,10.3616298828,1.93322509766,0.173592400651,0.198963968199,0.961467240245,-0.0765491447997
2021/03/16/13:56:48.297797,705143,1615899408,298171043,mocap,-2.78837866211,10.3616865234,1.93321704102,0.173694329068,0.199001299053,0.961469022554,-0.0761976945733
2021/03/16/13:56:48.305708,705144,1615899408,308171034,mocap,-2.78837719727,10.3617617187,1.93324304199,0.173526750948,0.198944305107,0.961515493164,-0.0761419090372
2021/03/16/13:56:48.317357,705145,1615899408,318171024,mocap,-2.78834814453,10.36184375,1.93328137207,0.17351091465,0.199074115803,0.961530037531,-0.0756534142727
2021/03/16/13:56:48.325543,705146,1615899408,328171015,mocap,-2.78830004883,10.3618740234,1.93325646973,0.173510690045,0.199040243525,0.96156254266,-0.0753292649118
2021/03/16/13:56:48.337519,705147,1615899408,338171005,mocap,-2.78815966797,10.3620791016,1.93326867676,0.173349985376,0.199217297006,0.961493230636,-0.0761118586465
2021/03/16/13:56:48.345838,705148,1615899408,348170996,mocap,-2.78823486328,10.3619775391,1.93326000977,0.173517384206,0.199123546891,0.961588995367,-0.0747537815497
2021/03/16/13:56:48.357560,705149,1615899408,358170986,mocap,-2.78820141602,10.3620410156,1.93328479004,0.173750311977,0.19918678913,0.961556483384,-0.0744619432326
2021/03/16/13:56:48.365693,705150,1615899408,368170977,mocap,-2.78814135742,10.3620976563,1.93329968262,0.173575739952,0.199164807256,0.9616173456,-0.0741412372893
2021/03/16/13:56:48.377486,705151,1615899408,378171206,mocap,-2.78815185547,10.3622138672,1.93347888184,0.174282613083,0.199412714075,0.961467619955,-0.0737574530569
2021/03/16/13:56:48.385525,705152,1615899408,388171196,mocap,-2.78809326172,10.3622138672,1.93347387695,0.174599316843,0.199386358085,0.961435003125,-0.0735043439641
2021/03/16/13:56:48.397258,705153,1615899408,398171186,mocap,-2.78803076172,10.3622363281,1.93349755859,0.174483937337,0.199335048547,0.961486062814,-0.0732492384017
2021/03/16/13:56:48.406214,705154,1615899408,408171177,mocap,-2.78796679688,10.3622753906,1.93351794434,0.174829783526,0.199349759352,0.96144276803,-0.0729522098623
2021/03/16/13:56:48.417081,705155,1615899408,418171167,mocap,-2.78790942383,10.3622617188,1.93353466797,0.174760800489,0.199252334177,0.961503381731,-0.0725838181277
2021/03/16/13:56:48.426963,705156,1615899408,428171158,mocap,-2.78783569336,10.3622607422,1.93353955078,0.174807050997,0.199220353184,0.961519507029,-0.0723462831471
2021/03/16/13:56:48.436239,705157,1615899408,438171148,mocap,-2.78777514648,10.3622802734,1.93355114746,0.17502615206,0.199142599357,0.961512711345,-0.0721205601732
2021/03/16/13:56:48.445773,705158,1615899408,448171139,mocap,-2.78770043945,10.36228125,1.93356005859,0.174964391057,0.199042149403,0.961567447391,-0.0718174122607
2021/03/16/13:56:48.456955,705159,1615899408,458171129,mocap,-2.78758618164,10.3621835938,1.93338818359,0.17435848395,0.198758456265,0.961758371524,-0.0715193405006
2021/03/16/13:56:48.465506,705160,1615899408,468171120,mocap,-2.78751464844,10.3621640625,1.93339855957,0.174585921692,0.19873339617,0.961736060389,-0.0713340855742
2021/03/16/13:56:48.477205,705161,1615899408,478171110,mocap,-2.78749560547,10.3622607422,1.93358154297,0.175594874983,0.199113941698,0.961482676483,-0.0712118750458
2021/03/16/13:56:48.485494,705162,1615899408,488171101,mocap,-2.78739135742,10.3622539063,1.93357763672,0.175436572417,0.199074969288,0.96154088561,-0.0709245412159
2021/03/16/13:56:48.496044,705163,1615899408,498171091,mocap,-2.78731518555,10.3622089844,1.93358630371,0.175578503928,0.19879292936,0.961591591009,-0.0706764800278
2021/03/16/13:56:48.505636,705164,1615899408,508171082,mocap,-2.78723388672,10.3621914063,1.93356506348,0.175760600882,0.19877513119,0.961571840706,-0.0705426418941
2021/03/16/13:56:48.517051,705165,1615899408,518171072,mocap,-2.78714746094,10.3621494141,1.93358862305,0.175700270707,0.198651615703,0.961623032592,-0.0703426297547
2021/03/16/13:56:48.525662,705166,1615899408,528171062,mocap,-2.78705859375,10.3621269531,1.93359301758,0.176146677604,0.198714664551,0.96153812711,-0.0702087966908
2021/03/16/13:56:48.536730,705167,1615899408,538171053,mocap,-2.786953125,10.3620654297,1.9335871582,0.17626842648,0.198554494905,0.961557893603,-0.0700854781007
2021/03/16/13:56:48.545520,705168,1615899408,548171043,mocap,-2.78686303711,10.3620400391,1.93361608887,0.176560123232,0.198554014641,0.961516841453,-0.0699156222963
2021/03/16/13:56:48.556988,705169,1615899408,558171034,mocap,-2.78677075195,10.3619970703,1.93363562012,0.176648394947,0.198371707477,0.961550765005,-0.0697433336303
2021/03/16/13:56:48.565603,705170,1615899408,568171024,mocap,-2.78667529297,10.3619355469,1.93361169434,0.176729222978,0.198331469987,0.961563309752,-0.0694795455935
2021/03/16/13:56:48.576715,705171,1615899408,578171015,mocap,-2.78660498047,10.3618681641,1.93361352539,0.176803474451,0.19824163059,0.96158464087,-0.0692515506143
2021/03/16/13:56:48.585811,705172,1615899408,588171005,mocap,-2.78654980469,10.3617910156,1.93359069824,0.176983937554,0.198192880971,0.961571848455,-0.0691074482677
2021/03/16/13:56:48.596537,705173,1615899408,598170996,mocap,-2.78650561523,10.3617275391,1.93361657715,0.176848783981,0.1981085966,0.961625054798,-0.0689546865809
2021/03/16/13:56:48.606771,705174,1615899408,608170986,mocap,-2.78644897461,10.3616494141,1.93360339355,0.177091187695,0.198012621815,0.961614564076,-0.0687541809115
2021/03/16/13:56:48.616195,705175,1615899408,618170977,mocap,-2.78641894531,10.3615810547,1.93362194824,0.177004272591,0.19791428998,0.961661066391,-0.0686106263063
2021/03/16/13:56:48.627533,705176,1615899408,628171206,mocap,-2.7863527832,10.3615097656,1.93361877441,0.177139147686,0.197746296601,0.961671851012,-0.0685957583099
2021/03/16/13:56:48.635539,705177,1615899408,638171196,mocap,-2.78630786133,10.3614521484,1.93362072754,0.177143961562,0.197687520284,0.961696441354,-0.0684077304132
2021/03/16/13:56:48.647648,705178,1615899408,648171186,mocap,-2.78625195312,10.3613886719,1.9336217041,0.176999398839,0.197493131666,0.961783099094,-0.0681244377861
2021/03/16/13:56:48.655629,705179,1615899408,658171177,mocap,-2.78620776367,10.3613261719,1.93361901855,0.177047942079,0.197211992076,0.96183231994,-0.0681179073124
2021/03/16/13:56:48.667717,705180,1615899408,668171167,mocap,-2.78615283203,10.3612724609,1.93360827637,0.177245955408,0.197134915347,0.961832970624,-0.0678161339046
2021/03/16/13:56:48.677699,705181,1615899408,678171158,mocap,-2.78610742188,10.3611943359,1.93358056641,0.177092087062,0.196953270383,0.961912807716,-0.0676132551632
2021/03/16/13:56:48.685607,705182,1615899408,688171148,mocap,-2.78605053711,10.3611357422,1.9335736084,0.17722857438,0.196779754417,0.96193537035,-0.067439582787
2021/03/16/13:56:48.697778,705183,1615899408,698171139,mocap,-2.78600854492,10.3610693359,1.93355871582,0.177293743981,0.196663455387,0.961961216424,-0.0672386214279
2021/03/16/13:56:48.707528,705184,1615899408,708171129,mocap,-2.78593847656,10.3610087891,1.93351025391,0.177493292687,0.196385641528,0.961985807115,-0.067172254158
2021/03/16/13:56:48.715456,705185,1615899408,718171120,mocap,-2.78588183594,10.3609755859,1.93351513672,0.177595939132,0.196286045084,0.962001235033,-0.0669708808399
2021/03/16/13:56:48.727681,705186,1615899408,728171110,mocap,-2.78579882812,10.3609335937,1.93352001953,0.177504853834,0.19616419836,0.962054278228,-0.0668071319071
2021/03/16/13:56:48.735671,705187,1615899408,738171101,mocap,-2.78575683594,10.3609101563,1.93351672363,0.177690165812,0.195964428378,0.96207409607,-0.0666151387608
2021/03/16/13:56:48.747695,705188,1615899408,748171091,mocap,-2.7856730957,10.3608779297,1.93349572754,0.177769284156,0.195880435345,0.962084852828,-0.066495654995
2021/03/16/13:56:48.755479,705189,1615899408,758171082,mocap,-2.78560913086,10.3608671875,1.93349438477,0.178064039475,0.195751228796,0.962056926826,-0.0664914554755
2021/03/16/13:56:48.766291,705190,1615899408,768171072,mocap,-2.78552563477,10.3608583984,1.93349645996,0.178282661174,0.195721920851,0.962039811488,-0.0662390377568
2021/03/16/13:56:48.775490,705191,1615899408,778171062,mocap,-2.78547558594,10.3608515625,1.93349206543,0.178265721156,0.195614880398,0.962063439868,-0.066257741841
2021/03/16/13:56:48.787317,705192,1615899408,788171053,mocap,-2.78541723633,10.3608642578,1.93349780273,0.178446884962,0.19557619676,0.962056051706,-0.0659909931219
2021/03/16/13:56:48.795619,705193,1615899408,798171043,mocap,-2.78535620117,10.3608710937,1.9334909668,0.178430484726,0.195510043631,0.962075830789,-0.0659429674869
2021/03/16/13:56:48.807312,705194,1615899408,808171034,mocap,-2.78532202148,10.3608808594,1.9334798584,0.178710376379,0.195517314491,0.962024353211,-0.0659146218308
2021/03/16/13:56:48.815495,705195,1615899408,818171024,mocap,-2.7852890625,10.3609238281,1.93347961426,0.178718892178,0.195425968412,0.962042297491,-0.0659003902487
2021/03/16/13:56:48.826886,705196,1615899408,828171015,mocap,-2.78524462891,10.3609482422,1.93347558594,0.178642720907,0.195365822509,0.962082730914,-0.0656947850053
2021/03/16/13:56:48.835414,705197,1615899408,838171005,mocap,-2.78520996094,10.3609873047,1.93347033691,0.178925710739,0.195468989563,0.962006733879,-0.0657306346451
2021/03/16/13:56:48.847228,705198,1615899408,848170996,mocap,-2.78519262695,10.3610068359,1.93344592285,0.178953884994,0.195442514578,0.962013611265,-0.0656319590354
2021/03/16/13:56:48.855782,705199,1615899408,858170986,mocap,-2.78517358398,10.3610634766,1.93345324707,0.179002424139,0.195370133682,0.962024585551,-0.0655541332649
2021/03/16/13:56:48.867026,705200,1615899408,868170977,mocap,-2.785140625,10.3611035156,1.93345874023,0.17895575954,0.195334553446,0.96205041374,-0.0654083531014
2021/03/16/13:56:48.877275,705201,1615899408,878171206,mocap,-2.78513085938,10.3611513672,1.93343273926,0.179202901948,0.195405722628,0.961992661416,-0.065368512176
2021/03/16/13:56:48.886991,705202,1615899408,888171196,mocap,-2.78511572266,10.3612246094,1.93346032715,0.179015083437,0.195403657637,0.962035923708,-0.0652525643931
2021/03/16/13:56:48.895528,705203,1615899408,898171186,mocap,-2.78509936523,10.3612978516,1.93344433594,0.179062786331,0.195337963151,0.962054293717,-0.0650471176277
2021/03/16/13:56:48.906849,705204,1615899408,908171177,mocap,-2.78509960938,10.3613652344,1.93344372559,0.179076558459,0.195302335196,0.962056485394,-0.0650838435856
2021/03/16/13:56:48.915990,705205,1615899408,918171167,mocap,-2.78510229492,10.3614423828,1.93346350098,0.179153991814,0.195442060982,0.962029720266,-0.0648464976811
2021/03/16/13:56:48.926932,705206,1615899408,928171158,mocap,-2.7851015625,10.3615302734,1.93346838379,0.178916224201,0.195327911288,0.962104298326,-0.064740428683
2021/03/16/13:56:48.935955,705207,1615899408,938171148,mocap,-2.78509033203,10.3616259766,1.9334519043,0.178970583886,0.19550797836,0.962068806706,-0.0645737601787
2021/03/16/13:56:48.945875,705208,1615899408,948171139,mocap,-2.78503125,10.3616005859,1.93322973633,0.178155312352,0.19521526697,0.962281729051,-0.0645410659186
2021/03/16/13:56:48.956823,705209,1615899408,958171129,mocap,-2.78503662109,10.3616757812,1.93321472168,0.178545129918,0.195400348929,0.962171522047,-0.0645468836086
2021/03/16/13:56:48.965862,705210,1615899408,968171120,mocap,-2.78501245117,10.3617685547,1.9332142334,0.178606428105,0.195562295085,0.962132974104,-0.0644614486341
2021/03/16/13:56:48.976762,705211,1615899408,978171110,mocap,-2.7850090332,10.3618701172,1.93319580078,0.178627395869,0.195666729132,0.962107419172,-0.0644679388826
2021/03/16/13:56:48.985432,705212,1615899408,988171101,mocap,-2.78500854492,10.3619482422,1.93318896484,0.178675273507,0.195735885384,0.962086130621,-0.0644429083291
2021/03/16/13:56:48.995655,705213,1615899408,998171091,mocap,-2.78500415039,10.3620478516,1.93320397949,0.178622714255,0.195769658145,0.962090924265,-0.0644145737304
2021/03/16/13:56:49.005532,705214,1615899409,8171082,mocap,-2.78500756836,10.3621464844,1.93321325684,0.178716344508,0.195989699246,0.962032957523,-0.0643513894802
2021/03/16/13:56:49.017584,705215,1615899409,18171072,mocap,-2.78501367187,10.3622509766,1.93322680664,0.178779404563,0.196039698591,0.962012852277,-0.0643244020175
2021/03/16/13:56:49.025426,705216,1615899409,28171062,mocap,-2.78500439453,10.3623320313,1.93320605469,0.178768515685,0.196101059665,0.96200259813,-0.0643210070862
2021/03/16/13:56:49.037712,705217,1615899409,38171053,mocap,-2.78503881836,10.3624335937,1.93321411133,0.178952991953,0.196234294631,0.961939723258,-0.0643419964622
2021/03/16/13:56:49.045802,705218,1615899409,48171043,mocap,-2.78507983398,10.3626240234,1.93339123535,0.179432453897,0.196592148517,0.961782432883,-0.0642656065444
2021/03/16/13:56:49.057597,705219,1615899409,58171034,mocap,-2.78507592773,10.3627255859,1.93339233398,0.179547284936,0.196657287343,0.961747022348,-0.0642756005524
2021/03/16/13:56:49.065535,705220,1615899409,68171024,mocap,-2.78508422852,10.3627841797,1.93336987305,0.179570164993,0.196617237162,0.961751941632,-0.0642606718169
2021/03/16/13:56:49.077538,705221,1615899409,78171015,mocap,-2.7850769043,10.3628554688,1.93337670898,0.179635750684,0.196677014972,0.961720333826,-0.0643672897946
2021/03/16/13:56:49.086004,705222,1615899409,88171005,mocap,-2.78508203125,10.3629316406,1.93338574219,0.179668007433,0.196735642357,0.961703344202,-0.0643519474957
2021/03/16/13:56:49.098072,705223,1615899409,98170996,mocap,-2.78502758789,10.3628828125,1.93317443848,0.178916991006,0.196433346763,0.961907161165,-0.0643216124785
2021/03/16/13:56:49.105915,705224,1615899409,108170986,mocap,-2.78504614258,10.3629228516,1.93315319824,0.179148155355,0.196443690423,0.961860229225,-0.0643484236959
2021/03/16/13:56:49.116197,705225,1615899409,118170977,mocap,-2.78504492187,10.3629882813,1.93319335937,0.179165202328,0.196450604861,0.961854667573,-0.0643629023096
2021/03/16/13:56:49.125580,705226,1615899409,128171206,mocap,-2.78508129883,10.3630332031,1.9331973877,0.179280954958,0.19626850078,0.961865496499,-0.0644342829873
2021/03/16/13:56:49.136318,705227,1615899409,138171196,mocap,-2.78509130859,10.3630527344,1.93318847656,0.179356226875,0.196385172279,0.961830205215,-0.0643961846421
2021/03/16/13:56:49.147241,705228,1615899409,148171186,mocap,-2.78510961914,10.3630898438,1.93316638184,0.179447979037,0.196469317764,0.961799118997,-0.064348192584
2021/03/16/13:56:49.155645,705229,1615899409,158171177,mocap,-2.78519750977,10.3632197266,1.9333762207,0.180020165964,0.196737919333,0.961640899135,-0.0642939067476
2021/03/16/13:56:49.166248,705230,1615899409,168171167,mocap,-2.78520947266,10.3631416016,1.93317614746,0.179453272266,0.196504716168,0.961803797874,-0.0641549605878
2021/03/16/13:56:49.175776,705231,1615899409,178171158,mocap,-2.78528881836,10.3631552734,1.93317626953,0.179504915826,0.196430900721,0.961808042929,-0.0641730761766
2021/03/16/13:56:49.187421,705232,1615899409,188171148,mocap,-2.78534448242,10.36315625,1.93318103027,0.179177680566,0.196298771932,0.961909601037,-0.0639692843309
2021/03/16/13:56:49.195825,705233,1615899409,198171139,mocap,-2.78543530273,10.3631699219,1.93321520996,0.179360400734,0.196341424791,0.961862405852,-0.0640359247376
2021/03/16/13:56:49.207299,705234,1615899409,208171129,mocap,-2.7854909668,10.3631660156,1.93323071289,0.179180046091,0.196256462443,0.961916486863,-0.0639889280715
2021/03/16/13:56:49.215534,705235,1615899409,218171120,mocap,-2.78553149414,10.3631376953,1.93322058105,0.179305260057,0.196276569268,0.961891019129,-0.0639594242894
2021/03/16/13:56:49.227125,705236,1615899409,228171110,mocap,-2.78558544922,10.3631210937,1.93323168945,0.179198374778,0.196172456468,0.961937136301,-0.0638846927365
2021/03/16/13:56:49.235663,705237,1615899409,238171101,mocap,-2.7856340332,10.3631074219,1.93322290039,0.179318615356,0.196325931565,0.961892506314,-0.0637476620836
2021/03/16/13:56:49.247005,705238,1615899409,248171091,mocap,-2.78569140625,10.3630556641,1.93324621582,0.179263434898,0.19635006962,0.961908090641,-0.0635932813684
2021/03/16/13:56:49.255754,705239,1615899409,258171082,mocap,-2.78575390625,10.3630117188,1.9332421875,0.179360747576,0.196285236946,0.961906239434,-0.0635469492718
2021/03/16/13:56:49.267155,705240,1615899409,268171072,mocap,-2.78579589844,10.3629462891,1.93326281738,0.179177551302,0.196288049864,0.961955577903,-0.0633077959743
2021/03/16/13:56:49.275541,705241,1615899409,278171062,mocap,-2.78585644531,10.3628808594,1.93328137207,0.179184249735,0.196332631759,0.961958536582,-0.0631052815882
2021/03/16/13:56:49.287054,705242,1615899409,288171053,mocap,-2.78588012695,10.3627988281,1.93329833984,0.179115852732,0.196287219637,0.961993846392,-0.062902242723
2021/03/16/13:56:49.295837,705243,1615899409,298171043,mocap,-2.78594189453,10.3628046875,1.93348083496,0.179716305518,0.196611810023,0.96182998832,-0.0626810804547
2021/03/16/13:56:49.306783,705244,1615899409,308171034,mocap,-2.78587719727,10.3625888672,1.9332902832,0.178980327842,0.196530707332,0.962004108378,-0.0623685050976
2021/03/16/13:56:49.315741,705245,1615899409,318171024,mocap,-2.78590283203,10.3625654297,1.93346936035,0.179888614329,0.197016297377,0.961737330898,-0.0623375330375
2021/03/16/13:56:49.327193,705246,1615899409,328171015,mocap,-2.78585717773,10.362328125,1.93331738281,0.179085868244,0.196732180131,0.961966700009,-0.0620062353296
2021/03/16/13:56:49.335467,705247,1615899409,338171005,mocap,-2.78580786133,10.3621972656,1.93332849121,0.179133347682,0.196980564692,0.961926013853,-0.0617109754568
2021/03/16/13:56:49.346798,705248,1615899409,348170996,mocap,-2.78577001953,10.3620253906,1.93332739258,0.179221604342,0.197072524284,0.9618963482,-0.0616234775627
2021/03/16/13:56:49.355587,705249,1615899409,358170986,mocap,-2.78571801758,10.3618017578,1.93335400391,0.179312512153,0.197485693921,0.961819623775,-0.061232659939
2021/03/16/13:56:49.365647,705250,1615899409,368170977,mocap,-2.78567382813,10.3615605469,1.93339050293,0.179497070437,0.197701990051,0.961757767271,-0.0609649253283
2021/03/16/13:56:49.377011,705251,1615899409,378171206,mocap,-2.78560058594,10.3612773438,1.93339086914,0.179606734882,0.197917215602,0.9617120521,-0.0606640321511
2021/03/16/13:56:49.385747,705252,1615899409,388171196,mocap,-2.78551342773,10.3609941406,1.9334432373,0.179516939557,0.198051702075,0.961724904627,-0.0602860198972
2021/03/16/13:56:49.395639,705253,1615899409,398171186,mocap,-2.78541870117,10.3606777344,1.93346325684,0.179812417391,0.198269536171,0.96163783101,-0.0600780925079
2021/03/16/13:56:49.406593,705254,1615899409,408171177,mocap,-2.78534960937,10.3604472656,1.93370629883,0.180622257976,0.198849448995,0.961386242427,-0.0597577809304
2021/03/16/13:56:49.415733,705255,1615899409,418171167,mocap,-2.78521166992,10.3600615234,1.93368676758,0.18077938628,0.199057639866,0.961332085085,-0.0594598993835
2021/03/16/13:56:49.426592,705256,1615899409,428171158,mocap,-2.78505566406,10.359640625,1.93366479492,0.180830007375,0.199452253523,0.961265027433,-0.0590664395668
2021/03/16/13:56:49.435494,705257,1615899409,438171148,mocap,-2.78486914063,10.3591728516,1.93364587402,0.180858592023,0.1998824498,0.961200228495,-0.0585773351551
2021/03/16/13:56:49.447428,705258,1615899409,448171139,mocap,-2.78468432617,10.35871875,1.9336072998,0.180905928912,0.20017656906,0.961143231272,-0.0583615465879
2021/03/16/13:56:49.455680,705259,1615899409,458171129,mocap,-2.78445727539,10.3582158203,1.93357922363,0.180766086973,0.2004295272,0.961144301019,-0.0579073599862
2021/03/16/13:56:49.467626,705260,1615899409,468171120,mocap,-2.78422143555,10.3576347656,1.93350744629,0.181067228022,0.200573173735,0.961072950974,-0.0576527661596
2021/03/16/13:56:49.475811,705261,1615899409,478171110,mocap,-2.78401489258,10.3570068359,1.93347143555,0.181211636009,0.200675295294,0.961035304791,-0.057470974462
2021/03/16/13:56:49.487622,705262,1615899409,488171101,mocap,-2.78375219727,10.3563798828,1.93344445801,0.181106286425,0.20096882948,0.961008968642,-0.0572172889961
2021/03/16/13:56:49.495801,705263,1615899409,498171091,mocap,-2.78345483398,10.3557226563,1.93339013672,0.181003202775,0.201089790023,0.961012969116,-0.0570508454118
2021/03/16/13:56:49.507672,705264,1615899409,508171082,mocap,-2.78312304688,10.3549248047,1.93317114258,0.180325110214,0.200930921408,0.961176369604,-0.0570054354723
2021/03/16/13:56:49.515606,705265,1615899409,518171072,mocap,-2.78281030273,10.3542304687,1.93309741211,0.18028121368,0.201009381389,0.961186493039,-0.0566960002193
2021/03/16/13:56:49.527628,705266,1615899409,528171062,mocap,-2.78247216797,10.3535273438,1.93305578613,0.18027535464,0.201252083641,0.961136603469,-0.0566995545566
2021/03/16/13:56:49.535670,705267,1615899409,538171053,mocap,-2.78217456055,10.3529345703,1.9332565918,0.180821485098,0.201805229705,0.960924621434,-0.0565872507395
2021/03/16/13:56:49.547663,705268,1615899409,548171043,mocap,-2.78174853516,10.3520722656,1.93301806641,0.180301901538,0.201652139582,0.961056949976,-0.0565435991117
2021/03/16/13:56:49.555844,705269,1615899409,558171034,mocap,-2.78135302734,10.3513339844,1.93298571777,0.180537322557,0.201865569368,0.960966357907,-0.0565705629944
2021/03/16/13:56:49.567175,705270,1615899409,568171024,mocap,-2.78094140625,10.3506738281,1.93308984375,0.181235846825,0.202557959785,0.960704333232,-0.0563117384505
2021/03/16/13:56:49.575865,705271,1615899409,578171015,mocap,-2.78049536133,10.3499013672,1.93301855469,0.181097500442,0.202937976195,0.960660142336,-0.056142287297
2021/03/16/13:56:49.586995,705272,1615899409,588171005,mocap,-2.78002661133,10.3489892578,1.93274060059,0.180726736903,0.202941227323,0.960721666241,-0.056272436082
2021/03/16/13:56:49.596109,705273,1615899409,598170996,mocap,-2.77963354492,10.3482988281,1.93286535645,0.181733265358,0.203535365939,0.960400423518,-0.0563684378545
2021/03/16/13:56:49.606906,705274,1615899409,608170986,mocap,-2.77919311523,10.3474658203,1.93279724121,0.181358632059,0.203877706036,0.960388561791,-0.0565397492667
2021/03/16/13:56:49.615628,705275,1615899409,618170977,mocap,-2.77871191406,10.3465986328,1.93267370605,0.180994117224,0.204158282349,0.960403355956,-0.0564440387124
2021/03/16/13:56:49.627275,705276,1615899409,628171206,mocap,-2.77821362305,10.3457148438,1.93254052734,0.180899683309,0.204424160403,0.960355737633,-0.0565943052565
2021/03/16/13:56:49.635756,705277,1615899409,638171196,mocap,-2.77766699219,10.3447158203,1.93229577637,0.180165228346,0.204449285586,0.96048446769,-0.0566618545053
2021/03/16/13:56:49.647058,705278,1615899409,648171186,mocap,-2.77723681641,10.3439365234,1.9324810791,0.18104373985,0.204920115263,0.960209213857,-0.0568258882051
2021/03/16/13:56:49.655862,705279,1615899409,658171177,mocap,-2.77669702148,10.3429980469,1.93238305664,0.180808022212,0.205022330279,0.960237589309,-0.0567280640122
2021/03/16/13:56:49.666113,705280,1615899409,668171167,mocap,-2.77613256836,10.3419609375,1.93205102539,0.179833807832,0.205008905138,0.9604097173,-0.0569588767123
2021/03/16/13:56:49.676918,705281,1615899409,678171158,mocap,-2.77557324219,10.3409628906,1.93186560059,0.179961010156,0.205661717396,0.960238031578,-0.0570982409184
2021/03/16/13:56:49.685613,705282,1615899409,688171148,mocap,-2.77510839844,10.3401318359,1.93202758789,0.180502735673,0.20614199884,0.960021241196,-0.0573014220517
2021/03/16/13:56:49.697042,705283,1615899409,698171139,mocap,-2.77459448242,10.3391386719,1.93192895508,0.179993499109,0.20642943617,0.960045501306,-0.0574618874859
2021/03/16/13:56:49.705581,705284,1615899409,708171129,mocap,-2.77404125977,10.3381455078,1.93182714844,0.179941996112,0.206884952802,0.959959478367,-0.0574221751359
2021/03/16/13:56:49.716997,705285,1615899409,718171120,mocap,-2.77343481445,10.3370400391,1.93153210449,0.179115148209,0.207118878567,0.960065135559,-0.0573974293794
2021/03/16/13:56:49.725703,705286,1615899409,728171110,mocap,-2.7728972168,10.3360996094,1.93163269043,0.179457481323,0.208057001248,0.959801987676,-0.0573362432329
2021/03/16/13:56:49.736710,705287,1615899409,738171101,mocap,-2.77234155273,10.3349941406,1.93152246094,0.17923751054,0.208675096828,0.959701316707,-0.057463072308
2021/03/16/13:56:49.745479,705288,1615899409,748171091,mocap,-2.77172607422,10.3337519531,1.93115576172,0.178494058393,0.208732943634,0.959833022139,-0.0573673183199
2021/03/16/13:56:49.755757,705289,1615899409,758171082,mocap,-2.77116064453,10.3325917969,1.93097143555,0.178176415003,0.209129945277,0.959808640221,-0.057316733414
2021/03/16/13:56:49.766835,705290,1615899409,768171072,mocap,-2.77069213867,10.3315078125,1.93104614258,0.178607007158,0.209591445216,0.959631505343,-0.0572567686111
2021/03/16/13:56:49.775685,705291,1615899409,778171062,mocap,-2.77013818359,10.3302705078,1.93087280273,0.1780139329,0.209955772102,0.959670961188,-0.0571074461107
2021/03/16/13:56:49.786555,705292,1615899409,788171053,mocap,-2.76953027344,10.3288769531,1.93049121094,0.177315896291,0.209914339092,0.959804727878,-0.0571832601365
2021/03/16/13:56:49.796360,705293,1615899409,798171043,mocap,-2.76897167969,10.3276416016,1.93036950684,0.177266265219,0.2104958145,0.959710353305,-0.0567823023921
2021/03/16/13:56:49.805585,705294,1615899409,808171034,mocap,-2.76844116211,10.326265625,1.93002233887,0.177395275718,0.210540251123,0.959681799228,-0.0566971580086
2021/03/16/13:56:49.815423,705295,1615899409,818171024,mocap,-2.76788110352,10.3248037109,1.92963256836,0.176721703213,0.210582085752,0.959821533761,-0.056278297583
2021/03/16/13:56:49.827649,705296,1615899409,828171015,mocap,-2.76729614258,10.3232900391,1.92901757813,0.175799158125,0.210123742915,0.960100483963,-0.0561224449332
2021/03/16/13:56:49.835455,705297,1615899409,838171005,mocap,-2.76683496094,10.3219355469,1.92868139648,0.17620120395,0.210496311914,0.959965019955,-0.0557817840192
2021/03/16/13:56:49.847435,705298,1615899409,848170996,mocap,-2.76625732422,10.3204248047,1.92795666504,0.17616013438,0.210382894867,0.960004547464,-0.0556587961707
2021/03/16/13:56:49.856069,705299,1615899409,858170986,mocap,-2.76565576172,10.3187978516,1.9270201416,0.174582122624,0.209971753043,0.960407552897,-0.0552293914897
2021/03/16/13:56:49.867580,705300,1615899409,868170977,mocap,-2.76512963867,10.3173808594,1.92639428711,0.175160358866,0.210439283046,0.960226656673,-0.0547625690936
2021/03/16/13:56:49.875639,705301,1615899409,878171206,mocap,-2.76457666016,10.3158544922,1.92546362305,0.174959880075,0.210649743497,0.960229449978,-0.0545447995883
2021/03/16/13:56:49.887634,705302,1615899409,888171196,mocap,-2.76398022461,10.3141513672,1.92427026367,0.173740290809,0.210745716489,0.960462111448,-0.0539730091691
2021/03/16/13:56:49.895673,705303,1615899409,898171186,mocap,-2.7635234375,10.3126738281,1.92354077148,0.174508141191,0.211284745895,0.960235727123,-0.0534136206985
2021/03/16/13:56:49.907423,705304,1615899409,908171177,mocap,-2.76299145508,10.3110283203,1.92261083984,0.174269403433,0.211787328654,0.960198218823,-0.052874213213
2021/03/16/13:56:49.915367,705305,1615899409,918171167,mocap,-2.76252294922,10.309328125,1.92178051758,0.173966665251,0.21207808304,0.960226423898,-0.0521890418972
2021/03/16/13:56:49.927457,705306,1615899409,928171158,mocap,-2.76207421875,10.3075097656,1.9210189209,0.173761720928,0.212584865382,0.960189210095,-0.0514900376246
2021/03/16/13:56:49.935574,705307,1615899409,938171148,mocap,-2.76156884766,10.3056318359,1.92026074219,0.173675479725,0.212641965901,0.960217493027,-0.051015569154
2021/03/16/13:56:49.947224,705308,1615899409,948171139,mocap,-2.76111010742,10.3036455078,1.91960168457,0.173461914086,0.212534416611,0.960309366071,-0.0504578865706
2021/03/16/13:56:49.955779,705309,1615899409,958171129,mocap,-2.76061083984,10.3015869141,1.918921875,0.173357480989,0.212522004463,0.960364225008,-0.0498210509762
2021/03/16/13:56:49.967256,705310,1615899409,968171120,mocap,-2.76016455078,10.2993974609,1.9183125,0.173543586088,0.212175663941,0.960416706972,-0.0496372619496
2021/03/16/13:56:49.975712,705311,1615899409,978171110,mocap,-2.75967700195,10.2971503906,1.91774780273,0.17353687915,0.211688758189,0.960541496246,-0.049323959887
2021/03/16/13:56:49.986272,705312,1615899409,988171101,mocap,-2.75920629883,10.2948496094,1.91728771973,0.17389505566,0.211214866334,0.960583753526,-0.0492709702691
2021/03/16/13:56:49.995726,705313,1615899409,998171091,mocap,-2.75875415039,10.2924130859,1.91687133789,0.173777640947,0.210691629481,0.960732825897,-0.0490183017236
2021/03/16/13:56:50.007156,705314,1615899410,8171082,mocap,-2.75829272461,10.2898232422,1.9164041748,0.173434374555,0.209814055456,0.960993858173,-0.0488813475747
2021/03/16/13:56:50.015579,705315,1615899410,18171072,mocap,-2.75794067383,10.2873632813,1.91640124512,0.174036544138,0.209118602249,0.961031133851,-0.0489882553402
2021/03/16/13:56:50.025924,705316,1615899410,28171062,mocap,-2.7575480957,10.2847060547,1.91626086426,0.174146141537,0.208306535692,0.961191670988,-0.0489090051561
2021/03/16/13:56:50.035983,705317,1615899410,38171053,mocap,-2.7572109375,10.2819433594,1.91622229004,0.174368497131,0.207083728376,0.961413482696,-0.0489496014118
2021/03/16/13:56:50.045676,705318,1615899410,48171043,mocap,-2.75689355469,10.2791621094,1.9161953125,0.173940968206,0.206023790815,0.961744922929,-0.0484296986784
2021/03/16/13:56:50.055996,705319,1615899410,58171034,mocap,-2.75658911133,10.2763046875,1.91624389648,0.174622462153,0.205001280153,0.961842142118,-0.0483855116975
2021/03/16/13:56:50.065381,705320,1615899410,68171024,mocap,-2.75630688477,10.2733603516,1.9162331543,0.174895345979,0.204027915133,0.962011721538,-0.0481422305975
2021/03/16/13:56:50.076060,705321,1615899410,78171015,mocap,-2.75605297852,10.2703642578,1.91625500488,0.175234342769,0.203153083886,0.962139362731,-0.048058349589
2021/03/16/13:56:50.085892,705322,1615899410,88171005,mocap,-2.75587695313,10.2673613281,1.91627001953,0.175474744468,0.202716453232,0.962206467853,-0.0476798953578
2021/03/16/13:56:50.095782,705323,1615899410,98170996,mocap,-2.75567163086,10.2643613281,1.91629162598,0.175472258472,0.201883334449,0.962388199654,-0.0475558438542
2021/03/16/13:56:50.107107,705324,1615899410,108170986,mocap,-2.75549291992,10.2611630859,1.91603857422,0.176452601316,0.200792789128,0.96243433171,-0.0476117767335
2021/03/16/13:56:50.115824,705325,1615899410,118170977,mocap,-2.7552980957,10.2579257812,1.91574658203,0.175938572826,0.200082427356,0.962678889891,-0.0475604861276
2021/03/16/13:56:50.125958,705326,1615899410,128171206,mocap,-2.75524121094,10.2548808594,1.91584655762,0.176838522052,0.20043010526,0.962457563344,-0.047237157927
2021/03/16/13:56:50.135739,705327,1615899410,138171196,mocap,-2.75521166992,10.2516992187,1.91566210937,0.176513510356,0.200307056862,0.962561088642,-0.0468637238342
2021/03/16/13:56:50.145505,705328,1615899410,148171186,mocap,-2.75518725586,10.2484462891,1.91542138672,0.176597572037,0.200661324909,0.962485942181,-0.0465740689314
2021/03/16/13:56:50.156693,705329,1615899410,158171177,mocap,-2.75524853516,10.2451220703,1.91518676758,0.17519584988,0.201434700023,0.962618296029,-0.0457875233158
2021/03/16/13:56:50.165588,705330,1615899410,168171167,mocap,-2.75534179687,10.2417753906,1.91489978027,0.176440977672,0.201267655457,0.962413112323,-0.0460534407844
2021/03/16/13:56:50.177051,705331,1615899410,178171158,mocap,-2.75545288086,10.2383339844,1.9144831543,0.176347382296,0.202176914934,0.962264942907,-0.0455223526228
2021/03/16/13:56:50.185472,705332,1615899410,188171148,mocap,-2.75562353516,10.2348398438,1.91404211426,0.176039156289,0.202708707762,0.9622222097,-0.0452527154736
2021/03/16/13:56:50.197293,705333,1615899410,198171139,mocap,-2.75581713867,10.2312216797,1.91354077148,0.176259517477,0.203439296554,0.962044713786,-0.0448887967739
2021/03/16/13:56:50.205523,705334,1615899410,208171129,mocap,-2.75606396484,10.2275683594,1.91301452637,0.175963945578,0.204198375911,0.961946492689,-0.0447063610645
2021/03/16/13:56:50.217129,705335,1615899410,218171120,mocap,-2.75627416992,10.2237792969,1.91236279297,0.175760395333,0.205356766257,0.961747487163,-0.044482077454
2021/03/16/13:56:50.225638,705336,1615899410,228171110,mocap,-2.75658374023,10.2199033203,1.91168383789,0.175601447998,0.205856638147,0.961682294624,-0.0442078701932
2021/03/16/13:56:50.237298,705337,1615899410,238171101,mocap,-2.75689379883,10.2159375,1.91099060059,0.174830996857,0.20681058594,0.961629997949,-0.0439459670467
2021/03/16/13:56:50.245915,705338,1615899410,248171091,mocap,-2.75723876953,10.2118447266,1.91022497559,0.175064799825,0.207962512258,0.9613547931,-0.0435990141711
2021/03/16/13:56:50.256821,705339,1615899410,258171082,mocap,-2.75759863281,10.2075556641,1.90937670898,0.174248736242,0.208381085641,0.961424804811,-0.0433248804437
2021/03/16/13:56:50.265506,705340,1615899410,268171072,mocap,-2.75801367188,10.2033515625,1.90872241211,0.175250477483,0.209481723862,0.961007193232,-0.0432416783265
2021/03/16/13:56:50.277056,705341,1615899410,278171062,mocap,-2.75842041016,10.1989277344,1.90798046875,0.174796060464,0.210084329708,0.960967024683,-0.0430497708757
2021/03/16/13:56:50.285633,705342,1615899410,288171053,mocap,-2.75884326172,10.1943623047,1.90718835449,0.174826753123,0.211057593419,0.960761240169,-0.042756798594
2021/03/16/13:56:50.296826,705343,1615899410,298171043,mocap,-2.75931665039,10.1896933594,1.90642614746,0.175338023505,0.211786276072,0.96051091906,-0.0426841088041
2021/03/16/13:56:50.305800,705344,1615899410,308171034,mocap,-2.75983081055,10.1850146484,1.90579589844,0.174606609106,0.213210084414,0.960358421948,-0.0420201576407
2021/03/16/13:56:50.316992,705345,1615899410,318171024,mocap,-2.76030151367,10.1800205078,1.9049029541,0.175353071383,0.213154303757,0.960223568511,-0.0422757812516
2021/03/16/13:56:50.325449,705346,1615899410,328171015,mocap,-2.76087597656,10.1751328125,1.90433557129,0.17519618066,0.214418905353,0.959996087953,-0.0416933780887
2021/03/16/13:56:50.336902,705347,1615899410,338171005,mocap,-2.76141064453,10.1699003906,1.90340087891,0.176245187593,0.214347364962,0.959806575375,-0.0420022489005
2021/03/16/13:56:50.345531,705348,1615899410,348170996,mocap,-2.7620168457,10.1646474609,1.90269030762,0.176032223531,0.214638547453,0.959785018433,-0.0419007021371
2021/03/16/13:56:50.355620,705349,1615899410,358170986,mocap,-2.7627109375,10.1593808594,1.9020838623,0.175906259541,0.215698304627,0.959590890991,-0.0414312684463
2021/03/16/13:56:50.365643,705350,1615899410,368170977,mocap,-2.76340698242,10.1539365234,1.90135449219,0.176319774868,0.216217406462,0.959400428597,-0.0413785164601
2021/03/16/13:56:50.375495,705351,1615899410,378171206,mocap,-2.76414526367,10.1484248047,1.90073583984,0.176051687517,0.216384690331,0.959414445892,-0.0413206085614
2021/03/16/13:56:50.388090,705352,1615899410,388171196,mocap,-2.76490258789,10.1426962891,1.8999375,0.176614948479,0.216745498656,0.959236197418,-0.0411637906188
2021/03/16/13:56:50.395476,705353,1615899410,398171186,mocap,-2.76575317383,10.1370244141,1.89932458496,0.176255012707,0.217189845135,0.959202611452,-0.0411471704478
2021/03/16/13:56:50.407841,705354,1615899410,408171177,mocap,-2.76655883789,10.1311386719,1.89850427246,0.176412092633,0.217882963973,0.959030010435,-0.0408317087684
2021/03/16/13:56:50.415951,705355,1615899410,418171167,mocap,-2.76746582031,10.1253173828,1.89795898437,0.175539327112,0.218374625231,0.959093946114,-0.0404634169011
2021/03/16/13:56:50.427534,705356,1615899410,428171158,mocap,-2.76844018555,10.1193076172,1.89732165527,0.175226564274,0.21862630529,0.959090465885,-0.0405422099892
2021/03/16/13:56:50.435748,705357,1615899410,438171148,mocap,-2.7694855957,10.1132333984,1.89672180176,0.175435362906,0.219033113334,0.958959023632,-0.0405526087147
2021/03/16/13:56:50.447439,705358,1615899410,448171139,mocap,-2.77046264648,10.1069814453,1.89599694824,0.175677911202,0.218816396709,0.95894497637,-0.0410022310051
2021/03/16/13:56:50.456037,705359,1615899410,458171129,mocap,-2.77157739258,10.1008154297,1.89552685547,0.175105863148,0.220276487831,0.95872405456,-0.0407971705783
2021/03/16/13:56:50.466244,705360,1615899410,468171120,mocap,-2.77272998047,10.0945566406,1.8952286377,0.17497953221,0.220469882554,0.958687435257,-0.0411533260539
2021/03/16/13:56:50.475717,705361,1615899410,478171110,mocap,-2.77384521484,10.0880791016,1.89457067871,0.175487279119,0.220672516314,0.958536194843,-0.0414271918536
2021/03/16/13:56:50.486405,705362,1615899410,488171101,mocap,-2.77505566406,10.0816474609,1.89426953125,0.175464511193,0.221220313781,0.958404186815,-0.0416556736545
2021/03/16/13:56:50.495459,705363,1615899410,498171091,mocap,-2.77626245117,10.0752050781,1.89414758301,0.174919849803,0.22266456891,0.958168871734,-0.0416648104739
2021/03/16/13:56:50.506357,705364,1615899410,508171082,mocap,-2.7774621582,10.0685966797,1.89399499512,0.174838521001,0.223253089044,0.958035794315,-0.0419161173254
2021/03/16/13:56:50.516160,705365,1615899410,518171072,mocap,-2.77873071289,10.0619677734,1.89398254395,0.174927603678,0.224144785393,0.957801547774,-0.042138399679
2021/03/16/13:56:50.525444,705366,1615899410,528171062,mocap,-2.78005810547,10.0552451172,1.89431188965,0.175070866213,0.22504165763,0.957555907325,-0.0423453358632
2021/03/16/13:56:50.537220,705367,1615899410,538171053,mocap,-2.78137329102,10.0484609375,1.89489746094,0.175369493211,0.226319014933,0.957178859616,-0.0428238184771
2021/03/16/13:56:50.545448,705368,1615899410,548171043,mocap,-2.78272143555,10.0415537109,1.89574145508,0.175145628931,0.227202889084,0.956997298592,-0.0431164784098
2021/03/16/13:56:50.557368,705369,1615899410,558171034,mocap,-2.78408789062,10.0345712891,1.89675708008,0.175345013687,0.227856435568,0.956771239168,-0.0438676206773
2021/03/16/13:56:50.566056,705370,1615899410,568171024,mocap,-2.78542407227,10.0274609375,1.89774743652,0.175680345135,0.228491219877,0.956527390482,-0.0445368721705
2021/03/16/13:56:50.575813,705371,1615899410,578171015,mocap,-2.78679345703,10.0202939453,1.89889123535,0.176204795389,0.229182782412,0.956225254325,-0.0453913922262
2021/03/16/13:56:50.585996,705372,1615899410,588171005,mocap,-2.7881574707,10.0130859375,1.90027612305,0.176281300586,0.229479331462,0.956097111915,-0.0462865852733
2021/03/16/13:56:50.595742,705373,1615899410,598170996,mocap,-2.78959375,10.0058017578,1.90189282227,0.176841391689,0.23006789855,0.955808309696,-0.0471841993306
2021/03/16/13:56:50.605798,705374,1615899410,608170986,mocap,-2.79100561523,9.99845019531,1.90360339355,0.177117087405,0.230454988464,0.955611440838,-0.0482369701912
2021/03/16/13:56:50.617060,705375,1615899410,618170977,mocap,-2.79248706055,9.99106054687,1.90549865723,0.177459110408,0.230383777844,0.955511396615,-0.0492904795622
2021/03/16/13:56:50.625526,705376,1615899410,628171206,mocap,-2.79395996094,9.98356347656,1.90735546875,0.177668965794,0.230201227127,0.955457038839,-0.0504279191429
2021/03/16/13:56:50.635962,705377,1615899410,638171196,mocap,-2.79540917969,9.976078125,1.90931237793,0.17779590971,0.229453015449,0.955547085013,-0.0516691099979
2021/03/16/13:56:50.645454,705378,1615899410,648171186,mocap,-2.79688330078,9.96854101563,1.91108740234,0.178252208326,0.22877998122,0.95555202062,-0.0529735208988
2021/03/16/13:56:50.657012,705379,1615899410,658171177,mocap,-2.79828466797,9.96106152344,1.91280163574,0.178091440816,0.227878612291,0.955736631456,-0.0540579598459
2021/03/16/13:56:50.665709,705380,1615899410,668171167,mocap,-2.79971582031,9.95358886719,1.91432287598,0.178445760796,0.227109255193,0.955777464156,-0.0553889955878
2021/03/16/13:56:50.675811,705381,1615899410,678171158,mocap,-2.80111303711,9.94624023438,1.91571899414,0.178520438044,0.226110747148,0.955944456267,-0.0563433979316
2021/03/16/13:56:50.686985,705382,1615899410,688171148,mocap,-2.8024987793,9.93892285156,1.91689465332,0.178811566766,0.225441539249,0.955982115878,-0.0574519922515
2021/03/16/13:56:50.695794,705383,1615899410,698171139,mocap,-2.80381835938,9.93156640625,1.9177064209,0.178202315189,0.224705212828,0.956217626261,-0.0583039328409
2021/03/16/13:56:50.705984,705384,1615899410,708171129,mocap,-2.80510620117,9.92433691406,1.91846166992,0.178198466994,0.224280494526,0.956281173422,-0.0589056715244
2021/03/16/13:56:50.716872,705385,1615899410,718171120,mocap,-2.80638647461,9.91722460937,1.91905456543,0.177930161278,0.224141278403,0.956324764209,-0.0595355449138
2021/03/16/13:56:50.725909,705386,1615899410,728171110,mocap,-2.80763110352,9.9101796875,1.91948681641,0.177986302725,0.224124994302,0.956283947087,-0.0600822113883
2021/03/16/13:56:50.735723,705387,1615899410,738171101,mocap,-2.80887548828,9.90319042969,1.91981848145,0.178054537581,0.22434490477,0.9561943599,-0.0604838439574
2021/03/16/13:56:50.745644,705388,1615899410,748171091,mocap,-2.81000415039,9.89627148437,1.92002001953,0.177943183864,0.224856954506,0.956053253578,-0.0611372112187
2021/03/16/13:56:50.756690,705389,1615899410,758171082,mocap,-2.81113891602,9.88940625,1.92013012695,0.177614772404,0.225348459629,0.955988927495,-0.0612880996181
2021/03/16/13:56:50.767972,705390,1615899410,768171072,mocap,-2.81219921875,9.88252832031,1.92015698242,0.177637351367,0.226397113976,0.9557031252,-0.0618130852863
2021/03/16/13:56:50.775868,705391,1615899410,778171062,mocap,-2.81323291016,9.87570410156,1.92016687012,0.177663696348,0.227319149267,0.955452960516,-0.0622193205637
2021/03/16/13:56:50.787914,705392,1615899410,788171053,mocap,-2.81422851562,9.86884960937,1.92016845703,0.177393832043,0.228375332365,0.955232923636,-0.0624996320851
2021/03/16/13:56:50.795872,705393,1615899410,798171043,mocap,-2.81515527344,9.86196484375,1.92019897461,0.177265559113,0.229353330719,0.954968709471,-0.0633145202108
2021/03/16/13:56:50.807780,705394,1615899410,808171034,mocap,-2.81602539063,9.85504492188,1.92023132324,0.176961322579,0.230431803254,0.954732391563,-0.0638117690215
2021/03/16/13:56:50.815728,705395,1615899410,818171024,mocap,-2.81679833984,9.84807128906,1.92039880371,0.176863476562,0.231184624803,0.954534574894,-0.0643173440992
2021/03/16/13:56:50.827329,705396,1615899410,828171015,mocap,-2.81761450195,9.841046875,1.9206628418,0.176115576367,0.23167704619,0.954487725379,-0.0652857939062
2021/03/16/13:56:50.836038,705397,1615899410,838171005,mocap,-2.81830688477,9.83388378906,1.92092016602,0.175764123173,0.232038423603,0.954412372609,-0.0660467930836
2021/03/16/13:56:50.847583,705398,1615899410,848170996,mocap,-2.81899438477,9.82670996094,1.92136425781,0.175571373025,0.232241811625,0.954350590297,-0.0667337175202
2021/03/16/13:56:50.855632,705399,1615899410,858170986,mocap,-2.8196484375,9.81942382813,1.92191845703,0.175133275325,0.232309009145,0.954355196394,-0.0675797530901
2021/03/16/13:56:50.867367,705400,1615899410,868170977,mocap,-2.82008837891,9.81223144531,1.92257128906,0.174334683356,0.232092007867,0.954432497447,-0.0692771924632
2021/03/16/13:56:50.875691,705401,1615899410,878171206,mocap,-2.82061547852,9.80479296875,1.92324328613,0.174066386065,0.23146727201,0.954564945452,-0.0702108339671
2021/03/16/13:56:50.888080,705402,1615899410,888171196,mocap,-2.82109619141,9.79730859375,1.92387280273,0.173582358345,0.230972374426,0.954725750471,-0.0708495576805
2021/03/16/13:56:50.897495,705403,1615899410,898171186,mocap,-2.82147607422,9.7897890625,1.92458007812,0.172961295769,0.230053833204,0.955008576402,-0.0715417964754
2021/03/16/13:56:50.906078,705404,1615899410,908171177,mocap,-2.82178930664,9.78220507812,1.92517956543,0.172513851561,0.229231377052,0.955232377653,-0.0722706332469
2021/03/16/13:56:50.917315,705405,1615899410,918171167,mocap,-2.82202978516,9.77458984375,1.92571252441,0.172340047525,0.228245807457,0.955430650302,-0.073178041262
2021/03/16/13:56:50.925584,705406,1615899410,928171158,mocap,-2.82221484375,9.76697558594,1.92617700195,0.172026804397,0.227422147372,0.955611643551,-0.0741102701345
2021/03/16/13:56:50.937132,705407,1615899410,938171148,mocap,-2.82232592773,9.75930078125,1.92654394531,0.172032936413,0.226723368258,0.955714351252,-0.0749083607694
2021/03/16/13:56:50.945871,705408,1615899410,948171139,mocap,-2.82237744141,9.75166894531,1.92687084961,0.17205862594,0.225958252561,0.9558315153,-0.0756624404349
2021/03/16/13:56:50.955642,705409,1615899410,958171129,mocap,-2.8223359375,9.74398925781,1.92707653809,0.172338772606,0.225350703623,0.955858929458,-0.0764860331215
2021/03/16/13:56:50.966984,705410,1615899410,968171120,mocap,-2.82226635742,9.73625683594,1.92722558594,0.172773534041,0.224637520688,0.955871782741,-0.0774365971267
2021/03/16/13:56:50.975604,705411,1615899410,978171110,mocap,-2.82211376953,9.72852539063,1.92722033691,0.172939521802,0.223867912632,0.955957542214,-0.0782319968986
2021/03/16/13:56:50.987314,705412,1615899410,988171101,mocap,-2.82196142578,9.72075683594,1.92711779785,0.173592817879,0.223534691035,0.955846933425,-0.0790848111318
2021/03/16/13:56:50.995555,705413,1615899410,998171091,mocap,-2.82183959961,9.71293457031,1.9270032959,0.174475683685,0.223413264625,0.955664581417,-0.079686624249
2021/03/16/13:56:51.006146,705414,1615899411,8171082,mocap,-2.8216237793,9.70510839844,1.92680627441,0.17475303114,0.223125658468,0.955644092706,-0.0801291838636
2021/03/16/13:56:51.015937,705415,1615899411,18171072,mocap,-2.82139355469,9.69726855469,1.92650842285,0.175327786643,0.223304905703,0.95544913951,-0.080697110714
2021/03/16/13:56:51.026029,705416,1615899411,28171062,mocap,-2.82114111328,9.68937597656,1.92601281738,0.176073816244,0.223584621122,0.955220701345,-0.0810020670848
2021/03/16/13:56:51.035575,705417,1615899411,38171053,mocap,-2.82085400391,9.68139746094,1.92544921875,0.1770081396,0.224056530826,0.954890983673,-0.0815474701986
2021/03/16/13:56:51.047178,705418,1615899411,48171043,mocap,-2.82051538086,9.67341210938,1.92477746582,0.17780727465,0.224476146374,0.954619338417,-0.0818349231574
2021/03/16/13:56:51.057286,705419,1615899411,58171034,mocap,-2.8202109375,9.6653984375,1.92404577637,0.1784914758,0.225143029246,0.954296400622,-0.0822786868223
2021/03/16/13:56:51.065867,705420,1615899411,68171024,mocap,-2.81983276367,9.6572734375,1.92311157227,0.179525213265,0.225593868268,0.953962864551,-0.0826616359946
2021/03/16/13:56:51.076820,705421,1615899411,78171015,mocap,-2.81947827148,9.6490625,1.92205285645,0.180169611164,0.22618720179,0.953660619042,-0.0831245649892
2021/03/16/13:56:51.085717,705422,1615899411,88171005,mocap,-2.81906591797,9.6408359375,1.92098522949,0.180977737242,0.226910380906,0.953305719784,-0.0834682410751
2021/03/16/13:56:51.096878,705423,1615899411,98170996,mocap,-2.8186550293,9.63253222656,1.9197232666,0.181920193361,0.227635662267,0.952904245733,-0.0840271019579
2021/03/16/13:56:51.106021,705424,1615899411,108170986,mocap,-2.81820605469,9.62409765625,1.91835412598,0.18236885052,0.228218159955,0.952634208203,-0.0845348429314
2021/03/16/13:56:51.116143,705425,1615899411,118170977,mocap,-2.81779980469,9.61569238281,1.91694689941,0.182950744997,0.228868303378,0.95232261434,-0.0850291910018
2021/03/16/13:56:51.125871,705426,1615899411,128171206,mocap,-2.8173347168,9.60720507813,1.9153762207,0.184234672993,0.229683605078,0.951817232873,-0.0857145559051
2021/03/16/13:56:51.135783,705427,1615899411,138171196,mocap,-2.81695532227,9.59865332031,1.91376208496,0.184449012414,0.230307516067,0.951599025182,-0.0860017891675
2021/03/16/13:56:51.145792,705428,1615899411,148171186,mocap,-2.81652368164,9.59005175781,1.9120267334,0.185160201548,0.231130134938,0.951207781042,-0.0865928872298
2021/03/16/13:56:51.155709,705429,1615899411,158171177,mocap,-2.81607177734,9.58142871094,1.91025219727,0.185667758396,0.232237933128,0.950800907556,-0.0870095532327
2021/03/16/13:56:51.167534,705430,1615899411,168171167,mocap,-2.81563012695,9.57278222656,1.90834350586,0.186443564578,0.233099491339,0.950397175971,-0.0874564746909
2021/03/16/13:56:51.175737,705431,1615899411,178171158,mocap,-2.81520117188,9.56402636719,1.90653991699,0.186760423925,0.234187756088,0.950064357033,-0.0874892428566
2021/03/16/13:56:51.185444,705432,1615899411,188171148,mocap,-2.81465722656,9.55529785156,1.90465209961,0.187041337427,0.235172906415,0.949719920721,-0.0879847296536
2021/03/16/13:56:51.196545,705433,1615899411,198171139,mocap,-2.81425463867,9.54649804687,1.90303588867,0.187077022567,0.236371382527,0.949417768423,-0.0879582160014
2021/03/16/13:56:51.207569,705434,1615899411,208171129,mocap,-2.81382739258,9.53758984375,1.90156384277,0.186365670856,0.237501465527,0.949345992237,-0.087195593511
2021/03/16/13:56:51.215899,705435,1615899411,218171120,mocap,-2.81325219727,9.52867285156,1.90011181641,0.187404691767,0.238104851091,0.948908547157,-0.0880802350456
2021/03/16/13:56:51.227686,705436,1615899411,228171110,mocap,-2.81272241211,9.51967578125,1.8989197998,0.187168963584,0.238834075324,0.948773181403,-0.0880653325549
2021/03/16/13:56:51.235666,705437,1615899411,238171101,mocap,-2.81214819336,9.510640625,1.89787805176,0.187210038957,0.239217983911,0.948678039264,-0.0879609522976
2021/03/16/13:56:51.247743,705438,1615899411,248171091,mocap,-2.81151416016,9.50156738281,1.89704138184,0.187233823841,0.239697796371,0.948589320341,-0.0875600620805
2021/03/16/13:56:51.255470,705439,1615899411,258171082,mocap,-2.81085791016,9.49249414063,1.89634851074,0.187161708654,0.240294196179,0.94845769537,-0.0875053987857
2021/03/16/13:56:51.267685,705440,1615899411,268171072,mocap,-2.81017700195,9.48339550781,1.89578442383,0.187361910421,0.240917265372,0.94830397494,-0.0870284643326
2021/03/16/13:56:51.275460,705441,1615899411,278171062,mocap,-2.80947631836,9.4742578125,1.89538574219,0.187172203964,0.241493426481,0.948261728292,-0.0862971534035
2021/03/16/13:56:51.286664,705442,1615899411,288171053,mocap,-2.80872119141,9.46515820313,1.89537158203,0.186959704106,0.242465815005,0.948106970216,-0.0857296156468
2021/03/16/13:56:51.296179,705443,1615899411,298171043,mocap,-2.80809790039,9.45600878906,1.89592004395,0.18594739412,0.243515178959,0.948179743839,-0.0841373471811
2021/03/16/13:56:51.305639,705444,1615899411,308171034,mocap,-2.80732543945,9.44684667969,1.8966973877,0.186815528745,0.244561587848,0.947752208207,-0.0839960324737
2021/03/16/13:56:51.316366,705445,1615899411,318171024,mocap,-2.80666870117,9.43769042969,1.8979074707,0.185786358903,0.245105437336,0.947951267296,-0.082432645478
2021/03/16/13:56:51.325823,705446,1615899411,328171015,mocap,-2.80586962891,9.42842480469,1.89892150879,0.186353458414,0.245448901411,0.947796136229,-0.0819127956299
2021/03/16/13:56:51.337094,705447,1615899411,338171005,mocap,-2.80508691406,9.41914746094,1.90017797852,0.186401664367,0.24592644019,0.9477221775,-0.0812236270639
2021/03/16/13:56:51.345948,705448,1615899411,348170996,mocap,-2.80439038086,9.40992578125,1.90169299316,0.185536940929,0.245958933204,0.948051174108,-0.079241559503
2021/03/16/13:56:51.356172,705449,1615899411,358170986,mocap,-2.80351464844,9.40071582031,1.90315917969,0.185926411518,0.245948297724,0.948012892936,-0.0788185298101
2021/03/16/13:56:51.365648,705450,1615899411,368170977,mocap,-2.80275415039,9.39160546875,1.90482849121,0.185979299607,0.246281216233,0.948002377328,-0.0777737485786
2021/03/16/13:56:51.377108,705451,1615899411,378171206,mocap,-2.80205224609,9.38255273438,1.90644384766,0.186263527467,0.245997100338,0.948086986157,-0.0769570658067
2021/03/16/13:56:51.385662,705452,1615899411,388171196,mocap,-2.80135253906,9.37349023437,1.90801965332,0.186669875861,0.245699847867,0.948131574471,-0.0763705118192
2021/03/16/13:56:51.397166,705453,1615899411,398171186,mocap,-2.80062719727,9.36448339844,1.90941870117,0.186974983133,0.245286473933,0.948252841878,-0.0754415941723
2021/03/16/13:56:51.405800,705454,1615899411,408171177,mocap,-2.79997363281,9.35555761719,1.91074291992,0.187059266415,0.245455455853,0.948307730455,-0.073979111219
2021/03/16/13:56:51.416790,705455,1615899411,418171167,mocap,-2.79925854492,9.34680859375,1.91184362793,0.188230412381,0.245038261794,0.948212965919,-0.0736052324251
2021/03/16/13:56:51.425493,705456,1615899411,428171158,mocap,-2.79866333008,9.33807617188,1.91275695801,0.188718025853,0.245487068823,0.948063056597,-0.072787721926
2021/03/16/13:56:51.437096,705457,1615899411,438171148,mocap,-2.79816479492,9.32953027344,1.91379589844,0.188280954913,0.246054211518,0.948124824277,-0.0711823857753
2021/03/16/13:56:51.445967,705458,1615899411,448171139,mocap,-2.79765380859,9.32098828125,1.91450195313,0.190107146746,0.246642686019,0.947639973399,-0.0707470647747
2021/03/16/13:56:51.457100,705459,1615899411,458171129,mocap,-2.79724902344,9.31251269531,1.91530212402,0.190377093537,0.247530477804,0.947419694779,-0.0698651383869
2021/03/16/13:56:51.465495,705460,1615899411,468171120,mocap,-2.79692333984,9.30403320312,1.91604138184,0.191002560626,0.248225175948,0.947185269123,-0.0688647375898
2021/03/16/13:56:51.476943,705461,1615899411,478171110,mocap,-2.79665478516,9.29558691406,1.91681433105,0.191420268166,0.248483748291,0.947110546828,-0.0677917129121
2021/03/16/13:56:51.485628,705462,1615899411,488171101,mocap,-2.79645605469,9.28704785156,1.91752648926,0.191938142115,0.248579509931,0.947054314395,-0.0667540776708
2021/03/16/13:56:51.496882,705463,1615899411,498171091,mocap,-2.79634106445,9.27849609375,1.91825695801,0.19244471895,0.24859296864,0.947028966227,-0.0655948538987
2021/03/16/13:56:51.505670,705464,1615899411,508171082,mocap,-2.79629370117,9.26993164062,1.91898718262,0.192924560723,0.248555370701,0.947005765214,-0.0646561234284
2021/03/16/13:56:51.517164,705465,1615899411,518171072,mocap,-2.79627441406,9.26140234375,1.91977282715,0.19321744004,0.247913136196,0.947193693596,-0.0634838902841
2021/03/16/13:56:51.525418,705466,1615899411,528171062,mocap,-2.79635327148,9.25283886719,1.92056066895,0.193387061064,0.247248639705,0.947405130398,-0.0623944924104
2021/03/16/13:56:51.536850,705467,1615899411,538171053,mocap,-2.79648046875,9.24425390625,1.9213034668,0.193385889285,0.246777260238,0.94760034684,-0.0612899417468
2021/03/16/13:56:51.545655,705468,1615899411,548171043,mocap,-2.7967097168,9.23575585938,1.92199291992,0.193621539693,0.246085809279,0.947792087829,-0.0603542648687
2021/03/16/13:56:51.556673,705469,1615899411,558171034,mocap,-2.79692089844,9.22717285156,1.92256408691,0.193434279557,0.245516689712,0.948051519897,-0.0591866433805
2021/03/16/13:56:51.565682,705470,1615899411,568171024,mocap,-2.79722167969,9.21862109375,1.92309057617,0.193459598643,0.244529529199,0.948354429601,-0.0583316152102
2021/03/16/13:56:51.577940,705471,1615899411,578171015,mocap,-2.79756689453,9.21008105469,1.9236072998,0.193361396824,0.243938335516,0.948576863214,-0.0575099060242
2021/03/16/13:56:51.585792,705472,1615899411,588171005,mocap,-2.79794433594,9.20158789062,1.92402990723,0.192948082447,0.243165979407,0.948921321848,-0.0564771177753
2021/03/16/13:56:51.597542,705473,1615899411,598170996,mocap,-2.79841430664,9.19299511719,1.92435144043,0.192550837156,0.242151110777,0.949303580053,-0.0557648955278
2021/03/16/13:56:51.605482,705474,1615899411,608170986,mocap,-2.79885449219,9.18440625,1.92463354492,0.192367888191,0.241269050918,0.94959627501,-0.0552336046366
2021/03/16/13:56:51.617681,705475,1615899411,618170977,mocap,-2.7994140625,9.17582714844,1.92484472656,0.191655394749,0.240266127707,0.950029270449,-0.0546331815803
2021/03/16/13:56:51.625914,705476,1615899411,628171206,mocap,-2.79998754883,9.16722070313,1.92494824219,0.191004938973,0.2390909757,0.950499741656,-0.0538781109854
2021/03/16/13:56:51.637265,705477,1615899411,638171196,mocap,-2.80055810547,9.15858007813,1.92502038574,0.189941083062,0.238305996813,0.950944415082,-0.0532667641901
2021/03/16/13:56:51.645617,705478,1615899411,648171186,mocap,-2.80121606445,9.14995703125,1.92501550293,0.18974319668,0.237436564382,0.951222146212,-0.0528942996281
2021/03/16/13:56:51.657202,705479,1615899411,658171177,mocap,-2.8019074707,9.141390625,1.92495996094,0.189031758538,0.236472568412,0.951631462404,-0.0523953827205
2021/03/16/13:56:51.665788,705480,1615899411,668171167,mocap,-2.80254638672,9.13275488281,1.92471240234,0.187724505043,0.235899013472,0.95206740597,-0.0517572950647
2021/03/16/13:56:51.677249,705481,1615899411,678171158,mocap,-2.80326098633,9.12411523437,1.924421875,0.187126850903,0.23562232873,0.952271454518,-0.0514270604704
2021/03/16/13:56:51.685723,705482,1615899411,688171148,mocap,-2.80397851562,9.115515625,1.9240189209,0.186509847076,0.234998702187,0.952555173417,-0.0512672298091
2021/03/16/13:56:51.697437,705483,1615899411,698171139,mocap,-2.80461767578,9.10686035156,1.92343481445,0.185549351242,0.23480066908,0.952823129909,-0.0506770317415
2021/03/16/13:56:51.705507,705484,1615899411,708171129,mocap,-2.80531591797,9.09825976563,1.92287597656,0.185254044791,0.234668579359,0.952919914507,-0.0505493096704
2021/03/16/13:56:51.717114,705485,1615899411,718171120,mocap,-2.80600390625,9.08957226562,1.92213500977,0.184754296049,0.234523258822,0.953069779094,-0.0502262748815
2021/03/16/13:56:51.725940,705486,1615899411,728171110,mocap,-2.80670336914,9.08090136719,1.92127514648,0.184289078977,0.234593040973,0.953155610891,-0.0499801083609
2021/03/16/13:56:51.737247,705487,1615899411,738171101,mocap,-2.80741357422,9.072234375,1.92038989258,0.183750654099,0.23457410428,0.95326038087,-0.050053401103
2021/03/16/13:56:51.745815,705488,1615899411,748171091,mocap,-2.80810449219,9.06348925781,1.91926940918,0.183596831565,0.234631665024,0.953290846732,-0.0497669977376
2021/03/16/13:56:51.757476,705489,1615899411,758171082,mocap,-2.80887011719,9.05475,1.91813037109,0.183033629187,0.234984491387,0.953317302315,-0.0496699294614
2021/03/16/13:56:51.765648,705490,1615899411,768171072,mocap,-2.80960327148,9.04603417969,1.91683398437,0.182558951858,0.235319082891,0.95333444139,-0.0495036044896
2021/03/16/13:56:51.777505,705491,1615899411,778171062,mocap,-2.81042504883,9.03727441406,1.91542724609,0.182141746325,0.235624152698,0.953341365708,-0.0494558651119
2021/03/16/13:56:51.785481,705492,1615899411,788171053,mocap,-2.81123828125,9.02849707031,1.91397937012,0.181696030411,0.236064645578,0.953322163498,-0.0493647366784
2021/03/16/13:56:51.797050,705493,1615899411,798171043,mocap,-2.81201733398,9.01966503906,1.91239550781,0.181070162527,0.236601548201,0.953302351289,-0.0494764911022
2021/03/16/13:56:51.805477,705494,1615899411,808171034,mocap,-2.81294091797,9.01082910156,1.91080944824,0.180612704976,0.236824738766,0.953339466605,-0.0493655861946
2021/03/16/13:56:51.817084,705495,1615899411,818171024,mocap,-2.81378442383,9.00194824219,1.90914880371,0.180142335358,0.237383671778,0.953280701974,-0.0495341512475
2021/03/16/13:56:51.825595,705496,1615899411,828171015,mocap,-2.81473535156,8.99299121094,1.90755859375,0.180211410253,0.237856908706,0.953135505994,-0.0498061010594
2021/03/16/13:56:51.836820,705497,1615899411,838171005,mocap,-2.81565966797,8.98401757813,1.90598193359,0.179537617064,0.238249733105,0.953158612518,-0.0499195875143
2021/03/16/13:56:51.845616,705498,1615899411,848170996,mocap,-2.81664624023,8.97503320312,1.90448303223,0.179356731922,0.238603533655,0.953089729032,-0.0501945150312
