time,.header.seq,.header.stamp.secs,.header.stamp.nsecs,.header.frame_id,.pose.position.x,.pose.position.y,.pose.position.z,.pose.orientation.x,.pose.orientation.y,.pose.orientation.z,.pose.orientation.w
2021/03/16/14:21:26.125484,818952,1615900886,128171206,mocap,-2.78280224609,10.3556005859,1.93337939453,0.137745273025,0.206706948618,0.968652420359,0.00331093890509
2021/03/16/14:21:26.134879,818953,1615900886,138171196,mocap,-2.78281347656,10.3558378906,1.93361120605,0.138322192976,0.206975033399,0.968512613683,0.00340896259968
2021/03/16/14:21:26.144562,818954,1615900886,148171186,mocap,-2.78273999023,10.3558867187,1.93352661133,0.138346623904,0.207105056954,0.968481064968,0.00348366553449
2021/03/16/14:21:26.156488,818955,1615900886,158171177,mocap,-2.78265063477,10.3557548828,1.9333638916,0.138018478164,0.206908678067,0.968569638782,0.00354342039909
2021/03/16/14:21:26.164709,818956,1615900886,168171167,mocap,-2.7825925293,10.3560361328,1.93348803711,0.138681800306,0.207030163609,0.968449438292,0.00339963373551
2021/03/16/14:21:26.175592,818957,1615900886,178171158,mocap,-2.78257983398,10.3562197266,1.93357275391,0.139122713768,0.207413572202,0.968303969977,0.00344885427053
2021/03/16/14:21:26.184670,818958,1615900886,188171148,mocap,-2.78259985352,10.356125,1.93363635254,0.138451487088,0.207284635546,0.968426288849,0.00384434021696
2021/03/16/14:21:26.196530,818959,1615900886,198171139,mocap,-2.78253808594,10.3560517578,1.93343151855,0.138453528209,0.207152607656,0.968455385201,0.00354735617818
2021/03/16/14:21:26.204801,818960,1615900886,208171129,mocap,-2.78250097656,10.3563779297,1.93348669434,0.139134785472,0.207277700241,0.968331554239,0.00338724630394
2021/03/16/14:21:26.216338,818961,1615900886,218171120,mocap,-2.78253222656,10.3565341797,1.93373461914,0.138339049883,0.207433135025,0.968410163154,0.00394533780512
2021/03/16/14:21:26.225030,818962,1615900886,228171110,mocap,-2.78254638672,10.3563193359,1.93366442871,0.138294781302,0.207418379675,0.968420072487,0.0038389534489
2021/03/16/14:21:26.236256,818963,1615900886,238171101,mocap,-2.78246606445,10.3562363281,1.93334411621,0.138544051746,0.207301340174,0.968410932516,0.00345918765924
2021/03/16/14:21:26.244795,818964,1615900886,248171091,mocap,-2.78244287109,10.3566103516,1.93354077148,0.138132619698,0.207305264495,0.968467355842,0.0038596770083
2021/03/16/14:21:26.256366,818965,1615900886,258171082,mocap,-2.78250073242,10.3566972656,1.93375646973,0.138505301951,0.207436432624,0.96838686659,0.00364399998189
2021/03/16/14:21:26.264641,818966,1615900886,268171072,mocap,-2.78245483398,10.3564599609,1.93349829102,0.138468252587,0.207287856391,0.96842407312,0.00361869450838
2021/03/16/14:21:26.276303,818967,1615900886,278171062,mocap,-2.7824128418,10.3563769531,1.93331140137,0.138405071095,0.207040923615,0.968486157759,0.00355781559371
2021/03/16/14:21:26.284786,818968,1615900886,288171053,mocap,-2.78241210938,10.3567539063,1.93362512207,0.138279866889,0.206828083919,0.968548607658,0.00379626012245
2021/03/16/14:21:26.296129,818969,1615900886,298171043,mocap,-2.78241381836,10.3566992188,1.93353771973,0.138705959075,0.20682177144,0.968489765777,0.00360346311082
2021/03/16/14:21:26.304800,818970,1615900886,308171034,mocap,-2.78241333008,10.3564238281,1.93334924316,0.138398187831,0.206603062957,0.968579654176,0.00381663642697
2021/03/16/14:21:26.316254,818971,1615900886,318171024,mocap,-2.78236987305,10.3564248047,1.93335961914,0.138172824829,0.206241398194,0.968688378374,0.00394798692329
2021/03/16/14:21:26.324736,818972,1615900886,328171015,mocap,-2.78233447266,10.3568115234,1.93356420898,0.138823420795,0.206226591956,0.968599215432,0.00377036528826
2021/03/16/14:21:26.336911,818973,1615900886,338171005,mocap,-2.78227319336,10.3567558594,1.93336584473,0.138741991382,0.206163046248,0.968623976047,0.00387945670964
2021/03/16/14:21:26.346026,818974,1615900886,348170996,mocap,-2.78226855469,10.3564228516,1.93327575684,0.138659657075,0.205860082586,0.968700061557,0.00391332741371
2021/03/16/14:21:26.356190,818975,1615900886,358170986,mocap,-2.78222192383,10.3565283203,1.9332824707,0.139063046253,0.205835991065,0.968647913015,0.00377241691633
2021/03/16/14:21:26.364643,818976,1615900886,368170977,mocap,-2.78214819336,10.3569755859,1.93336645508,0.139370035051,0.205827902401,0.968605438337,0.00379137118387
2021/03/16/14:21:26.375988,818977,1615900886,378171206,mocap,-2.7821340332,10.3568212891,1.9333762207,0.139083379243,0.205756352649,0.968660904264,0.00402351532529
2021/03/16/14:21:26.385058,818978,1615900886,388171196,mocap,-2.78211108398,10.3564814453,1.93322131348,0.1390301339,0.20565979884,0.968689708987,0.00386169456133
2021/03/16/14:21:26.394870,818979,1615900886,398171186,mocap,-2.78204467773,10.3566816406,1.9330892334,0.13962169497,0.205827984536,0.968569215703,0.00378090040528
2021/03/16/14:21:26.404793,818980,1615900886,408171177,mocap,-2.78205322266,10.3572587891,1.93349890137,0.139313465375,0.205527728348,0.968677064242,0.00385557542521
2021/03/16/14:21:26.416487,818981,1615900886,418171167,mocap,-2.78205151367,10.3569072266,1.93335131836,0.139449223019,0.20560808278,0.968640821211,0.00376737180099
2021/03/16/14:21:26.425217,818982,1615900886,428171158,mocap,-2.78201416016,10.3567333984,1.9330838623,0.139424272089,0.205603853008,0.968645782402,0.00364187026741
2021/03/16/14:21:26.436426,818983,1615900886,438171148,mocap,-2.78207446289,10.3570400391,1.93327783203,0.139534887621,0.205647317,0.968620576212,0.00365654512932
2021/03/16/14:21:26.444943,818984,1615900886,448171139,mocap,-2.78209936523,10.3574296875,1.93360620117,0.139400346773,0.205420802226,0.96868819378,0.00360857717389
2021/03/16/14:21:26.456462,818985,1615900886,458171129,mocap,-2.78208740234,10.3571103516,1.93317749023,0.139441707505,0.205788720016,0.968604492212,0.00351241978208
2021/03/16/14:21:26.464956,818986,1615900886,468171120,mocap,-2.78212988281,10.3569677734,1.93306652832,0.139080944774,0.205696992082,0.968675449025,0.00361934854467
2021/03/16/14:21:26.476411,818987,1615900886,478171110,mocap,-2.7822019043,10.3574160156,1.93347546387,0.139127003648,0.205727541655,0.968662742561,0.0035140987777
2021/03/16/14:21:26.484949,818988,1615900886,488171101,mocap,-2.78218408203,10.3577080078,1.93348925781,0.139135050075,0.205799467182,0.968645974696,0.00360354444928
2021/03/16/14:21:26.496165,818989,1615900886,498171091,mocap,-2.78219018555,10.3573095703,1.93311486816,0.139083312473,0.205869689026,0.968639405921,0.00334947604188
2021/03/16/14:21:26.504650,818990,1615900886,508171082,mocap,-2.78227099609,10.3573085938,1.9332220459,0.138787720024,0.205723066567,0.968712606016,0.00344629092918
2021/03/16/14:21:26.516276,818991,1615900886,518171072,mocap,-2.78228442383,10.357859375,1.93346166992,0.138913296576,0.20587447717,0.968662657953,0.00338374831736
2021/03/16/14:21:26.524611,818992,1615900886,528171062,mocap,-2.78231567383,10.3580410156,1.93346826172,0.139061025372,0.205965547989,0.968621699236,0.0034980696062
2021/03/16/14:21:26.536105,818993,1615900886,538171053,mocap,-2.78238793945,10.3576435547,1.93330102539,0.138782641885,0.205981950972,0.968658612155,0.00336173934055
2021/03/16/14:21:26.545042,818994,1615900886,548171043,mocap,-2.7823918457,10.3576904297,1.93329821777,0.138431793823,0.20599496635,0.968705445465,0.00353246253657
2021/03/16/14:21:26.556220,818995,1615900886,558171034,mocap,-2.78242236328,10.3581503906,1.93344311523,0.138947611051,0.206257481909,0.968575454185,0.00360507797177
2021/03/16/14:21:26.565076,818996,1615900886,568171024,mocap,-2.78246533203,10.3583398438,1.93361157227,0.138996945127,0.206273675115,0.968565300285,0.00350656376833
2021/03/16/14:21:26.576093,818997,1615900886,578171015,mocap,-2.78247631836,10.3579892578,1.93333825684,0.138432507645,0.206260251169,0.96864878218,0.00356211502427
2021/03/16/14:21:26.584900,818998,1615900886,588171005,mocap,-2.78247192383,10.3581074219,1.93327526855,0.138516340671,0.206305727912,0.968627206649,0.00353728992887
2021/03/16/14:21:26.594936,818999,1615900886,598170996,mocap,-2.78251757812,10.3584882813,1.93354516602,0.13907517412,0.206441001564,0.968518014019,0.0036149586988
2021/03/16/14:21:26.604749,819000,1615900886,608170986,mocap,-2.7825390625,10.3585898437,1.93364221191,0.138553435549,0.20652756635,0.968573723414,0.00377468952864
2021/03/16/14:21:26.615697,819001,1615900886,618170977,mocap,-2.78251342773,10.3583310547,1.9332097168,0.138415551436,0.206589029016,0.968580823401,0.00364705294796
2021/03/16/14:21:26.624834,819002,1615900886,628171206,mocap,-2.78255493164,10.3584794922,1.93337145996,0.138798842583,0.206550078745,0.968534491779,0.0035895393934
2021/03/16/14:21:26.636789,819003,1615900886,638171196,mocap,-2.78257666016,10.3587714844,1.93357397461,0.13860965053,0.206743115713,0.968519437179,0.00383919905376
2021/03/16/14:21:26.644796,819004,1615900886,648171186,mocap,-2.78257055664,10.3587255859,1.93346960449,0.138404462876,0.206766531813,0.968543330574,0.00395418316244
2021/03/16/14:21:26.656682,819005,1615900886,658171177,mocap,-2.78257250977,10.3585224609,1.93321899414,0.138522969869,0.206775763685,0.968524914403,0.00382718921641
2021/03/16/14:21:26.665385,819006,1615900886,668171167,mocap,-2.78257763672,10.3587929688,1.9334387207,0.138467734077,0.206471048345,0.968597515472,0.00390432270391
2021/03/16/14:21:26.676764,819007,1615900886,678171158,mocap,-2.78256787109,10.3589521484,1.93345715332,0.138509966359,0.206857489954,0.968507774895,0.00420246778783
2021/03/16/14:21:26.684848,819008,1615900886,688171148,mocap,-2.78261206055,10.3587587891,1.93334924316,0.138844316102,0.206859337069,0.968459939601,0.00410198450377
2021/03/16/14:21:26.696828,819009,1615900886,698171139,mocap,-2.78258105469,10.3586933594,1.93324523926,0.138627636849,0.206774667636,0.96850911345,0.00408816280207
2021/03/16/14:21:26.704759,819010,1615900886,708171129,mocap,-2.78253588867,10.3590429687,1.93337255859,0.138376125214,0.206559110807,0.968590215611,0.00428736168584
2021/03/16/14:21:26.716592,819011,1615900886,718171120,mocap,-2.78258398437,10.3590888672,1.93343310547,0.139095259209,0.206769497605,0.96844281433,0.00417059719741
2021/03/16/14:21:26.724592,819012,1615900886,728171110,mocap,-2.78255908203,10.3588251953,1.9332923584,0.138605814084,0.206714737962,0.968523614335,0.00441088137701
2021/03/16/14:21:26.735709,819013,1615900886,738171101,mocap,-2.78257397461,10.3588251953,1.93326330566,0.138714519886,0.206655872771,0.968520660326,0.00440138852305
2021/03/16/14:21:26.746680,819014,1615900886,748171091,mocap,-2.78254150391,10.3591484375,1.93339160156,0.138924908329,0.206437106948,0.968536430321,0.00455695101722
2021/03/16/14:21:26.756368,819015,1615900886,758171082,mocap,-2.78258300781,10.3590380859,1.93336022949,0.139306877626,0.206524554151,0.968463532331,0.00442577113375
2021/03/16/14:21:26.765132,819016,1615900886,768171072,mocap,-2.7825871582,10.3588056641,1.93326123047,0.138696408893,0.206616123779,0.96853039929,0.0046865161913
2021/03/16/14:21:26.776504,819017,1615900886,778171062,mocap,-2.78259985352,10.3588925781,1.93324084473,0.139009657887,0.20652829345,0.968503682293,0.00479526698589
2021/03/16/14:21:26.784880,819018,1615900886,788171053,mocap,-2.78262719727,10.3592050781,1.93335803223,0.13941747723,0.206359455164,0.968481526551,0.00469791627106
2021/03/16/14:21:26.796393,819019,1615900886,798171043,mocap,-2.78266259766,10.3589707031,1.93324499512,0.139141619563,0.206521353306,0.968485757722,0.00488760562722
2021/03/16/14:21:26.804864,819020,1615900886,808171034,mocap,-2.78271606445,10.3586982422,1.93311938477,0.138910071727,0.206473722975,0.968528206877,0.0050689223856
2021/03/16/14:21:26.815482,819021,1615900886,818171024,mocap,-2.7827434082,10.3589306641,1.93320385742,0.139832143517,0.206437086126,0.968404939171,0.00475011616724
2021/03/16/14:21:26.824788,819022,1615900886,828171015,mocap,-2.7827800293,10.3591923828,1.93338098145,0.138955841559,0.20627600044,0.96856323103,0.00517265194095
2021/03/16/14:21:26.835008,819023,1615900886,838171005,mocap,-2.78284863281,10.3587265625,1.93317675781,0.138992108049,0.206345855011,0.968542722862,0.00525108815526
2021/03/16/14:21:26.846368,819024,1615900886,848170996,mocap,-2.78293164063,10.3585117187,1.93307800293,0.139157161109,0.206311841881,0.96852638371,0.00523069589592
2021/03/16/14:21:26.854965,819025,1615900886,858170986,mocap,-2.78295654297,10.3588310547,1.93323266602,0.139406832466,0.206113636771,0.968533084026,0.00515380538457
2021/03/16/14:21:26.867898,819026,1615900886,868170977,mocap,-2.78302172852,10.358859375,1.93331970215,0.139160982265,0.206101559632,0.968569015702,0.00551561372076
2021/03/16/14:21:26.875002,819027,1615900886,878171206,mocap,-2.78314331055,10.3583632812,1.93306347656,0.139425370767,0.206179894446,0.968514975372,0.00540008731735
2021/03/16/14:21:26.886264,819028,1615900886,888171196,mocap,-2.78321118164,10.3582939453,1.93305566406,0.139102109695,0.206138642723,0.96856855416,0.00569471378311
2021/03/16/14:21:26.894686,819029,1615900886,898171186,mocap,-2.78329125977,10.3586171875,1.93330944824,0.139268480421,0.205961718599,0.968582408006,0.00567245268138
2021/03/16/14:21:26.906185,819030,1615900886,908171177,mocap,-2.78337866211,10.3584931641,1.93328430176,0.139310165178,0.206083388949,0.968549246137,0.00588701808912
2021/03/16/14:21:26.914660,819031,1615900886,918171167,mocap,-2.78347705078,10.3579541016,1.93293725586,0.139297964867,0.2062786231,0.968509451934,0.0058857156394
2021/03/16/14:21:26.926068,819032,1615900886,928171158,mocap,-2.7836184082,10.3579755859,1.9330769043,0.139198537971,0.206345714506,0.968508574951,0.00602853948769
2021/03/16/14:21:26.934702,819033,1615900886,938171148,mocap,-2.78371875,10.3582871094,1.93328771973,0.139656822675,0.206401016915,0.968429997105,0.00615833652352
2021/03/16/14:21:26.945839,819034,1615900886,948171139,mocap,-2.7838684082,10.3579921875,1.93318615723,0.139389156737,0.20643699677,0.968460108852,0.0062803220988
2021/03/16/14:21:26.954721,819035,1615900886,958171129,mocap,-2.78402246094,10.3574677734,1.93292102051,0.139312411149,0.206612050011,0.96843265904,0.00645777913665
2021/03/16/14:21:26.966068,819036,1615900886,968171120,mocap,-2.78421337891,10.3575517578,1.93315661621,0.139285851685,0.206629757701,0.968431012642,0.00670468847916
2021/03/16/14:21:26.974983,819037,1615900886,978171110,mocap,-2.78440576172,10.3576767578,1.93327307129,0.139733184215,0.206555143845,0.968382835027,0.00665520347895
2021/03/16/14:21:26.984825,819038,1615900886,988171101,mocap,-2.78456420898,10.3572207031,1.93307995605,0.139032852637,0.206434537956,0.968507374867,0.00693601941798
2021/03/16/14:21:26.994644,819039,1615900886,998171091,mocap,-2.7847487793,10.3567402344,1.93294311523,0.139057464149,0.206577217539,0.968472641033,0.00704445658496
2021/03/16/14:21:27.007073,819040,1615900887,8171082,mocap,-2.78492333984,10.3569580078,1.93319946289,0.138979085669,0.20639958361,0.96852025261,0.00724924602049
2021/03/16/14:21:27.014828,819041,1615900887,18171072,mocap,-2.78507080078,10.3568349609,1.93322741699,0.138916192454,0.206324188221,0.96854436907,0.0073773763683
2021/03/16/14:21:27.026786,819042,1615900887,28171062,mocap,-2.78528149414,10.3562265625,1.93303808594,0.138401222563,0.206434438903,0.968592438652,0.00765554190277
2021/03/16/14:21:27.035261,819043,1615900887,38171053,mocap,-2.78549267578,10.3558847656,1.93291772461,0.138732180667,0.206631110325,0.968502412967,0.00774920090826
2021/03/16/14:21:27.046561,819044,1615900887,48171043,mocap,-2.78568457031,10.3561025391,1.93318676758,0.138934763997,0.206648085377,0.968467671262,0.0080045697869
2021/03/16/14:21:27.054640,819045,1615900887,58171034,mocap,-2.7859140625,10.3558427734,1.9332322998,0.138719026398,0.2068301486,0.96845713157,0.00831340424029
2021/03/16/14:21:27.065864,819046,1615900887,68171024,mocap,-2.78615429687,10.3552441406,1.93298852539,0.13865266946,0.207042073197,0.968420180196,0.00844714668841
2021/03/16/14:21:27.074953,819047,1615900887,78171015,mocap,-2.78636010742,10.3550527344,1.93292822266,0.138859183501,0.207406995686,0.968310641055,0.0086591301566
2021/03/16/14:21:27.085720,819048,1615900887,88171005,mocap,-2.78664794922,10.3551591797,1.93319934082,0.139018653809,0.207537919921,0.968256378544,0.00902293993263
2021/03/16/14:21:27.094915,819049,1615900887,98170996,mocap,-2.78694677734,10.3547392578,1.9330892334,0.139336210292,0.207965563169,0.968117899946,0.00913657979501
2021/03/16/14:21:27.106070,819050,1615900887,108170986,mocap,-2.78722192383,10.3541113281,1.93278808594,0.138832963298,0.208398445826,0.968094727183,0.00938663403622
2021/03/16/14:21:27.116728,819051,1615900887,118170977,mocap,-2.78750146484,10.3540117187,1.93292041016,0.139089755855,0.208786031768,0.967973213093,0.00950239228331
2021/03/16/14:21:27.124931,819052,1615900887,128171206,mocap,-2.78780737305,10.3539853516,1.93312670898,0.139192265438,0.209277969459,0.967848496745,0.00987634651428
2021/03/16/14:21:27.134984,819053,1615900887,138171196,mocap,-2.788125,10.3532626953,1.93279516602,0.139326907158,0.209563785637,0.967766824309,0.00992022267226
2021/03/16/14:21:27.146972,819054,1615900887,148171186,mocap,-2.78847485352,10.3527744141,1.9327421875,0.139056572176,0.209878939665,0.96773441979,0.0102080121547
2021/03/16/14:21:27.154761,819055,1615900887,158171177,mocap,-2.78881152344,10.3525888672,1.93286975098,0.139530449538,0.210283807976,0.967577347584,0.0102980420781
2021/03/16/14:21:27.166546,819056,1615900887,168171167,mocap,-2.7891706543,10.352296875,1.93286962891,0.139478603856,0.210476681154,0.967540863145,0.0104868595622
2021/03/16/14:21:27.175145,819057,1615900887,178171158,mocap,-2.78959472656,10.3514863281,1.93256799316,0.139616937631,0.210959219648,0.967413472538,0.0107000551814
2021/03/16/14:21:27.186399,819058,1615900887,188171148,mocap,-2.79005664063,10.3509775391,1.93262902832,0.13933044977,0.21144051942,0.967347899342,0.0108618808347
2021/03/16/14:21:27.194937,819059,1615900887,198171139,mocap,-2.790484375,10.3506845703,1.93264501953,0.139460566168,0.21177408938,0.967255331443,0.0109362327574
2021/03/16/14:21:27.206209,819060,1615900887,208171129,mocap,-2.79095410156,10.3501015625,1.93257299805,0.139301249999,0.21209205946,0.967205315828,0.0112242607042
2021/03/16/14:21:27.214914,819061,1615900887,218171120,mocap,-2.7914206543,10.3491416016,1.93235107422,0.138929406259,0.212273832653,0.967216755019,0.0114093445093
2021/03/16/14:21:27.226261,819062,1615900887,228171110,mocap,-2.79192236328,10.3485751953,1.93236694336,0.13882810735,0.212495173128,0.967177383604,0.0118520944898
2021/03/16/14:21:27.234960,819063,1615900887,238171101,mocap,-2.79243774414,10.348125,1.93239099121,0.139102592104,0.212828296537,0.967062680474,0.012014946655
2021/03/16/14:21:27.246284,819064,1615900887,248171091,mocap,-2.7929699707,10.3471582031,1.93224902344,0.138561212897,0.212916659834,0.967119428985,0.0121359419018
2021/03/16/14:21:27.254864,819065,1615900887,258171082,mocap,-2.7934440918,10.3461220703,1.93189550781,0.13827716005,0.213109360021,0.967114976127,0.0123465970695
2021/03/16/14:21:27.266098,819066,1615900887,268171072,mocap,-2.79398754883,10.3454980469,1.93194726563,0.138720910625,0.213123614683,0.967047109876,0.0124391543772
2021/03/16/14:21:27.275136,819067,1615900887,278171062,mocap,-2.79454541016,10.3447001953,1.93205810547,0.139070770845,0.213122027504,0.966999425767,0.0122653782362
2021/03/16/14:21:27.285158,819068,1615900887,288171053,mocap,-2.79511010742,10.3435341797,1.93187084961,0.138326287075,0.212974876431,0.967133080179,0.0126946499972
2021/03/16/14:21:27.294825,819069,1615900887,298171043,mocap,-2.79566894531,10.3424082031,1.93162561035,0.138669996921,0.213060206682,0.967066309212,0.0125987834515
2021/03/16/14:21:27.305906,819070,1615900887,308171034,mocap,-2.79621069336,10.3416347656,1.93175537109,0.138957311338,0.213125241892,0.967010081508,0.0126490142871
2021/03/16/14:21:27.314804,819071,1615900887,318171024,mocap,-2.79676513672,10.3405332031,1.93165490723,0.139019739996,0.212769518785,0.967080685352,0.0125532415536
2021/03/16/14:21:27.326158,819072,1615900887,328171015,mocap,-2.79729418945,10.3391611328,1.93131188965,0.13920299839,0.212623481827,0.967087010477,0.012509507753
2021/03/16/14:21:27.334577,819073,1615900887,338171005,mocap,-2.79785766602,10.337953125,1.93113818359,0.139411967385,0.21256766741,0.967068774589,0.012541464141
2021/03/16/14:21:27.346043,819074,1615900887,348170996,mocap,-2.79838256836,10.3371064453,1.93115197754,0.138982063346,0.212428670225,0.967159457563,0.0126741541251
2021/03/16/14:21:27.354934,819075,1615900887,358170986,mocap,-2.79901586914,10.3359169922,1.93109912109,0.139730161449,0.212346258543,0.967076085935,0.012181747231
2021/03/16/14:21:27.365987,819076,1615900887,368170977,mocap,-2.79961328125,10.3343564453,1.93075073242,0.139903546244,0.212138077844,0.967099884021,0.0119269125753
2021/03/16/14:21:27.374847,819077,1615900887,378171206,mocap,-2.80015405273,10.3331201172,1.93057922363,0.140083891473,0.211851691909,0.967137425102,0.0118563358981
2021/03/16/14:21:27.384902,819078,1615900887,388171196,mocap,-2.80078051758,10.3322275391,1.93064550781,0.139809956337,0.211803148229,0.967186542936,0.0119494354587
2021/03/16/14:21:27.395812,819079,1615900887,398171186,mocap,-2.80140161133,10.3307832031,1.93026269531,0.140579076577,0.212008681224,0.967038873768,0.0112093196477
2021/03/16/14:21:27.404898,819080,1615900887,408171177,mocap,-2.80198144531,10.3292392578,1.9298416748,0.140497057678,0.211886816114,0.967081432658,0.010865298378
2021/03/16/14:21:27.416853,819081,1615900887,418171167,mocap,-2.80259912109,10.3281669922,1.92974194336,0.141112184178,0.211785079304,0.967019388814,0.0103885524848
2021/03/16/14:21:27.425087,819082,1615900887,428171158,mocap,-2.80324389648,10.3270957031,1.92969311523,0.141071086241,0.211925367845,0.966997584307,0.0101121832372
2021/03/16/14:21:27.436731,819083,1615900887,438171148,mocap,-2.80392871094,10.3254912109,1.92916455078,0.141480583328,0.212330396197,0.966857299458,0.00927496557308
2021/03/16/14:21:27.444824,819084,1615900887,448171139,mocap,-2.80453027344,10.3240058594,1.92871130371,0.141427662278,0.212429425837,0.966849161911,0.0086402766989
2021/03/16/14:21:27.456615,819085,1615900887,458171129,mocap,-2.80517578125,10.3228408203,1.92848156738,0.141837259719,0.212383706177,0.966806993528,0.00771988678542
2021/03/16/14:21:27.464829,819086,1615900887,468171120,mocap,-2.80585375977,10.3216210938,1.92824389648,0.141950873081,0.212365117897,0.966797452984,0.00732655424359
2021/03/16/14:21:27.476810,819087,1615900887,478171110,mocap,-2.80651391602,10.3200029297,1.92761230469,0.142109325722,0.212556239339,0.966737787772,0.00654547361299
2021/03/16/14:21:27.484843,819088,1615900887,488171101,mocap,-2.80716577148,10.3183828125,1.92705822754,0.14221431221,0.212777468361,0.966678673811,0.00576105327686
2021/03/16/14:21:27.496480,819089,1615900887,498171091,mocap,-2.80775805664,10.3171435547,1.92671313477,0.142721846254,0.212970279488,0.966565067745,0.00510988896034
2021/03/16/14:21:27.504988,819090,1615900887,508171082,mocap,-2.80842553711,10.3157119141,1.92631152344,0.142767002911,0.213266000744,0.966495127743,0.00473033406215
2021/03/16/14:21:27.517190,819091,1615900887,518171072,mocap,-2.80907177734,10.3138759766,1.92564648438,0.142986585489,0.213111010246,0.966499899518,0.00405852689911
2021/03/16/14:21:27.524886,819092,1615900887,528171062,mocap,-2.80970581055,10.3123193359,1.92521679688,0.143178602125,0.2134108145,0.966406718434,0.00371166664561
2021/03/16/14:21:27.536462,819093,1615900887,538171053,mocap,-2.8102644043,10.3109316406,1.92496252441,0.142368993823,0.213594652585,0.966486547738,0.0034862177756
2021/03/16/14:21:27.544712,819094,1615900887,548171043,mocap,-2.8109140625,10.3092236328,1.92461096191,0.142622064755,0.214266394785,0.966302178715,0.00299467385336
2021/03/16/14:21:27.556934,819095,1615900887,558171034,mocap,-2.81154516602,10.3071689453,1.9239519043,0.142743359871,0.214888209048,0.966147086904,0.00268297766291
2021/03/16/14:21:27.565331,819096,1615900887,568171024,mocap,-2.81212109375,10.3056210938,1.92366394043,0.141912699432,0.215432472615,0.966148405594,0.00262654317258
2021/03/16/14:21:27.576549,819097,1615900887,578171015,mocap,-2.81267724609,10.3040371094,1.92332177734,0.141758818629,0.216161978091,0.96600856817,0.00242462668389
2021/03/16/14:21:27.584866,819098,1615900887,588171005,mocap,-2.81325024414,10.3020869141,1.92271850586,0.14163911761,0.217520007796,0.965721773341,0.00220671219102
2021/03/16/14:21:27.596486,819099,1615900887,598170996,mocap,-2.81380883789,10.3000107422,1.92213696289,0.140891917758,0.218844543187,0.965532234822,0.00200907786293
2021/03/16/14:21:27.604924,819100,1615900887,608170986,mocap,-2.81436694336,10.2982333984,1.92184277344,0.14033357731,0.219933241369,0.965366067706,0.00205064778024
2021/03/16/14:21:27.615278,819101,1615900887,618170977,mocap,-2.81488183594,10.2963398437,1.92137512207,0.139762733859,0.221051064022,0.965193920453,0.001872781653
2021/03/16/14:21:27.626650,819102,1615900887,628171206,mocap,-2.81541259766,10.2940507813,1.92078381348,0.138955194604,0.222381155424,0.965004517601,0.00208789093988
2021/03/16/14:21:27.635415,819103,1615900887,638171196,mocap,-2.8159206543,10.2916357422,1.92029199219,0.13813825666,0.223297050829,0.96491074426,0.00187247224624
2021/03/16/14:21:27.645558,819104,1615900887,648171186,mocap,-2.81636645508,10.2894648438,1.91998144531,0.137062549392,0.223858672741,0.964934055257,0.00184866749306
2021/03/16/14:21:27.655039,819105,1615900887,658171177,mocap,-2.81674072266,10.2870537109,1.91962841797,0.135881798615,0.22459033659,0.964931013045,0.00185531948289
2021/03/16/14:21:27.666374,819106,1615900887,668171167,mocap,-2.81711914063,10.2842167969,1.9193416748,0.134833673533,0.225055535603,0.964969835267,0.00176359790422
2021/03/16/14:21:27.675137,819107,1615900887,678171158,mocap,-2.81742602539,10.2813681641,1.91895178223,0.134067582055,0.225334726755,0.965011968118,0.0014287729794
2021/03/16/14:21:27.686310,819108,1615900887,688171148,mocap,-2.81770239258,10.2788623047,1.91891967773,0.133301283077,0.225316193768,0.965122823471,0.00114822381079
2021/03/16/14:21:27.695076,819109,1615900887,698171139,mocap,-2.81786352539,10.2758916016,1.91876123047,0.132568162633,0.225195387715,0.965252476966,0.000608081405455
2021/03/16/14:21:27.706133,819110,1615900887,708171129,mocap,-2.81800390625,10.2725957031,1.91853417969,0.131834162813,0.225222570802,0.965346834555,0.000177345006818
2021/03/16/14:21:27.715019,819111,1615900887,718171120,mocap,-2.817984375,10.2694501953,1.91819348145,0.131893538362,0.224921117565,0.965408854691,-0.000567922127079
2021/03/16/14:21:27.726300,819112,1615900887,728171110,mocap,-2.81792749023,10.2665244141,1.91822155762,0.131377027175,0.224292002448,0.965625091355,-0.00116746873674
2021/03/16/14:21:27.734772,819113,1615900887,738171101,mocap,-2.81780322266,10.2631171875,1.91796447754,0.13152977501,0.223647452507,0.965751992674,-0.00219759271956
2021/03/16/14:21:27.746344,819114,1615900887,748171091,mocap,-2.81770874023,10.2595488281,1.9177109375,0.131326161002,0.223240920482,0.965871510629,-0.00302541044521
2021/03/16/14:21:27.755110,819115,1615900887,758171082,mocap,-2.81749560547,10.2561259766,1.91756689453,0.13133878462,0.222601570195,0.966013643145,-0.00403700267333
2021/03/16/14:21:27.765977,819116,1615900887,768171072,mocap,-2.81722070312,10.2528759766,1.91757495117,0.131182611914,0.221589869848,0.966263302074,-0.00492827242428
2021/03/16/14:21:27.774638,819117,1615900887,778171062,mocap,-2.81690161133,10.2492333984,1.91730688477,0.131619463058,0.221106311655,0.96630880964,-0.00596671527716
2021/03/16/14:21:27.785982,819118,1615900887,788171053,mocap,-2.81657275391,10.2454003906,1.91705773926,0.131749089054,0.220620606335,0.966396071458,-0.00688141377957
2021/03/16/14:21:27.794776,819119,1615900887,798171043,mocap,-2.81614648437,10.2418007812,1.91687878418,0.132533591726,0.219940691811,0.966434418523,-0.00808976338316
2021/03/16/14:21:27.804699,819120,1615900887,808171034,mocap,-2.81568774414,10.2384824219,1.91679016113,0.13310666606,0.219299727469,0.966490618046,-0.00928015053205
2021/03/16/14:21:27.815878,819121,1615900887,818171024,mocap,-2.81517041016,10.2346289063,1.91639648438,0.133830022188,0.219098036706,0.966424319222,-0.0104694733379
2021/03/16/14:21:27.824813,819122,1615900887,828171015,mocap,-2.81466357422,10.2307363281,1.91612475586,0.134223200774,0.219139656073,0.966348177893,-0.011539258321
2021/03/16/14:21:27.836926,819123,1615900887,838171005,mocap,-2.81408129883,10.2271748047,1.91586535645,0.135319379156,0.219107825606,0.966185891108,-0.0128545559676
2021/03/16/14:21:27.844787,819124,1615900887,848170996,mocap,-2.8134375,10.2236337891,1.91550378418,0.135193779949,0.220062810684,0.965980693897,-0.013278029121
2021/03/16/14:21:27.856869,819125,1615900887,858170986,mocap,-2.81283300781,10.2195839844,1.91495654297,0.136089826207,0.220802753104,0.965674548436,-0.0140845280555
2021/03/16/14:21:27.864794,819126,1615900887,868170977,mocap,-2.81221484375,10.2157128906,1.91457141113,0.136395847814,0.22143469976,0.96548054025,-0.0144972863996
2021/03/16/14:21:27.876829,819127,1615900887,878171206,mocap,-2.81158666992,10.2120419922,1.91412451172,0.137670134221,0.222156658951,0.965120924392,-0.0153281496914
2021/03/16/14:21:27.885344,819128,1615900887,888171196,mocap,-2.81095019531,10.2082919922,1.91365637207,0.137956675008,0.222856136833,0.964911678564,-0.015765037743
2021/03/16/14:21:27.894661,819129,1615900887,898171186,mocap,-2.81030859375,10.2041572266,1.91298974609,0.138783992964,0.2243298719,0.964443950215,-0.0162165874267
2021/03/16/14:21:27.904758,819130,1615900887,908171177,mocap,-2.80972680664,10.2000712891,1.91234143066,0.13948315332,0.225646164209,0.964032268205,-0.0164326155219
2021/03/16/14:21:27.915868,819131,1615900887,918171167,mocap,-2.80906518555,10.1962021484,1.9117824707,0.140257879623,0.226894319431,0.963621964417,-0.0167151262673
2021/03/16/14:21:27.925075,819132,1615900887,928171158,mocap,-2.80840991211,10.1922207031,1.91123718262,0.140742555308,0.227828529483,0.963328975538,-0.0168217794444
2021/03/16/14:21:27.935699,819133,1615900887,938171148,mocap,-2.80777734375,10.1877841797,1.91039758301,0.141104106729,0.229253875412,0.962937707891,-0.0168304570436
2021/03/16/14:21:27.944667,819134,1615900887,948171139,mocap,-2.80714038086,10.1834804688,1.9097767334,0.141324663133,0.230567530597,0.9625972742,-0.0165056427858
2021/03/16/14:21:27.955583,819135,1615900887,958171129,mocap,-2.8064074707,10.179234375,1.90916467285,0.141929836974,0.23155388843,0.962275217486,-0.0162825161778
2021/03/16/14:21:27.966504,819136,1615900887,968171120,mocap,-2.80568530273,10.1748105469,1.90850610352,0.141938765149,0.232716353607,0.962004092888,-0.0156400952426
2021/03/16/14:21:27.975124,819137,1615900887,978171110,mocap,-2.80491870117,10.1701152344,1.90776306152,0.142004556979,0.233919245227,0.961706923436,-0.0153716294184
2021/03/16/14:21:27.985667,819138,1615900887,988171101,mocap,-2.80416748047,10.1655380859,1.90723974609,0.142076993271,0.235201133439,0.961394433963,-0.0146735167557
2021/03/16/14:21:27.996282,819139,1615900887,998171091,mocap,-2.80334716797,10.1608720703,1.90662060547,0.142452025162,0.236085202758,0.961132781803,-0.0139635385478
2021/03/16/14:21:28.004739,819140,1615900888,8171082,mocap,-2.80255175781,10.1560429688,1.90595080566,0.142284255662,0.237243221982,0.96088318555,-0.0132042509443
2021/03/16/14:21:28.016167,819141,1615900888,18171072,mocap,-2.80168945312,10.1511464844,1.90542260742,0.143088451529,0.238366116203,0.960490882796,-0.0128278302043
2021/03/16/14:21:28.024927,819142,1615900888,28171062,mocap,-2.80079760742,10.1463349609,1.90515222168,0.141755623551,0.239036254306,0.96053889001,-0.011491154522
2021/03/16/14:21:28.035045,819143,1615900888,38171053,mocap,-2.79981396484,10.1413154297,1.90469885254,0.142175907614,0.239891457614,0.960271232183,-0.0108290766481
2021/03/16/14:21:28.045031,819144,1615900888,48171043,mocap,-2.79878027344,10.1360244141,1.90410961914,0.142252855029,0.241018366008,0.959987387773,-0.00992420769409
2021/03/16/14:21:28.055398,819145,1615900888,58171034,mocap,-2.79777368164,10.1307939453,1.90382580566,0.142208495005,0.241860723091,0.959791267434,-0.00899273969772
2021/03/16/14:21:28.065572,819146,1615900888,68171024,mocap,-2.79666748047,10.1256386719,1.90368334961,0.141935045688,0.242396907755,0.959704654979,-0.00807165606558
2021/03/16/14:21:28.074919,819147,1615900888,78171015,mocap,-2.79553173828,10.1201835937,1.90354821777,0.14242620301,0.243191677134,0.95943646933,-0.0073651546023
2021/03/16/14:21:28.085295,819148,1615900888,88171005,mocap,-2.79440405273,10.1145839844,1.90360375977,0.142259273971,0.243852115429,0.959300142654,-0.00645584305285
2021/03/16/14:21:28.094984,819149,1615900888,98170996,mocap,-2.79324365234,10.1091318359,1.90414135742,0.142367288984,0.244938690619,0.95901390543,-0.00537831085443
2021/03/16/14:21:28.106148,819150,1615900888,108170986,mocap,-2.79204125977,10.1036347656,1.90494372559,0.14241643617,0.246020911181,0.958735113128,-0.00427235067674
2021/03/16/14:21:28.114862,819151,1615900888,118170977,mocap,-2.79078369141,10.0977978516,1.90577539062,0.142610562549,0.246651437014,0.958547449898,-0.00347697924847
2021/03/16/14:21:28.125387,819152,1615900888,128171206,mocap,-2.78953393555,10.0919501953,1.90670373535,0.142591608825,0.247046417125,0.958451280212,-0.00261562875919
2021/03/16/14:21:28.136384,819153,1615900888,138171196,mocap,-2.78814746094,10.0861542969,1.9077479248,0.143638691382,0.247508769158,0.958176943036,-0.00206778803801
2021/03/16/14:21:28.144789,819154,1615900888,148171186,mocap,-2.78676342773,10.0801660156,1.90887670898,0.144001431821,0.247807586308,0.958046300895,-0.00151036112016
2021/03/16/14:21:28.155240,819155,1615900888,158171177,mocap,-2.78529516602,10.0739453125,1.90988830566,0.144713356469,0.24799890504,0.957890346842,-0.00081386493347
2021/03/16/14:21:28.164906,819156,1615900888,168171167,mocap,-2.78388891602,10.0679423828,1.91119299316,0.145557880071,0.247838747131,0.95780415368,-0.000270479094902
2021/03/16/14:21:28.175994,819157,1615900888,178171158,mocap,-2.78246191406,10.0619228516,1.91258032227,0.146377054472,0.247894538104,0.957664871662,0.000215121330579
2021/03/16/14:21:28.184743,819158,1615900888,188171148,mocap,-2.78108666992,10.0556914063,1.91390722656,0.147257212665,0.247667852552,0.957588134985,0.000949178849282
2021/03/16/14:21:28.194899,819159,1615900888,198171139,mocap,-2.77969311523,10.0493798828,1.91507653809,0.148092716237,0.247270941494,0.957561050441,0.00156979171045
2021/03/16/14:21:28.205093,819160,1615900888,208171129,mocap,-2.77834838867,10.043265625,1.91632275391,0.148995717497,0.246816586561,0.957537186463,0.00209510749022
2021/03/16/14:21:28.216656,819161,1615900888,218171120,mocap,-2.77702026367,10.0372060547,1.91760241699,0.149486949125,0.246429030472,0.957558202668,0.00294428075402
2021/03/16/14:21:28.224756,819162,1615900888,228171110,mocap,-2.77578149414,10.0309667969,1.91865234375,0.150129745378,0.245913168079,0.957586539967,0.00397428432816
2021/03/16/14:21:28.234702,819163,1615900888,238171101,mocap,-2.77460620117,10.0246796875,1.91940014648,0.151357789482,0.245550712971,0.957483636241,0.00455666232535
2021/03/16/14:21:28.246735,819164,1615900888,248171091,mocap,-2.77348266602,10.0186982422,1.92018359375,0.151402059164,0.244739888485,0.957676829364,0.00590670600878
2021/03/16/14:21:28.254572,819165,1615900888,258171082,mocap,-2.77240673828,10.0127060547,1.92081958008,0.15190914914,0.244334409284,0.95769110528,0.00721584482718
2021/03/16/14:21:28.264772,819166,1615900888,268171072,mocap,-2.77139208984,10.0065117187,1.9210826416,0.151950831043,0.244149655464,0.957720831176,0.00852656525685
2021/03/16/14:21:28.276603,819167,1615900888,278171062,mocap,-2.77042871094,10.0004501953,1.92118823242,0.152207817828,0.244050678013,0.957693229144,0.0097846285547
2021/03/16/14:21:28.285180,819168,1615900888,288171053,mocap,-2.76950927734,9.99470898438,1.92139526367,0.151902258146,0.243828789541,0.957781244798,0.0113276042466
2021/03/16/14:21:28.296643,819169,1615900888,298171043,mocap,-2.76868994141,9.98877148438,1.92130822754,0.152103445938,0.244315442684,0.957607453943,0.0127469282233
2021/03/16/14:21:28.305282,819170,1615900888,308171034,mocap,-2.76794726563,9.98270605469,1.92108813477,0.151081306464,0.244656807997,0.957657185045,0.0144983056083
2021/03/16/14:21:28.316653,819171,1615900888,318171024,mocap,-2.76718505859,9.9768515625,1.92091345215,0.150624957395,0.244911600605,0.957634957304,0.0163007390165
2021/03/16/14:21:28.324614,819172,1615900888,328171015,mocap,-2.76647485352,9.97114746094,1.92079602051,0.150945421497,0.245615486265,0.957379040486,0.0177165148156
2021/03/16/14:21:28.336397,819173,1615900888,338171005,mocap,-2.76584106445,9.96520898437,1.92056091309,0.150265221849,0.246094536636,0.957329248238,0.0194562887752
2021/03/16/14:21:28.344762,819174,1615900888,348170996,mocap,-2.76531811523,9.95921972656,1.92050512695,0.151260551056,0.246260974831,0.95710649,0.0205654675135
2021/03/16/14:21:28.356400,819175,1615900888,358170986,mocap,-2.76469067383,9.95333789063,1.92032019043,0.151110476475,0.246639423602,0.957003425661,0.0218875864739
2021/03/16/14:21:28.364815,819176,1615900888,368170977,mocap,-2.76413818359,9.94748925781,1.92026977539,0.150700971745,0.246677206109,0.957021697639,0.023431805041
2021/03/16/14:21:28.376427,819177,1615900888,378171206,mocap,-2.76357080078,9.94130761719,1.92020141602,0.150354506381,0.246641081922,0.957051094005,0.0247970217505
2021/03/16/14:21:28.385024,819178,1615900888,388171196,mocap,-2.76304272461,9.93500390625,1.92018884277,0.149620941754,0.246202336834,0.957241751428,0.0261953740333
2021/03/16/14:21:28.396319,819179,1615900888,398171186,mocap,-2.76243945312,9.92890820312,1.92030932617,0.149795792102,0.245443915961,0.957378503509,0.0272927869044
2021/03/16/14:21:28.405374,819180,1615900888,408171177,mocap,-2.76186450195,9.92273242188,1.92061547852,0.149567588953,0.244591718678,0.957600747204,0.0283765967142
2021/03/16/14:21:28.415409,819181,1615900888,418171167,mocap,-2.76132080078,9.916171875,1.92087072754,0.149343223129,0.243202267359,0.957963193891,0.0292537691298
2021/03/16/14:21:28.426160,819182,1615900888,428171158,mocap,-2.76083154297,9.90958984375,1.92115332031,0.149644055466,0.241953782819,0.958201895214,0.0302348977387
2021/03/16/14:21:28.434672,819183,1615900888,438171148,mocap,-2.76030395508,9.90335546875,1.92166772461,0.149931780603,0.240133217756,0.958598811067,0.0307378208939
2021/03/16/14:21:28.445392,819184,1615900888,448171139,mocap,-2.75979272461,9.89679882813,1.92203710937,0.148986866692,0.238238538544,0.959193236066,0.0315222086967
2021/03/16/14:21:28.455144,819185,1615900888,458171129,mocap,-2.75938671875,9.89001074219,1.92237365723,0.148936988906,0.236762614789,0.959549979863,0.0320167262848
2021/03/16/14:21:28.465198,819186,1615900888,468171120,mocap,-2.75901342773,9.88341015625,1.92281884766,0.148835521374,0.234889028037,0.96000771394,0.0325625995573
2021/03/16/14:21:28.475353,819187,1615900888,478171110,mocap,-2.75864868164,9.87701464844,1.92333776855,0.14896638023,0.233197357195,0.96038922121,0.0328716241727
2021/03/16/14:21:28.485019,819188,1615900888,488171101,mocap,-2.75835546875,9.87051660156,1.92369946289,0.14831154591,0.231895087785,0.960787691674,0.0333971622185
2021/03/16/14:21:28.495357,819189,1615900888,498171091,mocap,-2.75812329102,9.86371289062,1.92383764648,0.147711779362,0.230815860662,0.961125929121,0.0337967792349
2021/03/16/14:21:28.505448,819190,1615900888,508171082,mocap,-2.75789941406,9.85713085937,1.92411462402,0.146855245593,0.229543701667,0.961547681095,0.0341948961745
2021/03/16/14:21:28.515887,819191,1615900888,518171072,mocap,-2.75768066406,9.85073828125,1.92431408691,0.146531075919,0.228614365679,0.96181143586,0.0343928317233
2021/03/16/14:21:28.524773,819192,1615900888,528171062,mocap,-2.75755273437,9.84414257813,1.92440588379,0.145788159265,0.227780952135,0.962109161575,0.0347506603493
2021/03/16/14:21:28.535916,819193,1615900888,538171053,mocap,-2.7574609375,9.83727050781,1.92433959961,0.144959464284,0.227120712907,0.962384197155,0.0349226989137
2021/03/16/14:21:28.544542,819194,1615900888,548171043,mocap,-2.75739990234,9.83065820312,1.92439147949,0.143625028253,0.226699076221,0.962669811503,0.0353016761185
2021/03/16/14:21:28.555929,819195,1615900888,558171034,mocap,-2.75727954102,9.824171875,1.92433349609,0.1430710709,0.226063961772,0.962901256572,0.0353117806032
2021/03/16/14:21:28.565188,819196,1615900888,568171024,mocap,-2.75726391602,9.81734082031,1.92422253418,0.141778966715,0.22580174626,0.96314722012,0.035492484125
2021/03/16/14:21:28.576865,819197,1615900888,578171015,mocap,-2.75724975586,9.81035449219,1.9239395752,0.141331325019,0.225615739045,0.963266481161,0.0352233002397
2021/03/16/14:21:28.584799,819198,1615900888,588171005,mocap,-2.7572331543,9.80363183594,1.92373913574,0.140163507999,0.225486161195,0.963464067101,0.0353154896598
2021/03/16/14:21:28.594791,819199,1615900888,598170996,mocap,-2.75721386719,9.79688378906,1.92349707031,0.139790988643,0.225547772377,0.963511926175,0.035092077658
2021/03/16/14:21:28.604827,819200,1615900888,608170986,mocap,-2.75726000977,9.789828125,1.9230871582,0.138974819964,0.225682965805,0.963600129424,0.0350425627503
2021/03/16/14:21:28.614833,819201,1615900888,618170977,mocap,-2.75732299805,9.78270898438,1.92255700684,0.137767245359,0.225896730124,0.963728047293,0.0349156338816
2021/03/16/14:21:28.626796,819202,1615900888,628171206,mocap,-2.75740039062,9.77574902344,1.92209594727,0.137286916565,0.226368227011,0.963693164394,0.0347161463728
2021/03/16/14:21:28.635263,819203,1615900888,638171196,mocap,-2.7574609375,9.76877246094,1.92162487793,0.137376948556,0.226768355954,0.963604699041,0.0342004975371
2021/03/16/14:21:28.646619,819204,1615900888,648171186,mocap,-2.75759814453,9.76142578125,1.92095959473,0.136125080944,0.227032495891,0.963717919631,0.0342633896396
2021/03/16/14:21:28.654732,819205,1615900888,658171177,mocap,-2.75765527344,9.75408300781,1.9202833252,0.135804884271,0.227592119018,0.963646450875,0.0338286593169
2021/03/16/14:21:28.666796,819206,1615900888,668171167,mocap,-2.75779101563,9.7468671875,1.91960998535,0.135223843077,0.228059689094,0.963619505685,0.0337747731245
2021/03/16/14:21:28.674746,819207,1615900888,678171158,mocap,-2.75793676758,9.73950097656,1.91883435059,0.134788200574,0.228453096611,0.963589752991,0.0337064614486
2021/03/16/14:21:28.686563,819208,1615900888,688171148,mocap,-2.75813916016,9.73188085937,1.91784814453,0.13475495399,0.22910984878,0.963441648533,0.0336149259279
2021/03/16/14:21:28.694870,819209,1615900888,698171139,mocap,-2.75829003906,9.72428808594,1.91689123535,0.134551992722,0.22965226309,0.963342564434,0.0335661738982
2021/03/16/14:21:28.706806,819210,1615900888,708171129,mocap,-2.75852392578,9.71684277344,1.91602038574,0.133747806251,0.230428389783,0.963262203861,0.0337669478673
2021/03/16/14:21:28.714916,819211,1615900888,718171120,mocap,-2.75872192383,9.70912890625,1.91478808594,0.133765575217,0.231172063617,0.96309205554,0.0334654991426
2021/03/16/14:21:28.726629,819212,1615900888,728171110,mocap,-2.75894750977,9.70128417969,1.9136217041,0.133540778751,0.23213158675,0.962888473911,0.0335792400372
2021/03/16/14:21:28.735121,819213,1615900888,738171101,mocap,-2.75918139648,9.69344335937,1.91234838867,0.133712419256,0.233313072236,0.962578930034,0.0335828747894
2021/03/16/14:21:28.746416,819214,1615900888,748171091,mocap,-2.75953344727,9.68578027344,1.91122399902,0.133906360063,0.234499076046,0.962266832137,0.0334934169226
2021/03/16/14:21:28.755482,819215,1615900888,758171082,mocap,-2.75977172852,9.67774902344,1.90975488281,0.134036955099,0.235750803295,0.961954756907,0.0331465044278
2021/03/16/14:21:28.766121,819216,1615900888,768171072,mocap,-2.76016357422,9.66961621094,1.90845068359,0.133905765566,0.237071100139,0.961648515171,0.0331461897241
2021/03/16/14:21:28.774661,819217,1615900888,778171062,mocap,-2.76057275391,9.66164550781,1.90705065918,0.134237748464,0.238372698206,0.961288488843,0.0329108687894
2021/03/16/14:21:28.786286,819218,1615900888,788171053,mocap,-2.76100244141,9.65357324219,1.90575622559,0.13457652291,0.239699518788,0.960923543689,0.0325461142979
2021/03/16/14:21:28.794899,819219,1615900888,798171043,mocap,-2.76145336914,9.64522851562,1.90430041504,0.134513209197,0.241020496978,0.960611218209,0.0322705816842
2021/03/16/14:21:28.806338,819220,1615900888,808171034,mocap,-2.76209228516,9.63680273437,1.9029251709,0.134498759761,0.242194714677,0.960327427739,0.0319848612498
2021/03/16/14:21:28.814838,819221,1615900888,818171024,mocap,-2.76268286133,9.62853222656,1.90174414062,0.134681700657,0.243397929934,0.960011617695,0.0315591120005
2021/03/16/14:21:28.826337,819222,1615900888,828171015,mocap,-2.76337670898,9.62004589844,1.90051843262,0.134904830101,0.244709047097,0.959661504977,0.0311122412327
2021/03/16/14:21:28.834801,819223,1615900888,838171005,mocap,-2.76413525391,9.61132714844,1.89926281738,0.134896410178,0.245827664081,0.959390068868,0.030698903817
2021/03/16/14:21:28.846350,819224,1615900888,848170996,mocap,-2.76490942383,9.60270703125,1.89813891602,0.135412785645,0.247104328605,0.959011924332,0.0299825249192
2021/03/16/14:21:28.855024,819225,1615900888,858170986,mocap,-2.76576318359,9.59414160156,1.89723571777,0.135981511359,0.248296635897,0.958637244645,0.0295369685949
2021/03/16/14:21:28.864820,819226,1615900888,868170977,mocap,-2.76663427734,9.58527734375,1.89631115723,0.135452109165,0.249327816199,0.958461206999,0.0289910909541
2021/03/16/14:21:28.875424,819227,1615900888,878171206,mocap,-2.76757592773,9.57642285156,1.89560217285,0.137593095111,0.250546346162,0.957874051554,0.0277843538727
2021/03/16/14:21:28.884866,819228,1615900888,888171196,mocap,-2.76855859375,9.56749511719,1.89488830566,0.13833513197,0.251085077516,0.957646417454,0.0270742213355
2021/03/16/14:21:28.895250,819229,1615900888,898171186,mocap,-2.76955371094,9.55851855469,1.89447241211,0.138613472132,0.251555434567,0.95751134547,0.0260421313248
2021/03/16/14:21:28.905002,819230,1615900888,908171177,mocap,-2.77066821289,9.54916796875,1.89409558105,0.13695588123,0.252316706115,0.957543566848,0.0262617106703
2021/03/16/14:21:28.914532,819231,1615900888,918171167,mocap,-2.77185449219,9.53993554688,1.89433422852,0.137084016596,0.253044240435,0.957356798504,0.0253875325261
2021/03/16/14:21:28.925046,819232,1615900888,928171158,mocap,-2.77316967773,9.53079101563,1.89521704102,0.136881473128,0.253453697517,0.95728827937,0.024976560913
2021/03/16/14:21:28.935920,819233,1615900888,938171148,mocap,-2.77449291992,9.52156445313,1.89630895996,0.137192383109,0.253845728858,0.957168787201,0.0238433918866
2021/03/16/14:21:28.947016,819234,1615900888,948171139,mocap,-2.77592675781,9.51206542969,1.89745385742,0.136877786532,0.253712331473,0.957268557029,0.0230528592888
2021/03/16/14:21:28.954837,819235,1615900888,958171129,mocap,-2.77730810547,9.50264355469,1.89884460449,0.136799618512,0.253915718681,0.957257621618,0.0216915369556
2021/03/16/14:21:28.965942,819236,1615900888,968171120,mocap,-2.77875048828,9.49333300781,1.9004510498,0.137011881329,0.253831447579,0.957269545491,0.0207933972208
2021/03/16/14:21:28.975158,819237,1615900888,978171110,mocap,-2.78026831055,9.48390625,1.90215344238,0.136536833433,0.253582808035,0.957430814517,0.0194856167839
2021/03/16/14:21:28.985928,819238,1615900888,988171101,mocap,-2.78184228516,9.47447070313,1.90402062988,0.136079576725,0.253197828553,0.957615623341,0.0185883322071
2021/03/16/14:21:28.994726,819239,1615900888,998171091,mocap,-2.78338378906,9.46525585938,1.90608581543,0.135629296202,0.253038279771,0.957740163016,0.0176095862942
2021/03/16/14:21:29.006075,819240,1615900889,8171082,mocap,-2.78502636719,9.45604394531,1.90801159668,0.135002839117,0.252029630229,0.958111600863,0.0166571795925
2021/03/16/14:21:29.014755,819241,1615900889,18171072,mocap,-2.78660131836,9.44666503906,1.90969421387,0.134819338573,0.250788709136,0.958480282933,0.0156307709777
2021/03/16/14:21:29.026287,819242,1615900889,28171062,mocap,-2.78819042969,9.4373359375,1.91127685547,0.133018606546,0.249411695839,0.959096284385,0.0153025427264
2021/03/16/14:21:29.034767,819243,1615900889,38171053,mocap,-2.78984008789,9.42837988281,1.91275976562,0.132468619017,0.248225448723,0.959491463591,0.0145713279504
2021/03/16/14:21:29.045541,819244,1615900889,48171043,mocap,-2.79139819336,9.41951757812,1.91397839355,0.131133605682,0.247250666323,0.959931482773,0.014234855437
2021/03/16/14:21:29.054665,819245,1615900889,58171034,mocap,-2.79292651367,9.41059667969,1.91495947266,0.129604112016,0.246716686665,0.960275957298,0.0142739208133
2021/03/16/14:21:29.065809,819246,1615900889,68171024,mocap,-2.79447485352,9.40191796875,1.91584204102,0.127658293069,0.246653303579,0.960554317897,0.0141743381533
2021/03/16/14:21:29.076829,819247,1615900889,78171015,mocap,-2.79582714844,9.39363085937,1.91663952637,0.127238838463,0.246973338134,0.960528496019,0.0141230427556
2021/03/16/14:21:29.084764,819248,1615900889,88171005,mocap,-2.79724316406,9.38523730469,1.91728991699,0.126683813137,0.247199130853,0.960548865032,0.0137725934899
2021/03/16/14:21:29.095677,819249,1615900889,98170996,mocap,-2.79839575195,9.37678417969,1.9177376709,0.124965949756,0.248390182814,0.960460629805,0.0141847648299
2021/03/16/14:21:29.106560,819250,1615900889,108170986,mocap,-2.79959179688,9.368546875,1.91816723633,0.123908165556,0.249610466049,0.960280201347,0.0142587611272
2021/03/16/14:21:29.114820,819251,1615900889,118170977,mocap,-2.80054541016,9.360515625,1.91870910645,0.123520860004,0.250589293077,0.96007285722,0.014412007829
2021/03/16/14:21:29.126599,819252,1615900889,128171206,mocap,-2.80153515625,9.35226074219,1.91912512207,0.12297779951,0.251418835643,0.95992679477,0.0143381117242
2021/03/16/14:21:29.134900,819253,1615900889,138171196,mocap,-2.80236181641,9.34384863281,1.91946496582,0.122698802015,0.252331462698,0.959723970148,0.0142732502955
2021/03/16/14:21:29.145183,819254,1615900889,148171186,mocap,-2.80311132812,9.33561914063,1.91988830566,0.122462913554,0.252813654212,0.959626155931,0.0143433994894
2021/03/16/14:21:29.154604,819255,1615900889,158171177,mocap,-2.80374023438,9.32754492188,1.92059460449,0.122145835761,0.253133348937,0.959586706008,0.0140446108141
2021/03/16/14:21:29.165488,819256,1615900889,168171167,mocap,-2.80428613281,9.31903222656,1.92099816895,0.122231861939,0.253023187722,0.959609587316,0.0137143623763
2021/03/16/14:21:29.175049,819257,1615900889,178171158,mocap,-2.80478271484,9.31054882813,1.92155578613,0.121871968982,0.252765353086,0.959725406349,0.0135664769686
2021/03/16/14:21:29.185278,819258,1615900889,188171148,mocap,-2.80518188477,9.30220996094,1.92238256836,0.121382824112,0.251962971521,0.95999912252,0.0135117722002
2021/03/16/14:21:29.194773,819259,1615900889,198171139,mocap,-2.80543603516,9.29388476563,1.9231463623,0.121910289292,0.250844105436,0.960231738929,0.0130432817669
2021/03/16/14:21:29.206239,819260,1615900889,208171129,mocap,-2.80568115234,9.28517089844,1.92377807617,0.121813707552,0.249439787074,0.960613459714,0.0127667944823
2021/03/16/14:21:29.214779,819261,1615900889,218171120,mocap,-2.80572265625,9.27648144531,1.92445471191,0.121726971145,0.247825870994,0.961046840681,0.0124040015585
2021/03/16/14:21:29.226434,819262,1615900889,228171110,mocap,-2.80572680664,9.26799023438,1.92526843262,0.121996483602,0.245682178889,0.961569020308,0.0119222554158
2021/03/16/14:21:29.234738,819263,1615900889,238171101,mocap,-2.8056237793,9.259484375,1.92595593262,0.122568978086,0.243331791458,0.962101518209,0.0112762696352
2021/03/16/14:21:29.246083,819264,1615900889,248171091,mocap,-2.80554418945,9.2506796875,1.92656237793,0.123682403693,0.240624631367,0.962650671536,0.0103020680681
2021/03/16/14:21:29.254760,819265,1615900889,258171082,mocap,-2.80526513672,9.24214257812,1.92716674805,0.124103262832,0.238325204199,0.963181473019,0.0089957203153
2021/03/16/14:21:29.266057,819266,1615900889,268171072,mocap,-2.80495947266,9.23386035156,1.9277088623,0.124444997488,0.236124104325,0.963684768188,0.00839757566017
2021/03/16/14:21:29.274878,819267,1615900889,278171062,mocap,-2.80450341797,9.225296875,1.9280213623,0.125487607652,0.234262442901,0.964009839665,0.00768085575497
2021/03/16/14:21:29.286421,819268,1615900889,288171053,mocap,-2.80410766602,9.21665332031,1.92821057129,0.126802581365,0.232923088036,0.964169084911,0.00677639746143
2021/03/16/14:21:29.294728,819269,1615900889,298171043,mocap,-2.80355102539,9.20842578125,1.92839160156,0.128025894646,0.231718505843,0.96430327069,0.0059250960389
2021/03/16/14:21:29.306302,819270,1615900889,308171034,mocap,-2.80293945313,9.20031835938,1.92843432617,0.129005136404,0.230798565279,0.96439865595,0.00499073325068
2021/03/16/14:21:29.314848,819271,1615900889,318171024,mocap,-2.80232885742,9.19200488281,1.92829650879,0.130332908261,0.230302007579,0.964341948209,0.00435109697883
2021/03/16/14:21:29.325143,819272,1615900889,328171015,mocap,-2.80165185547,9.18363671875,1.92789147949,0.130907956319,0.230833781207,0.964137880912,0.00412547905714
2021/03/16/14:21:29.334881,819273,1615900889,338171005,mocap,-2.80097167969,9.175671875,1.92757312012,0.132310087617,0.230954093852,0.963920352169,0.00343535411913
2021/03/16/14:21:29.345727,819274,1615900889,348170996,mocap,-2.80035302734,9.16770507812,1.92721264648,0.132968731548,0.231152681973,0.963784126328,0.00281215637355
2021/03/16/14:21:29.354994,819275,1615900889,358170986,mocap,-2.79964599609,9.15949414063,1.92651135254,0.134257304856,0.231688829607,0.963477746888,0.00242462745578
2021/03/16/14:21:29.366718,819276,1615900889,368170977,mocap,-2.79901147461,9.15119042969,1.92567883301,0.134724631128,0.232564970343,0.963201917427,0.00220721850511
2021/03/16/14:21:29.374861,819277,1615900889,378171206,mocap,-2.79831567383,9.14326367187,1.924953125,0.1359716286,0.233312691729,0.962846828494,0.00169877337322
2021/03/16/14:21:29.385191,819278,1615900889,388171196,mocap,-2.79753588867,9.1352421875,1.92402697754,0.136204208583,0.234099277585,0.96262263037,0.00189662585872
2021/03/16/14:21:29.396675,819279,1615900889,398171186,mocap,-2.79691625977,9.12684082031,1.92280859375,0.137340851896,0.235346991595,0.962157800457,0.00127947187406
2021/03/16/14:21:29.404687,819280,1615900889,408171177,mocap,-2.79621240234,9.11852929687,1.92162597656,0.1374584978,0.236439618815,0.961872986822,0.00134886581042
2021/03/16/14:21:29.416652,819281,1615900889,418171167,mocap,-2.79540893555,9.11057324219,1.92043371582,0.138112236429,0.237941986305,0.961408894915,0.00125014804197
2021/03/16/14:21:29.424865,819282,1615900889,428171158,mocap,-2.79464819336,9.10227929688,1.91901818848,0.138711817683,0.238966396179,0.961068741435,0.000979830504293
2021/03/16/14:21:29.436504,819283,1615900889,438171148,mocap,-2.79390429688,9.09369628906,1.91750720215,0.13904671078,0.240281163565,0.960692335659,0.00110371572765
2021/03/16/14:21:29.444988,819284,1615900889,448171139,mocap,-2.79310742187,9.08521386719,1.91595581055,0.139351132149,0.24154778943,0.960330546601,0.00108003797851
2021/03/16/14:21:29.456788,819285,1615900889,458171129,mocap,-2.79225292969,9.07688964844,1.91445837402,0.139665961463,0.242566304778,0.960028000873,0.00110988682763
2021/03/16/14:21:29.466592,819286,1615900889,468171120,mocap,-2.79146777344,9.06824316406,1.91283374023,0.140382192707,0.243628250968,0.959654820357,0.000855552786182
2021/03/16/14:21:29.474781,819287,1615900889,478171110,mocap,-2.79059423828,9.05940039062,1.91112634277,0.140323687402,0.244710760952,0.959387676951,0.0010908049483
2021/03/16/14:21:29.486497,819288,1615900889,488171101,mocap,-2.78971386719,9.05071679687,1.90952185059,0.140443015218,0.245605771817,0.959141603777,0.000972064005749
2021/03/16/14:21:29.494807,819289,1615900889,498171091,mocap,-2.78878369141,9.04212890625,1.90798254395,0.14059550767,0.246261920405,0.958951044377,0.000928250661142
2021/03/16/14:21:29.506968,819290,1615900889,508171082,mocap,-2.78787939453,9.0331328125,1.90637316895,0.140398366297,0.247033759159,0.958781001325,0.00126650723637
2021/03/16/14:21:29.514827,819291,1615900889,518171072,mocap,-2.7869440918,9.02412207031,1.90488293457,0.140539766319,0.248012550301,0.958507442553,0.00135176851287
2021/03/16/14:21:29.525513,819292,1615900889,528171062,mocap,-2.78599316406,9.01526269531,1.90366821289,0.14024073847,0.248842160743,0.958335392715,0.00184192922489
2021/03/16/14:21:29.534744,819293,1615900889,538171053,mocap,-2.78497192383,9.006359375,1.90254785156,0.140779962587,0.249348030326,0.958124385045,0.00205580556526
2021/03/16/14:21:29.546652,819294,1615900889,548171043,mocap,-2.78394287109,8.99706738281,1.90139953613,0.140289517528,0.24987967662,0.958056931787,0.0024290598986
2021/03/16/14:21:29.554983,819295,1615900889,558171034,mocap,-2.78287915039,8.98779882812,1.90046533203,0.140495331298,0.250110065158,0.957965441592,0.00286874422576
2021/03/16/14:21:29.566391,819296,1615900889,568171024,mocap,-2.78177978516,8.9786796875,1.89970495605,0.140719261011,0.250567703772,0.957811792445,0.00323923771859
2021/03/16/14:21:29.574821,819297,1615900889,578171015,mocap,-2.78058520508,8.96950488281,1.89908813477,0.140262889585,0.250751942073,0.957827248701,0.00409157708318
2021/03/16/14:21:29.586384,819298,1615900889,588171005,mocap,-2.77946972656,8.95995800781,1.89837561035,0.140470962233,0.251068125271,0.957710811139,0.00476464093376
2021/03/16/14:21:29.595112,819299,1615900889,598170996,mocap,-2.77830883789,8.95055566406,1.89788903809,0.140141533809,0.251389484443,0.957671539053,0.00537556168861
2021/03/16/14:21:29.605201,819300,1615900889,608170986,mocap,-2.77711132813,8.94142871094,1.89774206543,0.139762693389,0.252283818239,0.957486974463,0.00616021119457
2021/03/16/14:21:29.616106,819301,1615900889,618170977,mocap,-2.77590454102,8.93212695312,1.89792700195,0.13908345681,0.252813912858,0.957439397856,0.00712202209007
2021/03/16/14:21:29.626578,819302,1615900889,628171206,mocap,-2.77469628906,8.92245605469,1.89821362305,0.13882045917,0.253621328427,0.957252173323,0.00856643688046
2021/03/16/14:21:29.634791,819303,1615900889,638171196,mocap,-2.77351855469,8.91300683594,1.89897216797,0.138431301685,0.254191175583,0.957147061873,0.00964999783085
2021/03/16/14:21:29.645284,819304,1615900889,648171186,mocap,-2.7722980957,8.90362890625,1.90001818848,0.13809511796,0.254593197853,0.957077258814,0.0107311286393
2021/03/16/14:21:29.656165,819305,1615900889,658171177,mocap,-2.7710925293,8.89403027344,1.90111584473,0.137991032753,0.254381851106,0.957137269356,0.0116880888434
2021/03/16/14:21:29.664575,819306,1615900889,668171167,mocap,-2.76983178711,8.88422265625,1.90226037598,0.136642746731,0.254298369213,0.957330361159,0.0134044899304
2021/03/16/14:21:29.675024,819307,1615900889,678171158,mocap,-2.76864208984,8.87472070312,1.90382617188,0.136793527899,0.254265641168,0.957303674032,0.0143591528134
2021/03/16/14:21:29.686222,819308,1615900889,688171148,mocap,-2.76744384766,8.86528027344,1.90541113281,0.136995043718,0.253669457151,0.957418309006,0.0153081484341
2021/03/16/14:21:29.694845,819309,1615900889,698171139,mocap,-2.76624462891,8.8555859375,1.90690917969,0.136058646794,0.253111187124,0.957672962772,0.0168895347157
2021/03/16/14:21:29.705915,819310,1615900889,708171129,mocap,-2.76505908203,8.84584277344,1.90833154297,0.135846377786,0.252194358816,0.957929221069,0.0177586859768
2021/03/16/14:21:29.714937,819311,1615900889,718171120,mocap,-2.76387573242,8.83643359375,1.90980371094,0.13670327173,0.250919871345,0.95813405083,0.0181818188291
2021/03/16/14:21:29.725847,819312,1615900889,728171110,mocap,-2.76272802734,8.82705761719,1.91122802734,0.136995827988,0.249989328297,0.958322424757,0.0188575006806
2021/03/16/14:21:29.734815,819313,1615900889,738171101,mocap,-2.76161230469,8.81752832031,1.91247155762,0.137428414013,0.248896110451,0.958534896773,0.0193652360059
