time,.header.seq,.header.stamp.secs,.header.stamp.nsecs,.header.frame_id,.pose.position.x,.pose.position.y,.pose.position.z,.pose.orientation.x,.pose.orientation.y,.pose.orientation.z,.pose.orientation.w
2021/03/16/14:25:57.054684,841601,1615901157,58171034,mocap,-2.79211889648,10.4127792969,1.93044213867,0.163251048212,0.24941199872,0.952237599429,0.0662291222887
2021/03/16/14:25:57.066035,841602,1615901157,68171024,mocap,-2.79210449219,10.4127763672,1.93046398926,0.163115660131,0.249375005896,0.952267863291,0.0662669689698
2021/03/16/14:25:57.074582,841603,1615901157,78171015,mocap,-2.79204467773,10.4127421875,1.93044702148,0.163253419499,0.249456461729,0.952231754668,0.0661398804999
2021/03/16/14:25:57.085882,841604,1615901157,88171005,mocap,-2.79201171875,10.4127373047,1.93044128418,0.163083889022,0.249546379856,0.952232169358,0.0662128615161
2021/03/16/14:25:57.094602,841605,1615901157,98170996,mocap,-2.79197192383,10.4127587891,1.93046374512,0.16308949427,0.249553456567,0.952230095907,0.0662022080908
2021/03/16/14:25:57.105682,841606,1615901157,108170986,mocap,-2.79195800781,10.4127714844,1.93049560547,0.16309104227,0.249536224475,0.952239422486,0.0661291431075
2021/03/16/14:25:57.114559,841607,1615901157,118170977,mocap,-2.79190722656,10.4127265625,1.93045629883,0.163023436226,0.249604820539,0.95223807671,0.0660563631466
2021/03/16/14:25:57.125800,841608,1615901157,128171206,mocap,-2.79190917969,10.4127177734,1.93046191406,0.163022599742,0.249645372829,0.952230440179,0.0660152292286
2021/03/16/14:25:57.134534,841609,1615901157,138171196,mocap,-2.791875,10.4127148438,1.93045849609,0.162750056285,0.249668034309,0.952262840245,0.0661345771338
2021/03/16/14:25:57.145608,841610,1615901157,148171186,mocap,-2.79181933594,10.4127197266,1.93046081543,0.162960184952,0.249762311663,0.952205934011,0.0660804889659
2021/03/16/14:25:57.154620,841611,1615901157,158171177,mocap,-2.79181176758,10.4126875,1.93048999023,0.162720469247,0.249717167117,0.952258881252,0.0660788852321
2021/03/16/14:25:57.164375,841612,1615901157,168171167,mocap,-2.7917746582,10.412671875,1.93047814941,0.162895284698,0.249703256094,0.952234860924,0.0660468449593
2021/03/16/14:25:57.175112,841613,1615901157,178171158,mocap,-2.79174414063,10.412671875,1.93047167969,0.162771065223,0.249752969974,0.952235643355,0.0661537039281
2021/03/16/14:25:57.184784,841614,1615901157,188171148,mocap,-2.79171582031,10.4126787109,1.93047827148,0.162820901014,0.249817481609,0.952212976078,0.0661136357943
2021/03/16/14:25:57.194802,841615,1615901157,198171139,mocap,-2.79169335937,10.4126621094,1.93046850586,0.162691340917,0.249925471067,0.952198563259,0.0662320506271
2021/03/16/14:25:57.206756,841616,1615901157,208171129,mocap,-2.79165356445,10.4126757812,1.93046679688,0.16280121662,0.249965603031,0.952174064096,0.0661626937517
2021/03/16/14:25:57.214635,841617,1615901157,218171120,mocap,-2.79163256836,10.4126943359,1.93049951172,0.162744371247,0.250042179552,0.952157068458,0.0662579032312
2021/03/16/14:25:57.226589,841618,1615901157,228171110,mocap,-2.79162402344,10.4126826172,1.93052648926,0.162503264388,0.250099125272,0.95217841468,0.0663278824778
2021/03/16/14:25:57.234898,841619,1615901157,238171101,mocap,-2.79155761719,10.4126601563,1.93049182129,0.162706315457,0.250125027425,0.952143257323,0.0662370715235
2021/03/16/14:25:57.246529,841620,1615901157,248171091,mocap,-2.79153100586,10.4126689453,1.9304720459,0.162919012838,0.250342664011,0.952040289581,0.0663719874754
2021/03/16/14:25:57.254677,841621,1615901157,258171082,mocap,-2.79151708984,10.4126816406,1.93052441406,0.16258620785,0.250262793361,0.952115399692,0.0664117684938
2021/03/16/14:25:57.266084,841622,1615901157,268171072,mocap,-2.79148120117,10.4126738281,1.9305065918,0.162747059199,0.250522508062,0.952016866348,0.0664512045355
2021/03/16/14:25:57.274502,841623,1615901157,278171062,mocap,-2.79144677734,10.4126503906,1.93050683594,0.162424861213,0.250560004005,0.952054923918,0.0665527828196
2021/03/16/14:25:57.286976,841624,1615901157,288171053,mocap,-2.79144848633,10.4126376953,1.9305513916,0.162288260622,0.250482428001,0.952089364591,0.0666852117488
2021/03/16/14:25:57.294688,841625,1615901157,298171043,mocap,-2.79141381836,10.4126210937,1.93053381348,0.162454955625,0.250558805001,0.952055495201,0.0664756100016
2021/03/16/14:25:57.306296,841626,1615901157,308171034,mocap,-2.79136767578,10.4125957031,1.93053723145,0.162235432167,0.250546636678,0.952086508277,0.0666133631407
2021/03/16/14:25:57.314868,841627,1615901157,318171024,mocap,-2.79135668945,10.4125634766,1.93056225586,0.162161996392,0.250453484493,0.952125705545,0.0665820490043
2021/03/16/14:25:57.326214,841628,1615901157,328171015,mocap,-2.79132714844,10.4125400391,1.93056604004,0.162166308733,0.250537073028,0.952110540174,0.0664739745265
2021/03/16/14:25:57.335006,841629,1615901157,338171005,mocap,-2.79127783203,10.4124824219,1.93054431152,0.162353214933,0.250487047745,0.952092745204,0.066461045988
2021/03/16/14:25:57.346407,841630,1615901157,348170996,mocap,-2.79126000977,10.4124628906,1.93058959961,0.161935866175,0.250424133837,0.952165120297,0.0666792273633
2021/03/16/14:25:57.354755,841631,1615901157,358170986,mocap,-2.79122387695,10.4124169922,1.93060302734,0.161993060516,0.250348460825,0.952176513258,0.0666616737263
2021/03/16/14:25:57.365984,841632,1615901157,368170977,mocap,-2.79115820313,10.4123574219,1.93054077148,0.162182198018,0.250353402228,0.952141113253,0.0666888764843
2021/03/16/14:25:57.374778,841633,1615901157,378171206,mocap,-2.79115600586,10.4123486328,1.93056713867,0.162115369444,0.250289856246,0.952166082757,0.066733367763
2021/03/16/14:25:57.386250,841634,1615901157,388171196,mocap,-2.79110058594,10.4123212891,1.93057849121,0.161954930917,0.250287668931,0.952191967091,0.0667617353655
2021/03/16/14:25:57.394596,841635,1615901157,398171186,mocap,-2.79100024414,10.4122783203,1.93056079102,0.161968274081,0.250195225077,0.952213390776,0.0667704540399
2021/03/16/14:25:57.406271,841636,1615901157,408171177,mocap,-2.79095410156,10.4122607422,1.93058068848,0.16223825988,0.250204755087,0.952158868195,0.0668566994432
2021/03/16/14:25:57.414539,841637,1615901157,418171167,mocap,-2.79087695313,10.4122236328,1.93057336426,0.162125686014,0.250279108539,0.952151035403,0.0669629133259
2021/03/16/14:25:57.425814,841638,1615901157,428171158,mocap,-2.79080126953,10.412171875,1.93053674316,0.162186282901,0.250146123375,0.952174830927,0.0669747464635
2021/03/16/14:25:57.434560,841639,1615901157,438171148,mocap,-2.79072583008,10.4121738281,1.93056799316,0.162421937728,0.250057040359,0.952164721227,0.0668799567943
2021/03/16/14:25:57.446143,841640,1615901157,448171139,mocap,-2.79066113281,10.4121376953,1.93056530762,0.16236371483,0.250097651326,0.952150988453,0.0670647443187
2021/03/16/14:25:57.454679,841641,1615901157,458171129,mocap,-2.79057128906,10.4120986328,1.93053942871,0.162526988728,0.249960614191,0.952164572555,0.0669872581811
2021/03/16/14:25:57.465780,841642,1615901157,468171120,mocap,-2.790515625,10.4120947266,1.93054504395,0.162576266129,0.250013018574,0.952133843726,0.0671087251224
2021/03/16/14:25:57.474917,841643,1615901157,478171110,mocap,-2.79043823242,10.4120957031,1.93055541992,0.162787925336,0.250028785807,0.952093676435,0.0671068473542
2021/03/16/14:25:57.485941,841644,1615901157,488171101,mocap,-2.7903527832,10.4120712891,1.93050036621,0.162672815032,0.250024924322,0.95211770815,0.0670594461416
2021/03/16/14:25:57.494740,841645,1615901157,498171091,mocap,-2.79027368164,10.4120478516,1.93047424316,0.162745907855,0.249983482989,0.952120564371,0.0669960326109
2021/03/16/14:25:57.504908,841646,1615901157,508171082,mocap,-2.79023828125,10.4120292969,1.93051281738,0.162703682568,0.250033995655,0.952109804592,0.0670629206815
2021/03/16/14:25:57.514726,841647,1615901157,518171072,mocap,-2.79019873047,10.4120507813,1.93051269531,0.162812154707,0.250015694537,0.952097190065,0.0670470158148
2021/03/16/14:25:57.525716,841648,1615901157,528171062,mocap,-2.79012988281,10.41203125,1.93044250488,0.162781085523,0.250053251096,0.952100727158,0.066932039343
2021/03/16/14:25:57.534915,841649,1615901157,538171053,mocap,-2.7901003418,10.4119980469,1.93048181152,0.162682267943,0.249913402066,0.952151919628,0.0669662814208
2021/03/16/14:25:57.545082,841650,1615901157,548171043,mocap,-2.79005053711,10.4119638672,1.93045910645,0.162628353703,0.249904934161,0.952169603944,0.0668774717829
2021/03/16/14:25:57.554920,841651,1615901157,558171034,mocap,-2.78999487305,10.4119892578,1.93045117187,0.162696757177,0.249789508296,0.952200660252,0.0666997800906
2021/03/16/14:25:57.564568,841652,1615901157,568171024,mocap,-2.78996459961,10.4119423828,1.93045214844,0.162845814127,0.249850929321,0.952166583549,0.0665924018491
2021/03/16/14:25:57.574556,841653,1615901157,578171015,mocap,-2.78989746094,10.4119326172,1.93045690918,0.162332449143,0.249706100626,0.952288432467,0.0666466216875
2021/03/16/14:25:57.585748,841654,1615901157,588171005,mocap,-2.78982324219,10.4118974609,1.93039440918,0.162605685752,0.249805460232,0.952230494949,0.0664357468483
2021/03/16/14:25:57.594601,841655,1615901157,598170996,mocap,-2.78980957031,10.4119042969,1.93044274902,0.162535581834,0.249724499609,0.95226660362,0.0663940957127
2021/03/16/14:25:57.604473,841656,1615901157,608170986,mocap,-2.78976586914,10.4118857422,1.93042529297,0.16255537037,0.24958688728,0.952308257946,0.0662653795585
2021/03/16/14:25:57.615850,841657,1615901157,618170977,mocap,-2.78968701172,10.4118486328,1.93039489746,0.162696557675,0.249682107238,0.952267863291,0.0661406273712
2021/03/16/14:25:57.624633,841658,1615901157,628171206,mocap,-2.78966479492,10.411859375,1.93042041016,0.162716930842,0.24961988113,0.952288792365,0.0660240269748
2021/03/16/14:25:57.635531,841659,1615901157,638171196,mocap,-2.78960424805,10.4118427734,1.93042016602,0.162546250598,0.249541799975,0.95234005296,0.0660002407615
2021/03/16/14:25:57.644805,841660,1615901157,648171186,mocap,-2.78953955078,10.4118134766,1.93038696289,0.162561224417,0.24951036392,0.952354033354,0.0658804139809
2021/03/16/14:25:57.655639,841661,1615901157,658171177,mocap,-2.78947192383,10.4118212891,1.93040771484,0.162824697828,0.249643363074,0.95228311222,0.0657509134061
2021/03/16/14:25:57.664767,841662,1615901157,668171167,mocap,-2.78944775391,10.4118212891,1.930453125,0.162662030704,0.249584197804,0.952321863275,0.0658169476724
2021/03/16/14:25:57.676456,841663,1615901157,678171158,mocap,-2.78936645508,10.4118115234,1.93039404297,0.162702043986,0.249554950832,0.952331963483,0.0656826338269
2021/03/16/14:25:57.685053,841664,1615901157,688171148,mocap,-2.78930908203,10.4118212891,1.93040942383,0.162747946664,0.249702498824,0.952283699014,0.0657078257457
2021/03/16/14:25:57.695664,841665,1615901157,698171139,mocap,-2.78924316406,10.4117841797,1.93040014648,0.162694204006,0.249681561417,0.952300919281,0.0656709836796
2021/03/16/14:25:57.704371,841666,1615901157,708171129,mocap,-2.78918017578,10.4117890625,1.93041296387,0.162662057137,0.249820070822,0.952265140522,0.0657426617533
2021/03/16/14:25:57.714589,841667,1615901157,718171120,mocap,-2.78910571289,10.4117822266,1.93039941406,0.162655477771,0.249872898753,0.952258998614,0.0656470545935
2021/03/16/14:25:57.725213,841668,1615901157,728171110,mocap,-2.78904711914,10.4117802734,1.93040539551,0.162702139109,0.249853304652,0.952261572743,0.0655685100709
2021/03/16/14:25:57.734598,841669,1615901157,738171101,mocap,-2.78897070312,10.4117177734,1.93036108398,0.162735409642,0.249848127788,0.952264991865,0.0654560189128
2021/03/16/14:25:57.746456,841670,1615901157,748171091,mocap,-2.78888818359,10.4116972656,1.93037451172,0.162447025564,0.249983722076,0.952267542505,0.0656172936599
2021/03/16/14:25:57.754579,841671,1615901157,758171082,mocap,-2.78882275391,10.4116699219,1.93039404297,0.162324101225,0.249842908212,0.952330750837,0.065540425201
2021/03/16/14:25:57.765378,841672,1615901157,768171072,mocap,-2.78873535156,10.4116357422,1.93033251953,0.162436749809,0.24976551887,0.952341038713,0.0654067412408
2021/03/16/14:25:57.774326,841673,1615901157,778171062,mocap,-2.78865869141,10.4115527344,1.93029724121,0.162645463428,0.249817634918,0.952301506063,0.0652644087915
2021/03/16/14:25:57.786801,841674,1615901157,788171053,mocap,-2.7885949707,10.4114619141,1.93033618164,0.162371503285,0.249738578837,0.952368381235,0.0652733581365
2021/03/16/14:25:57.796308,841675,1615901157,798171043,mocap,-2.78852099609,10.4114238281,1.93035241699,0.162127668761,0.249671610718,0.952431113513,0.0652202804482
2021/03/16/14:25:57.804626,841676,1615901157,808171034,mocap,-2.78844677734,10.4113925781,1.93034411621,0.162566351868,0.249677695389,0.952374272096,0.0649343688099
2021/03/16/14:25:57.815942,841677,1615901157,818171024,mocap,-2.78836450195,10.4113095703,1.93036499023,0.162297073597,0.249630022544,0.95243554115,0.0648925675915
2021/03/16/14:25:57.824691,841678,1615901157,828171015,mocap,-2.78831054688,10.4111777344,1.93036254883,0.162563449676,0.249669482492,0.952388799602,0.0647600137687
2021/03/16/14:25:57.836257,841679,1615901157,838171005,mocap,-2.78822729492,10.4110634766,1.93033227539,0.162426373597,0.249562990016,0.952449215063,0.064625638002
2021/03/16/14:25:57.844428,841680,1615901157,848170996,mocap,-2.78813647461,10.4110214844,1.93034558105,0.162754184968,0.249481715289,0.95243630777,0.0643041020987
2021/03/16/14:25:57.856100,841681,1615901157,858170986,mocap,-2.78807739258,10.4109482422,1.93036853027,0.162912237544,0.24935117732,0.952459290453,0.0640694448703
2021/03/16/14:25:57.864896,841682,1615901157,868170977,mocap,-2.787921875,10.4103945313,1.92954992676,0.168743342397,0.249328795021,0.951581588641,0.06207498883
2021/03/16/14:25:57.875901,841683,1615901157,878171206,mocap,-2.78784570312,10.4102304687,1.92954833984,0.168885906481,0.249298230823,0.951573508376,0.0619339080981
2021/03/16/14:25:57.884623,841684,1615901157,888171196,mocap,-2.78778686523,10.4102089844,1.92957495117,0.169041058621,0.249250752031,0.951571801489,0.0617275581594
2021/03/16/14:25:57.895789,841685,1615901157,898171186,mocap,-2.78770654297,10.4100996094,1.92954394531,0.169036868282,0.249231730824,0.951582872708,0.0616450081843
2021/03/16/14:25:57.904613,841686,1615901157,908171177,mocap,-2.78769116211,10.4102324219,1.93029797363,0.163041715051,0.249366178096,0.952462169116,0.0636374250235
2021/03/16/14:25:57.915780,841687,1615901157,918171167,mocap,-2.7876472168,10.4100449219,1.93028686523,0.162940303723,0.249328451196,0.952488194027,0.0636554999587
2021/03/16/14:25:57.925057,841688,1615901157,928171158,mocap,-2.78756982422,10.4099433594,1.93027685547,0.163023053958,0.249210852031,0.95251489092,0.0635044014946
2021/03/16/14:25:57.934741,841689,1615901157,938171148,mocap,-2.78749462891,10.4097578125,1.93021765137,0.163629258092,0.249162244822,0.952441455063,0.0632369369754
2021/03/16/14:25:57.944323,841690,1615901157,948171139,mocap,-2.78746801758,10.4095673828,1.9303359375,0.162994051325,0.249231370317,0.952514288625,0.0635075157015
2021/03/16/14:25:57.955935,841691,1615901157,958171129,mocap,-2.78734350586,10.4089169922,1.92948999023,0.168596601803,0.24902070863,0.951715913003,0.0616497395344
2021/03/16/14:25:57.964669,841692,1615901157,968171120,mocap,-2.78727246094,10.4087177734,1.92948901367,0.168755418993,0.249012455893,0.95169066551,0.0616383557786
2021/03/16/14:25:57.975878,841693,1615901157,978171110,mocap,-2.78719165039,10.4085175781,1.92952478027,0.168370109687,0.248750657572,0.951827800267,0.0616315231322
2021/03/16/14:25:57.984667,841694,1615901157,988171101,mocap,-2.78717431641,10.4085507812,1.93017700195,0.163524534434,0.248801284064,0.952543847559,0.0633865885248
2021/03/16/14:25:57.994378,841695,1615901157,998171091,mocap,-2.78710864258,10.4082001953,1.93017248535,0.163584624936,0.248762752598,0.952552388896,0.0632543985106
2021/03/16/14:25:58.004452,841696,1615901158,8171082,mocap,-2.78700854492,10.4078925781,1.93021777344,0.163347060329,0.248633326609,0.952623110097,0.0633120838671
2021/03/16/14:25:58.015845,841697,1615901158,18171072,mocap,-2.78693847656,10.407609375,1.93029040527,0.163200065694,0.248442111454,0.952698189899,0.06331205553
2021/03/16/14:25:58.024618,841698,1615901158,28171062,mocap,-2.78685449219,10.407296875,1.93031652832,0.163190519706,0.248399253341,0.952717303021,0.0632170790439
2021/03/16/14:25:58.036480,841699,1615901158,38171053,mocap,-2.78678222656,10.4069335938,1.93039794922,0.163120314738,0.248415968586,0.952720829991,0.0632795297572
2021/03/16/14:25:58.044568,841700,1615901158,48171043,mocap,-2.78668920898,10.4065683594,1.93044824219,0.1631390768,0.248457726952,0.952706894081,0.0632769225104
2021/03/16/14:25:58.056479,841701,1615901158,58171034,mocap,-2.78657568359,10.4061943359,1.93047998047,0.163134088729,0.248434925693,0.952720587561,0.0631730370006
2021/03/16/14:25:58.064726,841702,1615901158,68171024,mocap,-2.78642797852,10.4057841797,1.93048522949,0.162989931831,0.248460344812,0.95274150669,0.0631296312862
2021/03/16/14:25:58.075382,841703,1615901158,78171015,mocap,-2.78633325195,10.4053554688,1.93056555176,0.162740659341,0.248364773908,0.952800367134,0.0632604202325
2021/03/16/14:25:58.084745,841704,1615901158,88171005,mocap,-2.78620703125,10.4048691406,1.93050793457,0.162786934956,0.248424116839,0.952781654489,0.0631901494409
2021/03/16/14:25:58.096432,841705,1615901158,98170996,mocap,-2.78607568359,10.4044033203,1.93056396484,0.162810838494,0.24842927411,0.952786377648,0.0630368431609
2021/03/16/14:25:58.104489,841706,1615901158,108170986,mocap,-2.78594335938,10.4039335938,1.93065673828,0.162544167527,0.248475520099,0.952819751888,0.0630383807249
2021/03/16/14:25:58.115700,841707,1615901158,118170977,mocap,-2.78581933594,10.4034804688,1.9307401123,0.162382678967,0.24853839812,0.952832966763,0.0630069013179
2021/03/16/14:25:58.124744,841708,1615901158,128171206,mocap,-2.78564233398,10.4029150391,1.93075146484,0.162208094938,0.248644068954,0.952839261358,0.0629444493201
2021/03/16/14:25:58.138117,841709,1615901158,138171196,mocap,-2.7854765625,10.4023398437,1.9308302002,0.161497377408,0.248920677342,0.952872579012,0.0631738718695
2021/03/16/14:25:58.146024,841710,1615901158,148171186,mocap,-2.78529370117,10.4017958984,1.93085119629,0.16132027133,0.24891529408,0.95290932013,0.0630933685831
2021/03/16/14:25:58.154559,841711,1615901158,158171177,mocap,-2.7850144043,10.4009384766,1.93012182617,0.1675235507,0.248951607242,0.951974244445,0.0608604228036
2021/03/16/14:25:58.166169,841712,1615901158,168171167,mocap,-2.78479248047,10.4003349609,1.93016333008,0.167460496624,0.249131821341,0.951932935536,0.0609426407733
2021/03/16/14:25:58.174677,841713,1615901158,178171158,mocap,-2.78464794922,10.3999580078,1.93088562012,0.161523644735,0.24946605061,0.952735610279,0.0630211384491
2021/03/16/14:25:58.184823,841714,1615901158,188171148,mocap,-2.78433569336,10.3989482422,1.93010192871,0.16713967159,0.249735566556,0.951835072131,0.0608808544788
2021/03/16/14:25:58.195982,841715,1615901158,198171139,mocap,-2.78412158203,10.3986904297,1.93082702637,0.16173374182,0.249956454632,0.952586217155,0.0627970216076
2021/03/16/14:25:58.204653,841716,1615901158,208171129,mocap,-2.78385375977,10.39803125,1.93089538574,0.161394764603,0.250111266365,0.952592106669,0.0629632726517
2021/03/16/14:25:58.214696,841717,1615901158,218171120,mocap,-2.78351489258,10.3972314453,1.93079174805,0.161305839718,0.250392610683,0.952537856063,0.0628935192973
2021/03/16/14:25:58.226006,841718,1615901158,228171110,mocap,-2.78320727539,10.3965107422,1.93083813477,0.161365514339,0.250543216575,0.952498644467,0.0627343905228
2021/03/16/14:25:58.234535,841719,1615901158,238171101,mocap,-2.78287207031,10.3958564453,1.93085241699,0.161067339845,0.250672730787,0.952522619034,0.062619144961
2021/03/16/14:25:58.245904,841720,1615901158,248171091,mocap,-2.78250415039,10.3950839844,1.93078759766,0.161059960266,0.251126041207,0.952405556417,0.0626023236711
2021/03/16/14:25:58.254916,841721,1615901158,258171082,mocap,-2.78216748047,10.3942060547,1.93073681641,0.160980155759,0.251502435955,0.952318655596,0.0626186724611
2021/03/16/14:25:58.265865,841722,1615901158,268171072,mocap,-2.78183911133,10.3934482422,1.93079260254,0.160673256297,0.251714925859,0.952316582334,0.0625846116629
2021/03/16/14:25:58.274764,841723,1615901158,278171062,mocap,-2.7813503418,10.3923261719,1.93003759766,0.166287422903,0.2517945786,0.951458592058,0.0606178455864
2021/03/16/14:25:58.285865,841724,1615901158,288171053,mocap,-2.78096459961,10.3914511719,1.92997290039,0.166152892097,0.252235506439,0.951363076295,0.060652914876
2021/03/16/14:25:58.294633,841725,1615901158,298171043,mocap,-2.7806315918,10.3908251953,1.93064892578,0.160512874032,0.252824878432,0.95204730157,0.0626189285986
2021/03/16/14:25:58.305948,841726,1615901158,308171034,mocap,-2.78020556641,10.3899355469,1.93061962891,0.160442068936,0.252951715619,0.952032236687,0.0625171125751
2021/03/16/14:25:58.314625,841727,1615901158,318171024,mocap,-2.77967822266,10.3890585938,1.93062341309,0.160054026181,0.253151046031,0.952040054804,0.0625858438244
2021/03/16/14:25:58.325634,841728,1615901158,328171015,mocap,-2.77918554687,10.3880507812,1.93057702637,0.159764655809,0.253374740277,0.95203506186,0.0624959319826
2021/03/16/14:25:58.334386,841729,1615901158,338171005,mocap,-2.77869946289,10.3870390625,1.93050427246,0.159875613045,0.253634543826,0.951956345181,0.0623572439074
2021/03/16/14:25:58.345512,841730,1615901158,348170996,mocap,-2.77821337891,10.3860136719,1.93045922852,0.16018264688,0.253735428228,0.951889574123,0.0621779246262
2021/03/16/14:25:58.354584,841731,1615901158,358170986,mocap,-2.7777043457,10.3850224609,1.93048925781,0.159430669876,0.253980343519,0.951943125964,0.0622906485064
2021/03/16/14:25:58.364555,841732,1615901158,368170977,mocap,-2.77714160156,10.3839277344,1.93046496582,0.159195372718,0.254288466624,0.951899992,0.062294607019
2021/03/16/14:25:58.374287,841733,1615901158,378171206,mocap,-2.77657739258,10.3827070312,1.93027160645,0.159739378676,0.254405530327,0.951784449721,0.0621893950369
2021/03/16/14:25:58.384493,841734,1615901158,388171196,mocap,-2.77594213867,10.3816689453,1.93031811523,0.159193537498,0.254670434583,0.951802806233,0.0622237957853
2021/03/16/14:25:58.394544,841735,1615901158,398171186,mocap,-2.7753112793,10.3805625,1.9303104248,0.158820918762,0.254737642365,0.951854437407,0.0621110889148
2021/03/16/14:25:58.406690,841736,1615901158,408171177,mocap,-2.77466113281,10.3792587891,1.93011376953,0.159257453009,0.25493503439,0.951736134001,0.0619961343955
2021/03/16/14:25:58.414536,841737,1615901158,418171167,mocap,-2.7740324707,10.3780136719,1.93000842285,0.159223130563,0.255146266003,0.951693100259,0.0618758059647
2021/03/16/14:25:58.426290,841738,1615901158,428171158,mocap,-2.77337841797,10.3768007812,1.92996203613,0.158647650403,0.255199530145,0.951769952131,0.0619522183806
2021/03/16/14:25:58.434490,841739,1615901158,438171148,mocap,-2.7726328125,10.3755664062,1.92984509277,0.158872676335,0.255487489868,0.951658253793,0.0619046542074
2021/03/16/14:25:58.445667,841740,1615901158,448171139,mocap,-2.77189941406,10.3741738281,1.92968493652,0.158365782771,0.255620562089,0.951696983318,0.0620584943327
2021/03/16/14:25:58.455328,841741,1615901158,458171129,mocap,-2.77120751953,10.3728525391,1.9295769043,0.158183881442,0.255924012304,0.951648945006,0.0620083987068
2021/03/16/14:25:58.464776,841742,1615901158,468171120,mocap,-2.77045703125,10.3715048828,1.92941162109,0.158237510264,0.256248219998,0.951540654187,0.0621942550638
2021/03/16/14:25:58.474525,841743,1615901158,478171110,mocap,-2.7697199707,10.3700761719,1.92917480469,0.158412523019,0.256456474738,0.951453760508,0.0622196822472
2021/03/16/14:25:58.485463,841744,1615901158,488171101,mocap,-2.76888037109,10.3682011719,1.92823535156,0.163340384836,0.256395448685,0.950745394931,0.0605350027954
2021/03/16/14:25:58.494568,841745,1615901158,498171091,mocap,-2.76810595703,10.3669902344,1.92871679688,0.157624113503,0.256713907453,0.951482851237,0.0627135343739
2021/03/16/14:25:58.504729,841746,1615901158,508171082,mocap,-2.76735205078,10.3655146484,1.92858239746,0.157096685167,0.25671810439,0.951551083714,0.0629838954303
2021/03/16/14:25:58.514602,841747,1615901158,518171072,mocap,-2.76655004883,10.3639257812,1.9282520752,0.157503951796,0.256964023015,0.951392091485,0.0633646605372
2021/03/16/14:25:58.525380,841748,1615901158,528171062,mocap,-2.765765625,10.3621347656,1.9277454834,0.157620500462,0.256848172191,0.951400196785,0.0634228241723
2021/03/16/14:25:58.534479,841749,1615901158,538171053,mocap,-2.76489770508,10.3604658203,1.9272956543,0.15705673036,0.257002485537,0.951405153905,0.064118203772
2021/03/16/14:25:58.545142,841750,1615901158,548171043,mocap,-2.76405419922,10.3587978516,1.92668908691,0.157571102593,0.256897013705,0.951332337241,0.0643588241318
2021/03/16/14:25:58.556341,841751,1615901158,558171034,mocap,-2.76324633789,10.3570185547,1.92587231445,0.157442263235,0.257035617676,0.951266603237,0.0650881581674
2021/03/16/14:25:58.565408,841752,1615901158,568171024,mocap,-2.76243237305,10.3551591797,1.92489697266,0.157607413002,0.257231350478,0.951159302865,0.0654821189845
2021/03/16/14:25:58.574691,841753,1615901158,578171015,mocap,-2.76163696289,10.3533242188,1.92388354492,0.15763407044,0.257315563928,0.951082111799,0.0662043265383
2021/03/16/14:25:58.586328,841754,1615901158,588171005,mocap,-2.76086547852,10.3515253906,1.92294006348,0.15699011128,0.257543007782,0.951056518453,0.0672101170197
2021/03/16/14:25:58.594446,841755,1615901158,598170996,mocap,-2.76006005859,10.34953125,1.92172106934,0.157522816094,0.258094549601,0.950774523007,0.0678348668353
2021/03/16/14:25:58.606437,841756,1615901158,608170986,mocap,-2.75931640625,10.3475771484,1.92077197266,0.15659388396,0.258287369788,0.950807293964,0.068785858662
2021/03/16/14:25:58.614509,841757,1615901158,618170977,mocap,-2.75862133789,10.3454892578,1.91979370117,0.156699503454,0.258537860001,0.950661579146,0.0696131706887
2021/03/16/14:25:58.626330,841758,1615901158,628171206,mocap,-2.75794628906,10.3433242188,1.91898486328,0.156614493191,0.258393779681,0.950653679156,0.0704424413339
2021/03/16/14:25:58.634867,841759,1615901158,638171196,mocap,-2.7572434082,10.3409863281,1.91806298828,0.156676130421,0.258319494632,0.950599725489,0.0713006288752
2021/03/16/14:25:58.645998,841760,1615901158,648171186,mocap,-2.756609375,10.3385830078,1.91726708984,0.156248630302,0.257775630244,0.950746907387,0.0722385332472
2021/03/16/14:25:58.654697,841761,1615901158,658171177,mocap,-2.75597143555,10.3361103516,1.91661608887,0.156069449097,0.256849379662,0.950963250061,0.0730727790892
2021/03/16/14:25:58.666071,841762,1615901158,668171167,mocap,-2.75527685547,10.3334638672,1.91595166016,0.156274492483,0.25616668229,0.951067282313,0.0736744810693
2021/03/16/14:25:58.674506,841763,1615901158,678171158,mocap,-2.75470214844,10.3307109375,1.91549072266,0.156699223647,0.255087530431,0.951241210666,0.0742689390996
2021/03/16/14:25:58.686209,841764,1615901158,688171148,mocap,-2.75406762695,10.3278642578,1.9151151123,0.156970252211,0.253692219467,0.951516310349,0.0749486412074
2021/03/16/14:25:58.694447,841765,1615901158,698171139,mocap,-2.75346069336,10.3249570312,1.91492651367,0.156829513021,0.252213985292,0.951860542789,0.0758558996387
2021/03/16/14:25:58.706015,841766,1615901158,708171129,mocap,-2.75297119141,10.3218310547,1.91478430176,0.157997896093,0.250525705159,0.952091438348,0.0761277234956
2021/03/16/14:25:58.714688,841767,1615901158,718171120,mocap,-2.7524543457,10.3186835938,1.91480249023,0.157844036908,0.248632135258,0.952561868751,0.0767671474054
2021/03/16/14:25:58.726061,841768,1615901158,728171110,mocap,-2.75190283203,10.3150947266,1.91410217285,0.164299188402,0.246848974406,0.952044335568,0.075385333787
2021/03/16/14:25:58.734760,841769,1615901158,738171101,mocap,-2.75143554687,10.3118076172,1.91421350098,0.16512532471,0.244774492364,0.952401253808,0.075834855214
2021/03/16/14:25:58.744721,841770,1615901158,748171091,mocap,-2.75102880859,10.3084296875,1.9143704834,0.165730541984,0.243006439772,0.952697540797,0.0764764402925
2021/03/16/14:25:58.755740,841771,1615901158,758171082,mocap,-2.75066040039,10.3049902344,1.91444567871,0.166103605539,0.241407862449,0.952995502555,0.0770156273864
2021/03/16/14:25:58.764705,841772,1615901158,768171072,mocap,-2.7503815918,10.3016132813,1.91466003418,0.166418804529,0.239703729763,0.953320678573,0.0776311032726
2021/03/16/14:25:58.775958,841773,1615901158,778171062,mocap,-2.75009472656,10.2982587891,1.91482336426,0.166669246439,0.238302446433,0.953572012091,0.0783181163296
2021/03/16/14:25:58.784702,841774,1615901158,788171053,mocap,-2.74985839844,10.2947070313,1.91478405762,0.16631773211,0.23717627736,0.953855086383,0.0790335816009
2021/03/16/14:25:58.794625,841775,1615901158,798171043,mocap,-2.74967016602,10.2912265625,1.91478942871,0.166266748069,0.236227118882,0.954033801387,0.0798224541083
2021/03/16/14:25:58.804580,841776,1615901158,808171034,mocap,-2.74953149414,10.2878564453,1.91471191406,0.166385415208,0.235530320241,0.954111487689,0.080700926027
2021/03/16/14:25:58.816560,841777,1615901158,818171024,mocap,-2.74944628906,10.2843359375,1.91453674316,0.166346218802,0.235326121682,0.954105326431,0.0814467841391
2021/03/16/14:25:58.824567,841778,1615901158,828171015,mocap,-2.74944165039,10.2807958984,1.91430651855,0.166353308414,0.235228546637,0.954068561089,0.0821418437117
2021/03/16/14:25:58.836581,841779,1615901158,838171005,mocap,-2.74946533203,10.2772167969,1.91399462891,0.166231244531,0.235466922668,0.953949501313,0.0830834323354
2021/03/16/14:25:58.844844,841780,1615901158,848170996,mocap,-2.74949975586,10.2736171875,1.91352087402,0.166037304491,0.235469474161,0.95393081121,0.0836764772739
2021/03/16/14:25:58.854854,841781,1615901158,858170986,mocap,-2.74956811523,10.2699580078,1.91308605957,0.16574447537,0.23583839874,0.953830442298,0.0843593614155
2021/03/16/14:25:58.866522,841782,1615901158,868170977,mocap,-2.74969555664,10.2661728516,1.91250634766,0.165320049124,0.236518029624,0.953672275388,0.0850746332454
2021/03/16/14:25:58.874840,841783,1615901158,878171206,mocap,-2.74987109375,10.2623271484,1.91187304688,0.164673361025,0.237078532305,0.95356802728,0.0859328918653
2021/03/16/14:25:58.885951,841784,1615901158,888171196,mocap,-2.75005712891,10.2585,1.91116711426,0.164646403251,0.238034881799,0.953312362953,0.0861770940028
2021/03/16/14:25:58.894559,841785,1615901158,898171186,mocap,-2.75034814453,10.2544667969,1.9104744873,0.163851604994,0.238786248475,0.953202893248,0.0868218027805
2021/03/16/14:25:58.906633,841786,1615901158,908171177,mocap,-2.75062646484,10.2503554687,1.9095802002,0.163928685609,0.240022804567,0.952831363785,0.087343188963
2021/03/16/14:25:58.914662,841787,1615901158,918171167,mocap,-2.75090185547,10.2461689453,1.90878967285,0.163170630885,0.240964423904,0.952691057573,0.0876997210893
2021/03/16/14:25:58.926186,841788,1615901158,928171158,mocap,-2.75119897461,10.2419091797,1.90792358398,0.16266614426,0.242160129006,0.952419707952,0.0882886933168
2021/03/16/14:25:58.934868,841789,1615901158,938171148,mocap,-2.75156079102,10.2374296875,1.90701855469,0.161898420355,0.243029562868,0.952309001198,0.088504769181
2021/03/16/14:25:58.946368,841790,1615901158,948171139,mocap,-2.75200170898,10.2331767578,1.90677832031,0.156527424759,0.24428653628,0.952715793693,0.090309815818
2021/03/16/14:25:58.954604,841791,1615901158,958171129,mocap,-2.75232861328,10.2281679688,1.9052130127,0.161847823828,0.245068140014,0.951769020583,0.0887840919175
2021/03/16/14:25:58.966542,841792,1615901158,968171120,mocap,-2.75278955078,10.2236367188,1.90493688965,0.15626547489,0.245926639301,0.952312185439,0.0905686695821
2021/03/16/14:25:58.974647,841793,1615901158,978171110,mocap,-2.75321166992,10.2182832031,1.90333422852,0.161830742018,0.246795056736,0.951338649597,0.088644149356
2021/03/16/14:25:58.986318,841794,1615901158,988171101,mocap,-2.75374926758,10.2132236328,1.90257800293,0.16182491678,0.247234772716,0.951244210503,0.0884427169361
2021/03/16/14:25:58.994552,841795,1615901158,998171091,mocap,-2.75424511719,10.2079638672,1.90165283203,0.162011687399,0.247896130929,0.951033368689,0.0885170110702
2021/03/16/14:25:59.006481,841796,1615901159,8171082,mocap,-2.7548203125,10.2029150391,1.90148999023,0.156709158112,0.248595803337,0.951610182208,0.0898912776203
2021/03/16/14:25:59.014699,841797,1615901159,18171072,mocap,-2.7555078125,10.1973857422,1.90063269043,0.157031552319,0.248996276338,0.951493077807,0.089458712987
2021/03/16/14:25:59.026522,841798,1615901159,28171062,mocap,-2.75615014648,10.1917646484,1.89973999023,0.157298267446,0.249592876524,0.951321639034,0.0891503640676
2021/03/16/14:25:59.034536,841799,1615901159,38171053,mocap,-2.75690600586,10.1860341797,1.89890039062,0.157643662146,0.249967845507,0.95121655369,0.0886094125704
2021/03/16/14:25:59.046008,841800,1615901159,48171043,mocap,-2.75767578125,10.1801757812,1.89798095703,0.158200090832,0.2506904055,0.950989065286,0.0880161895754
2021/03/16/14:25:59.054906,841801,1615901159,58171034,mocap,-2.75855859375,10.1741679687,1.8971484375,0.158217957856,0.25111768734,0.950908420744,0.0876365332486
2021/03/16/14:25:59.064817,841802,1615901159,68171024,mocap,-2.75948266602,10.1681757812,1.89631896973,0.158607091154,0.251766525215,0.95072265294,0.0870853415114
2021/03/16/14:25:59.076076,841803,1615901159,78171015,mocap,-2.76045532227,10.1620400391,1.89550610352,0.158749635072,0.252411360137,0.950581753316,0.0864950397155
2021/03/16/14:25:59.084676,841804,1615901159,88171005,mocap,-2.76156860352,10.1556806641,1.8946505127,0.159209413731,0.253123952719,0.950357695737,0.0860283453667
2021/03/16/14:25:59.096011,841805,1615901159,98170996,mocap,-2.76269384766,10.1492880859,1.8939017334,0.159778749563,0.253670800588,0.950182758809,0.0852912985923
2021/03/16/14:25:59.104456,841806,1615901159,108170986,mocap,-2.76392016602,10.142828125,1.89320544434,0.159472238667,0.254314089194,0.950102061511,0.0848470626344
2021/03/16/14:25:59.116338,841807,1615901159,118170977,mocap,-2.76520629883,10.1361835937,1.89252172852,0.160053572922,0.254851990466,0.949918277262,0.084193672319
2021/03/16/14:25:59.124584,841808,1615901159,128171206,mocap,-2.76655932617,10.1294521484,1.89183337402,0.160487097614,0.255096250346,0.949841926624,0.0834871635192
2021/03/16/14:25:59.136426,841809,1615901159,138171196,mocap,-2.7679675293,10.1226757813,1.89133312988,0.160900904744,0.255941228478,0.94959176352,0.0829486095413
2021/03/16/14:25:59.144436,841810,1615901159,148171186,mocap,-2.76946972656,10.11578125,1.89083105469,0.160570936102,0.256538799239,0.949526254271,0.0824907259645
2021/03/16/14:25:59.156120,841811,1615901159,158171177,mocap,-2.77105737305,10.1088398437,1.89054260254,0.160174377065,0.257129149357,0.949480844741,0.0819444764441
2021/03/16/14:25:59.164924,841812,1615901159,168171167,mocap,-2.77261767578,10.1017851562,1.89032849121,0.159977508841,0.258056328155,0.949305793319,0.0814411123559
2021/03/16/14:25:59.174683,841813,1615901159,178171158,mocap,-2.77433789063,10.0946367187,1.89035400391,0.159532709442,0.259324931264,0.949054044398,0.0812176965929
2021/03/16/14:25:59.185810,841814,1615901159,188171148,mocap,-2.77612597656,10.0874130859,1.89063891602,0.158996022468,0.260457891982,0.948882541847,0.0806465752081
2021/03/16/14:25:59.194668,841815,1615901159,198171139,mocap,-2.77791772461,10.0800878906,1.89124658203,0.159037217451,0.26149354761,0.948645375392,0.080001549915
2021/03/16/14:25:59.206131,841816,1615901159,208171129,mocap,-2.77975537109,10.0726464844,1.89204077148,0.157983205492,0.262395100615,0.948618875911,0.0794503608003
2021/03/16/14:25:59.214616,841817,1615901159,218171120,mocap,-2.78164501953,10.0651298828,1.89308325195,0.157710773527,0.263130528009,0.948536317507,0.078539774266
2021/03/16/14:25:59.225951,841818,1615901159,228171110,mocap,-2.78352172852,10.0574130859,1.89401513672,0.158102116523,0.263792906804,0.948382169879,0.0773839909353
2021/03/16/14:25:59.234333,841819,1615901159,238171101,mocap,-2.785375,10.0496621094,1.89521862793,0.157926405462,0.264256345475,0.948379915177,0.0761798650616
2021/03/16/14:25:59.245935,841820,1615901159,248171091,mocap,-2.78733837891,10.0416464844,1.89617614746,0.161387417257,0.264238002297,0.94798902438,0.0738186745544
2021/03/16/14:25:59.254857,841821,1615901159,258171082,mocap,-2.78923120117,10.0340498047,1.89824853516,0.157519354263,0.264145533815,0.948687707052,0.0735284007787
2021/03/16/14:25:59.264418,841822,1615901159,268171072,mocap,-2.79125341797,10.0258847656,1.89960241699,0.160230992438,0.264271599423,0.948333068013,0.0717701214724
2021/03/16/14:25:59.276637,841823,1615901159,278171062,mocap,-2.79318188477,10.0180849609,1.90179516602,0.157292421303,0.262861374205,0.949274712942,0.0709964736887
2021/03/16/14:25:59.284829,841824,1615901159,288171053,mocap,-2.79518823242,10.0100761719,1.90364453125,0.156999786467,0.261629624389,0.949776819014,0.0694621980141
2021/03/16/14:25:59.296681,841825,1615901159,298171043,mocap,-2.79713452148,10.0020429688,1.90552270508,0.156713441808,0.260078478193,0.950359945747,0.0679416359632
2021/03/16/14:25:59.304514,841826,1615901159,308171034,mocap,-2.79904296875,9.99395703125,1.90722839355,0.157033683079,0.258052810014,0.951005282686,0.0658643501507
2021/03/16/14:25:59.315663,841827,1615901159,318171024,mocap,-2.8009753418,9.98594238281,1.90884191895,0.157088894924,0.255830320723,0.951709493549,0.0642102697337
2021/03/16/14:25:59.326334,841828,1615901159,328171015,mocap,-2.80284423828,9.977859375,1.90980029297,0.16028923331,0.25366605526,0.951956251262,0.0611571358791
2021/03/16/14:25:59.334789,841829,1615901159,338171005,mocap,-2.80468579102,9.970078125,1.91110449219,0.160348496546,0.251763302031,0.952556902007,0.0594891405644
2021/03/16/14:25:59.344388,841830,1615901159,348170996,mocap,-2.80649926758,9.96245996094,1.91219970703,0.16045102341,0.250155812482,0.953069497666,0.0577586915058
2021/03/16/14:25:59.356188,841831,1615901159,358170986,mocap,-2.80823583984,9.95499121094,1.91302038574,0.160302966342,0.249249802746,0.953412380044,0.0564121714234
2021/03/16/14:25:59.366521,841832,1615901159,368170977,mocap,-2.80996875,9.94774804688,1.91375463867,0.159696434889,0.248853872907,0.953668126933,0.0555509000835
2021/03/16/14:25:59.374506,841833,1615901159,378171206,mocap,-2.81168188477,9.94070117188,1.91440405273,0.159640849274,0.248892844148,0.953726461465,0.0545249600874
2021/03/16/14:25:59.385748,841834,1615901159,388171196,mocap,-2.81351000977,9.93378515625,1.91502636719,0.160818012875,0.248996498882,0.953623602167,0.0523482383505
2021/03/16/14:25:59.394610,841835,1615901159,398171186,mocap,-2.81516821289,9.92694824219,1.91538476563,0.160090502382,0.250042986996,0.953498055977,0.051874787821
2021/03/16/14:25:59.405280,841836,1615901159,408171177,mocap,-2.81674658203,9.92015039063,1.91567895508,0.160008840224,0.251314333947,0.953202322653,0.0514160469956
2021/03/16/14:25:59.414490,841837,1615901159,418171167,mocap,-2.818265625,9.91341894531,1.91589196777,0.158338868208,0.252811316887,0.953075775064,0.0515927564205
2021/03/16/14:25:59.426233,841838,1615901159,428171158,mocap,-2.81976977539,9.90665917969,1.91617785645,0.15794467715,0.254523265742,0.952700794124,0.0513086597038
2021/03/16/14:25:59.434608,841839,1615901159,438171148,mocap,-2.82115112305,9.89994238281,1.91651989746,0.157046156568,0.256017394989,0.952457522574,0.0511494921472
2021/03/16/14:25:59.446215,841840,1615901159,448171139,mocap,-2.82248974609,9.89309765625,1.91672216797,0.156157196963,0.2573869055,0.952237505537,0.051094480685
2021/03/16/14:25:59.454455,841841,1615901159,458171129,mocap,-2.82370361328,9.88626757813,1.91710144043,0.155530500552,0.258593238924,0.952028848034,0.0508022723359
2021/03/16/14:25:59.465983,841842,1615901159,468171120,mocap,-2.82486376953,9.8792578125,1.91745935059,0.154792163818,0.259680916695,0.951867845713,0.0505254676735
2021/03/16/14:25:59.474640,841843,1615901159,478171110,mocap,-2.8259362793,9.87231835938,1.91805212402,0.153426673248,0.261224683867,0.951660524215,0.0506375666513
2021/03/16/14:25:59.486195,841844,1615901159,488171101,mocap,-2.82695532227,9.86520117188,1.91862329102,0.152923476721,0.261820949458,0.951605038248,0.0501203380378
2021/03/16/14:25:59.494441,841845,1615901159,498171091,mocap,-2.82779296875,9.85799511719,1.9192355957,0.152994834455,0.261377028313,0.951764769894,0.0491777131482
2021/03/16/14:25:59.505941,841846,1615901159,508171082,mocap,-2.82863500977,9.85063476562,1.91989697266,0.152555987612,0.261401688111,0.951860049663,0.048562139819
2021/03/16/14:25:59.514693,841847,1615901159,518171072,mocap,-2.82933398437,9.84324804688,1.92060559082,0.1519418441,0.261076291007,0.952075356833,0.0480142414058
2021/03/16/14:25:59.526085,841848,1615901159,528171062,mocap,-2.82992651367,9.83583007812,1.92134631348,0.152040937112,0.260644566354,0.952218171525,0.0472073188574
2021/03/16/14:25:59.534562,841849,1615901159,538171053,mocap,-2.83041333008,9.82833691406,1.92208837891,0.151530748284,0.259773329102,0.952579928709,0.0463435232455
2021/03/16/14:25:59.544889,841850,1615901159,548171043,mocap,-2.83084765625,9.82069824219,1.92265258789,0.151582533582,0.259211226432,0.952763269916,0.0455458725885
2021/03/16/14:25:59.554909,841851,1615901159,558171034,mocap,-2.83114453125,9.81317382813,1.923296875,0.151705239144,0.258328207818,0.953018933007,0.0447992480897
2021/03/16/14:25:59.565724,841852,1615901159,568171024,mocap,-2.83136645508,9.80551660156,1.92374243164,0.152205977902,0.25765221581,0.953168305211,0.0438047392351
2021/03/16/14:25:59.574599,841853,1615901159,578171015,mocap,-2.83149047852,9.79792382813,1.9241237793,0.15226128711,0.257075597231,0.95335318226,0.0429691453617
2021/03/16/14:25:59.585640,841854,1615901159,588171005,mocap,-2.83155908203,9.79013964844,1.92433679199,0.153216630239,0.25659255205,0.953380620792,0.0418366351081
2021/03/16/14:25:59.595057,841855,1615901159,598170996,mocap,-2.83152978516,9.78246875,1.9245612793,0.153508296204,0.25643237998,0.953409754319,0.0410790334193
2021/03/16/14:25:59.604590,841856,1615901159,608170986,mocap,-2.83145141602,9.77489746094,1.92476452637,0.153922354732,0.257215048073,0.95315975376,0.0404327583248
2021/03/16/14:25:59.616195,841857,1615901159,618170977,mocap,-2.8313059082,9.76718261719,1.9247767334,0.1544978745,0.257194204585,0.953106379718,0.0396204015716
2021/03/16/14:25:59.624696,841858,1615901159,628171206,mocap,-2.83115942383,9.75925195313,1.92456201172,0.155167759926,0.257431727986,0.952968271846,0.0387731168419
2021/03/16/14:25:59.635638,841859,1615901159,638171196,mocap,-2.83090893555,9.75143847656,1.92429260254,0.155892189786,0.258073548481,0.952706299728,0.0380313051644
2021/03/16/14:25:59.644958,841860,1615901159,648171186,mocap,-2.83063647461,9.74356835938,1.92389050293,0.157565895303,0.257954759733,0.952514327735,0.0367258201174
2021/03/16/14:25:59.655079,841861,1615901159,658171177,mocap,-2.83036401367,9.73561230469,1.92346252441,0.158024682414,0.258406440634,0.95233830833,0.0361394756647
2021/03/16/14:25:59.666436,841862,1615901159,668171167,mocap,-2.83001489258,9.7275,1.92283459473,0.158557944488,0.258882235759,0.952142506116,0.0355529072869
2021/03/16/14:25:59.675222,841863,1615901159,678171158,mocap,-2.8297253418,9.7196015625,1.92241955566,0.158893137163,0.26014179783,0.951758953542,0.0351299080587
2021/03/16/14:25:59.686496,841864,1615901159,688171148,mocap,-2.82934423828,9.71142871094,1.92159008789,0.160270637264,0.260594319743,0.951438380824,0.0341896656733
2021/03/16/14:25:59.694732,841865,1615901159,698171139,mocap,-2.82892456055,9.70317382812,1.92066943359,0.160678085445,0.261299828607,0.95119326683,0.0337093999681
2021/03/16/14:25:59.706498,841866,1615901159,708171129,mocap,-2.8285222168,9.69483496094,1.9196940918,0.16173109905,0.261991197668,0.950849874147,0.0329876164678
2021/03/16/14:25:59.714510,841867,1615901159,718171120,mocap,-2.82809423828,9.68659472656,1.91871130371,0.16261818238,0.262973574498,0.950449008928,0.0323559785423
2021/03/16/14:25:59.726675,841868,1615901159,728171110,mocap,-2.82761962891,9.67817773437,1.91750756836,0.162938274254,0.263894779044,0.950150178031,0.032020489752
2021/03/16/14:25:59.734602,841869,1615901159,738171101,mocap,-2.82715185547,9.6697109375,1.91625146484,0.163627359751,0.26474781997,0.9498081732,0.0316087617631
2021/03/16/14:25:59.746790,841870,1615901159,748171091,mocap,-2.8266628418,9.66114160156,1.91482019043,0.164341431206,0.26559613842,0.949456746284,0.0313442833395
2021/03/16/14:25:59.754786,841871,1615901159,758171082,mocap,-2.82611279297,9.65256445313,1.91332580566,0.164875710117,0.266397317653,0.949149674779,0.0310381337604
2021/03/16/14:25:59.766282,841872,1615901159,768171072,mocap,-2.82561401367,9.6439140625,1.91176708984,0.165216598784,0.267345160747,0.948832798425,0.0307631606758
2021/03/16/14:25:59.774955,841873,1615901159,778171062,mocap,-2.82508837891,9.63524023438,1.91015722656,0.165828588968,0.268273557364,0.948465857168,0.0307033596514
2021/03/16/14:25:59.786478,841874,1615901159,788171053,mocap,-2.82452172852,9.62644335937,1.90834094238,0.165951346734,0.269508835247,0.948091819147,0.0307741633626
2021/03/16/14:25:59.794609,841875,1615901159,798171043,mocap,-2.82392651367,9.61775585938,1.90668432617,0.166040002775,0.270528226688,0.947784509808,0.0308175303908
2021/03/16/14:25:59.806335,841876,1615901159,808171034,mocap,-2.82331958008,9.60885351563,1.90491552734,0.164467789925,0.272882746913,0.947350134472,0.0318289892397
2021/03/16/14:25:59.814681,841877,1615901159,818171024,mocap,-2.82272729492,9.59991601563,1.90330322266,0.166042921474,0.273013327187,0.947050176286,0.0314554020559
2021/03/16/14:25:59.825401,841878,1615901159,828171015,mocap,-2.82209106445,9.59091992188,1.90192443848,0.166472678897,0.273946016569,0.946700283336,0.031607148592
2021/03/16/14:25:59.836335,841879,1615901159,838171005,mocap,-2.82136865234,9.58178710938,1.9005255127,0.164818118649,0.274920757011,0.946666559562,0.0328023864905
2021/03/16/14:25:59.844455,841880,1615901159,848170996,mocap,-2.82069555664,9.57259570312,1.89954174805,0.166130842206,0.275213977983,0.946349804388,0.0328613319117
2021/03/16/14:25:59.855411,841881,1615901159,858170986,mocap,-2.81995947266,9.56336035156,1.89872558594,0.165685570094,0.275742409486,0.946242379532,0.0337604440601
2021/03/16/14:25:59.864574,841882,1615901159,868170977,mocap,-2.81910913086,9.55396582031,1.89780712891,0.166474292614,0.275573249217,0.946144825244,0.0339952607322
2021/03/16/14:25:59.874983,841883,1615901159,878171206,mocap,-2.81827929688,9.54461914063,1.89712792969,0.166207571248,0.275653799462,0.946139391705,0.0347889937236
2021/03/16/14:25:59.884685,841884,1615901159,888171196,mocap,-2.81740917969,9.53527050781,1.89666320801,0.165936543564,0.276352282633,0.945956129276,0.0355172200095
2021/03/16/14:25:59.895980,841885,1615901159,898171186,mocap,-2.81646069336,9.52579394531,1.89611547852,0.166683097127,0.275856201327,0.945954900581,0.0359085579242
2021/03/16/14:25:59.904701,841886,1615901159,908171177,mocap,-2.81550024414,9.51654492187,1.89612243652,0.165747352525,0.276913362859,0.945757375025,0.0372800295423
2021/03/16/14:25:59.916190,841887,1615901159,918171167,mocap,-2.81447412109,9.50715332031,1.89626782227,0.165958314448,0.277136233244,0.945623906129,0.0380627074327
2021/03/16/14:25:59.924594,841888,1615901159,928171158,mocap,-2.81340405273,9.49766992187,1.89674645996,0.16607609942,0.277566870243,0.945438794298,0.038998079762
2021/03/16/14:25:59.935153,841889,1615901159,938171148,mocap,-2.81230493164,9.48831738281,1.89756958008,0.165381571357,0.27869426468,0.945167222958,0.040464249051
2021/03/16/14:25:59.944742,841890,1615901159,948171139,mocap,-2.81114086914,9.47875292969,1.89825854492,0.16598768549,0.278304602962,0.945137393906,0.0413515046684
2021/03/16/14:25:59.956892,841891,1615901159,958171129,mocap,-2.80968237305,9.46923925781,1.89889038086,0.164848369145,0.279261443805,0.944966237043,0.0433228858934
2021/03/16/14:25:59.964834,841892,1615901159,968171120,mocap,-2.80836791992,9.45966308594,1.89987145996,0.165439812394,0.279279399418,0.944813817482,0.0442666779575
2021/03/16/14:25:59.976050,841893,1615901159,978171110,mocap,-2.80706640625,9.45027050781,1.90115209961,0.166519039234,0.279377233675,0.944562961623,0.0449509980702
2021/03/16/14:25:59.984901,841894,1615901159,988171101,mocap,-2.8056887207,9.44092675781,1.90240612793,0.167534619728,0.279221423522,0.944396221205,0.0456434049842
2021/03/16/14:25:59.995857,841895,1615901159,998171091,mocap,-2.804375,9.43158105469,1.90386743164,0.168347146717,0.279268123163,0.944187874612,0.0466668751629
2021/03/16/14:26:00.004752,841896,1615901160,8171082,mocap,-2.80308154297,9.42211816406,1.90491894531,0.170053887119,0.278186284458,0.944196388956,0.0467679322225
2021/03/16/14:26:00.014576,841897,1615901160,18171072,mocap,-2.80178222656,9.41284667969,1.90610583496,0.171972573976,0.277448756542,0.944044271279,0.0472021547917
2021/03/16/14:26:00.025816,841898,1615901160,28171062,mocap,-2.8005390625,9.40360546875,1.90713562012,0.173174135784,0.276825237649,0.94396515661,0.0480446203205
2021/03/16/14:26:00.034481,841899,1615901160,38171053,mocap,-2.79943066406,9.39440820312,1.90805517578,0.174381236872,0.276122885101,0.943924570675,0.0485152251576
2021/03/16/14:26:00.045557,841900,1615901160,48171043,mocap,-2.79832543945,9.38537988281,1.90884423828,0.175965568967,0.275928465469,0.943647944699,0.0492762956773
2021/03/16/14:26:00.056868,841901,1615901160,58171034,mocap,-2.79735986328,9.37650878906,1.90968920898,0.177387488381,0.27574393157,0.943395254586,0.0500437016771
2021/03/16/14:26:00.064577,841902,1615901160,68171024,mocap,-2.79650073242,9.3676015625,1.91045166016,0.178710687878,0.275954155922,0.943027667059,0.051094158727
2021/03/16/14:26:00.074888,841903,1615901160,78171015,mocap,-2.79577368164,9.35892480469,1.91140673828,0.179062383794,0.276395673077,0.942763138156,0.0523427472517
2021/03/16/14:26:00.086549,841904,1615901160,88171005,mocap,-2.7951003418,9.350078125,1.91198278809,0.180637807784,0.276047514227,0.9425093887,0.0533274209831
2021/03/16/14:26:00.094701,841905,1615901160,98170996,mocap,-2.79458251953,9.34144238281,1.91279284668,0.181232487009,0.276000118913,0.94233040145,0.0547005377398
2021/03/16/14:26:00.106338,841906,1615901160,108170986,mocap,-2.79415942383,9.33274902344,1.91354882812,0.182155199881,0.275760343933,0.942151111324,0.0559196044341
2021/03/16/14:26:00.114825,841907,1615901160,118170977,mocap,-2.79389135742,9.32408203125,1.91431237793,0.18310560355,0.275463536823,0.941988238809,0.0570117168918
2021/03/16/14:26:00.126392,841908,1615901160,128171206,mocap,-2.79364672852,9.31548339844,1.91507641602,0.183609860171,0.275139681701,0.941909884836,0.0582352675282
2021/03/16/14:26:00.135207,841909,1615901160,138171196,mocap,-2.793609375,9.30696875,1.91592944336,0.184543774116,0.274788367653,0.941746400978,0.0595706721019
2021/03/16/14:26:00.146472,841910,1615901160,148171186,mocap,-2.79362890625,9.29834472656,1.91667614746,0.184818634284,0.274169975109,0.941797958494,0.0607411939384
2021/03/16/14:26:00.154718,841911,1615901160,158171177,mocap,-2.79380273437,9.28988769531,1.91752685547,0.184825715835,0.27365499931,0.941848381973,0.0622415688147
2021/03/16/14:26:00.164595,841912,1615901160,168171167,mocap,-2.79412109375,9.2813984375,1.91834887695,0.184640100861,0.27283671721,0.942027911625,0.0636519555329
2021/03/16/14:26:00.176575,841913,1615901160,178171158,mocap,-2.79447680664,9.27296582031,1.91898937988,0.185028719499,0.27250731972,0.941960515884,0.0649194637574
2021/03/16/14:26:00.184814,841914,1615901160,188171148,mocap,-2.79505029297,9.26447753906,1.9196895752,0.183818493152,0.271437177591,0.942389722413,0.0665900397796
2021/03/16/14:26:00.196353,841915,1615901160,198171139,mocap,-2.79564990234,9.25612109375,1.92036791992,0.183079744342,0.270802696093,0.942603983645,0.0681574539022
2021/03/16/14:26:00.204559,841916,1615901160,208171129,mocap,-2.79630541992,9.24771289062,1.92092224121,0.182370562733,0.269852016962,0.94291457753,0.0695194569473
2021/03/16/14:26:00.216201,841917,1615901160,218171120,mocap,-2.79712475586,9.23933496094,1.92147351074,0.181524635211,0.269100249748,0.943188306252,0.0709202885863
2021/03/16/14:26:00.224696,841918,1615901160,228171110,mocap,-2.79793359375,9.23096289062,1.92194470215,0.18030109573,0.268309532385,0.943545131678,0.0722778745193
2021/03/16/14:26:00.236070,841919,1615901160,238171101,mocap,-2.79880029297,9.22269238281,1.92253894043,0.177985345125,0.268102127381,0.943891142402,0.0742427821874
2021/03/16/14:26:00.244416,841920,1615901160,248171091,mocap,-2.79967236328,9.21431738281,1.92288903809,0.176747157182,0.267466753179,0.944195292117,0.0756123095351
2021/03/16/14:26:00.255193,841921,1615901160,258171082,mocap,-2.80063989258,9.20595898438,1.92322924805,0.175370798972,0.266848232628,0.944507800206,0.0770851212243
2021/03/16/14:26:00.264977,841922,1615901160,268171072,mocap,-2.8015480957,9.19750488281,1.92343139648,0.174269446143,0.266230379869,0.944799212931,0.07814092421
2021/03/16/14:26:00.276268,841923,1615901160,278171062,mocap,-2.80245019531,9.18933691406,1.92387890625,0.170764635411,0.265617570323,0.945468196185,0.0798538373863
2021/03/16/14:26:00.284384,841924,1615901160,288171053,mocap,-2.8034074707,9.18085449219,1.92374230957,0.172099005378,0.265277352246,0.945279239038,0.0803555927931
2021/03/16/14:26:00.296197,841925,1615901160,298171043,mocap,-2.80434594727,9.17242089844,1.9237208252,0.170425374432,0.265247402991,0.945491923494,0.0815108970749
2021/03/16/14:26:00.304376,841926,1615901160,308171034,mocap,-2.80522802734,9.16402050781,1.92353527832,0.169613554845,0.265097178865,0.945599866963,0.0824355072924
2021/03/16/14:26:00.316191,841927,1615901160,318171024,mocap,-2.80618139648,9.15570214844,1.92342126465,0.16873892408,0.265248954719,0.945632005717,0.0833683044604
2021/03/16/14:26:00.324455,841928,1615901160,328171015,mocap,-2.80700390625,9.14738671875,1.92331079102,0.165666835072,0.265188276903,0.946083731563,0.0845886457451
2021/03/16/14:26:00.335961,841929,1615901160,338171005,mocap,-2.80789819336,9.13891210937,1.92290307617,0.164211594529,0.265422826328,0.94618505609,0.0855517609631
2021/03/16/14:26:00.344454,841930,1615901160,348170996,mocap,-2.80875439453,9.13044140625,1.92238452148,0.163805728435,0.265977115876,0.946066791897,0.0859155711173
2021/03/16/14:26:00.355057,841931,1615901160,358170986,mocap,-2.80966381836,9.12199316406,1.92184338379,0.162777420794,0.266140206373,0.946127595304,0.0866918870183
2021/03/16/14:26:00.364702,841932,1615901160,368170977,mocap,-2.81050952148,9.11333984375,1.92101281738,0.162495656803,0.267057954922,0.945910508975,0.0867670235214
2021/03/16/14:26:00.376194,841933,1615901160,378171206,mocap,-2.81139868164,9.10477636719,1.92027282715,0.161401421209,0.267009677066,0.946049867679,0.0874361234299
2021/03/16/14:26:00.384530,841934,1615901160,388171196,mocap,-2.81231152344,9.09595605469,1.91901464844,0.163679889576,0.267313213887,0.945640089478,0.0867026942118
2021/03/16/14:26:00.395916,841935,1615901160,398171186,mocap,-2.81308984375,9.08746679688,1.91830639648,0.160004909468,0.268114100855,0.945932263957,0.0878943404506
2021/03/16/14:26:00.404742,841936,1615901160,408171177,mocap,-2.81398266602,9.07874609375,1.91712341309,0.160035026346,0.268467410093,0.94586095584,0.0875277291866
2021/03/16/14:26:00.414564,841937,1615901160,418171167,mocap,-2.81481298828,9.06995605469,1.9159161377,0.159100534381,0.269120522608,0.945787854124,0.088014233079
2021/03/16/14:26:00.425783,841938,1615901160,428171158,mocap,-2.81577099609,9.06104296875,1.91422998047,0.161439842937,0.269874874509,0.945271688164,0.0869837652043
2021/03/16/14:26:00.434652,841939,1615901160,438171148,mocap,-2.81656591797,9.05238476562,1.91313879395,0.15858209037,0.269944315324,0.945693750977,0.0874363771126
2021/03/16/14:26:00.445703,841940,1615901160,448171139,mocap,-2.81751489258,9.04323828125,1.91129138184,0.160744431165,0.270246817172,0.945343088018,0.0863385085524
2021/03/16/14:26:00.454689,841941,1615901160,458171129,mocap,-2.81836083984,9.03453613281,1.91020483398,0.15767446299,0.270803668814,0.945647921048,0.0869147119237
2021/03/16/14:26:00.465593,841942,1615901160,468171120,mocap,-2.81931469727,9.02562988281,1.90883398437,0.157689858651,0.271454124353,0.945522143234,0.0862232780718
2021/03/16/14:26:00.474789,841943,1615901160,478171110,mocap,-2.82027124023,9.01645214844,1.90718273926,0.160024820267,0.271438461339,0.94523886717,0.0850687556633
2021/03/16/14:26:00.486921,841944,1615901160,488171101,mocap,-2.82127197266,9.00744628906,1.90605041504,0.159509937676,0.272512963568,0.945070621978,0.084467668654
2021/03/16/14:26:00.494836,841945,1615901160,498171091,mocap,-2.82216821289,8.99844824219,1.90494702148,0.159096445183,0.272889666368,0.945075564996,0.0839746054829
2021/03/16/14:26:00.506594,841946,1615901160,508171082,mocap,-2.82326342773,8.98945703125,1.90401208496,0.159545520752,0.273530402855,0.944903695167,0.0829660084619
2021/03/16/14:26:00.514711,841947,1615901160,518171072,mocap,-2.82418969727,8.98033007813,1.90309741211,0.159141998358,0.273932132875,0.944918014247,0.0822494334168
2021/03/16/14:26:00.526857,841948,1615901160,528171062,mocap,-2.82528955078,8.97124902344,1.90224731445,0.15980390795,0.275103110092,0.944557219244,0.0811951370782
2021/03/16/14:26:00.534656,841949,1615901160,538171053,mocap,-2.8262434082,8.96237988281,1.90190246582,0.157573837883,0.27547446956,0.944843191503,0.0809669559235
2021/03/16/14:26:00.546657,841950,1615901160,548171043,mocap,-2.82741430664,8.95316894531,1.90103857422,0.159865320861,0.276586381207,0.944279232118,0.0792450751886
2021/03/16/14:26:00.554663,841951,1615901160,558171034,mocap,-2.82845556641,8.94406738281,1.90048425293,0.160338076785,0.277562419519,0.944011873266,0.0780537472985
2021/03/16/14:26:00.566512,841952,1615901160,568171024,mocap,-2.82950024414,8.93508691406,1.90042663574,0.158310270862,0.278145696039,0.944257936146,0.0771347421554
2021/03/16/14:26:00.574584,841953,1615901160,578171015,mocap,-2.83078613281,8.92584277344,1.90004614258,0.160886038123,0.279135958881,0.94363660668,0.0758206188588
2021/03/16/14:26:00.586548,841954,1615901160,588171005,mocap,-2.83196411133,8.91668945313,1.90022937012,0.160727296331,0.28052276196,0.943346935688,0.0746343119657
2021/03/16/14:26:00.594795,841955,1615901160,598170996,mocap,-2.8332421875,8.90756445312,1.90098022461,0.160723672258,0.281466415858,0.943153761734,0.0735223830813
2021/03/16/14:26:00.606238,841956,1615901160,608170986,mocap,-2.83455517578,8.8983203125,1.90186804199,0.161039195853,0.281917846598,0.943052972668,0.0723864216888
2021/03/16/14:26:00.615112,841957,1615901160,618170977,mocap,-2.83583227539,8.88902929687,1.90281994629,0.160457840652,0.281643631765,0.943336944629,0.0710320964041
2021/03/16/14:26:00.625302,841958,1615901160,628171206,mocap,-2.83708129883,8.87975683594,1.90395080566,0.161515031025,0.282668665435,0.942955752128,0.0696116133027
2021/03/16/14:26:00.634720,841959,1615901160,638171196,mocap,-2.83836816406,8.87042578125,1.90528027344,0.161206717187,0.282130492782,0.943265993223,0.0682938011807
2021/03/16/14:26:00.646121,841960,1615901160,648171186,mocap,-2.83959643555,8.86114355469,1.90666479492,0.161711224982,0.282029933944,0.943343847554,0.0664151542227
2021/03/16/14:26:00.654701,841961,1615901160,658171177,mocap,-2.84085400391,8.85200097656,1.90846130371,0.161264013022,0.282119912717,0.943475246224,0.0652436110942
2021/03/16/14:26:00.666221,841962,1615901160,668171167,mocap,-2.84208837891,8.84270214844,1.90994421387,0.161337067677,0.2811085872,0.943904861161,0.0631816947604
2021/03/16/14:26:00.674844,841963,1615901160,678171158,mocap,-2.8431953125,8.83339550781,1.91122277832,0.162131804143,0.280627696836,0.944053789217,0.0610230782269
2021/03/16/14:26:00.686074,841964,1615901160,688171148,mocap,-2.84441040039,8.82425097656,1.91262402344,0.162185551658,0.27960964318,0.944439476988,0.0595680343751
