time,.header.seq,.header.stamp.secs,.header.stamp.nsecs,.header.frame_id,.pose.position.x,.pose.position.y,.pose.position.z,.pose.orientation.x,.pose.orientation.y,.pose.orientation.z,.pose.orientation.w
2021/03/16/14:15:18.325667,797102,1615900518,328171015,mocap,-2.79426342773,10.2953359375,1.92300048828,0.149352895327,0.194246638184,0.969512062897,0.00288310826908
2021/03/16/14:15:18.336697,797103,1615900518,338171005,mocap,-2.79414013672,10.2953515625,1.92302770996,0.149449781229,0.194320888663,0.96948208373,0.00294161389791
2021/03/16/14:15:18.345355,797104,1615900518,348170996,mocap,-2.79397485352,10.2953212891,1.92299169922,0.149321259023,0.194268649138,0.969512247334,0.00297687760683
2021/03/16/14:15:18.355158,797105,1615900518,358170986,mocap,-2.79387402344,10.2952890625,1.92303137207,0.149161076583,0.194158760274,0.969558693607,0.00304570153031
2021/03/16/14:15:18.365098,797106,1615900518,368170977,mocap,-2.79373217773,10.2952841797,1.92299975586,0.149341925502,0.194145306204,0.969533587998,0.00303490077476
2021/03/16/14:15:18.375130,797107,1615900518,378171206,mocap,-2.79356982422,10.295296875,1.92300415039,0.149214939151,0.194230704046,0.969535862668,0.0030887863713
2021/03/16/14:15:18.386353,797108,1615900518,388171196,mocap,-2.79344824219,10.2952714844,1.92303613281,0.149281139283,0.194206629595,0.969530444948,0.00310568314287
2021/03/16/14:15:18.394932,797109,1615900518,398171186,mocap,-2.79330175781,10.2952558594,1.92300402832,0.149267116667,0.19417524897,0.969538867376,0.00311346282188
2021/03/16/14:15:18.405584,797110,1615900518,408171177,mocap,-2.79315307617,10.2952509766,1.92299267578,0.149421947163,0.194229415804,0.969504662333,0.00295236578014
2021/03/16/14:15:18.416429,797111,1615900518,418171167,mocap,-2.79304150391,10.2953085938,1.92307470703,0.149592992968,0.194220434059,0.969480293097,0.00288492325647
2021/03/16/14:15:18.424834,797112,1615900518,428171158,mocap,-2.79290087891,10.2952880859,1.92303320312,0.149699109589,0.194304678582,0.969447392504,0.00276239405281
2021/03/16/14:15:18.436510,797113,1615900518,438171148,mocap,-2.7927565918,10.2952773437,1.92300769043,0.149457365813,0.194336042284,0.969478448664,0.00274399474855
2021/03/16/14:15:18.446845,797114,1615900518,448171139,mocap,-2.79260546875,10.2953203125,1.92303186035,0.149530062489,0.194473887882,0.969439614858,0.00273952990281
2021/03/16/14:15:18.454966,797115,1615900518,458171129,mocap,-2.79244580078,10.2953496094,1.92301879883,0.14963273969,0.194468604319,0.969425227587,0.00259507521343
2021/03/16/14:15:18.466504,797116,1615900518,468171120,mocap,-2.79230639648,10.2953535156,1.92302246094,0.14975153018,0.194518972499,0.969397051897,0.00249050767022
2021/03/16/14:15:18.475086,797117,1615900518,478171110,mocap,-2.79215820313,10.2953359375,1.92300683594,0.149691855034,0.194589054896,0.969392440413,0.00239873251414
2021/03/16/14:15:18.486212,797118,1615900518,488171101,mocap,-2.79199145508,10.2954033203,1.92303027344,0.149728717583,0.194480957522,0.969408703482,0.0022877771112
2021/03/16/14:15:18.494973,797119,1615900518,498171091,mocap,-2.79184448242,10.2954550781,1.92304980469,0.149635542727,0.1944903753,0.969421407854,0.00219844531597
2021/03/16/14:15:18.506296,797120,1615900518,508171082,mocap,-2.79170532227,10.2954765625,1.9230690918,0.149756976385,0.194578947174,0.969385131166,0.00208566712186
2021/03/16/14:15:18.515122,797121,1615900518,518171072,mocap,-2.79153369141,10.2955009766,1.9230213623,0.149685233645,0.194568697133,0.969398289308,0.00207810290614
2021/03/16/14:15:18.526270,797122,1615900518,528171062,mocap,-2.79140869141,10.2955791016,1.92304101562,0.149742940602,0.194639954905,0.969375039549,0.00209085284089
2021/03/16/14:15:18.535179,797123,1615900518,538171053,mocap,-2.7912734375,10.2956289063,1.92307568359,0.149913174034,0.194706212809,0.969335448345,0.00207636697966
2021/03/16/14:15:18.546425,797124,1615900518,548171043,mocap,-2.79115649414,10.2956708984,1.92308898926,0.149731824959,0.194766986023,0.969351066734,0.00217105383114
2021/03/16/14:15:18.554994,797125,1615900518,558171034,mocap,-2.79101269531,10.2957480469,1.92309655762,0.149639793012,0.194827566573,0.969352796117,0.00230236284351
2021/03/16/14:15:18.566348,797126,1615900518,568171024,mocap,-2.79086450195,10.2958583984,1.92312890625,0.149723796382,0.194869076349,0.969331935711,0.00210222546816
2021/03/16/14:15:18.574940,797127,1615900518,578171015,mocap,-2.79072143555,10.2959492187,1.92316247559,0.149633023382,0.19484044985,0.969351489472,0.00220313102983
2021/03/16/14:15:18.585034,797128,1615900518,588171005,mocap,-2.79058398437,10.2959960938,1.92314001465,0.149894752312,0.195026849225,0.969273848566,0.00207564186365
2021/03/16/14:15:18.595130,797129,1615900518,598170996,mocap,-2.79044897461,10.2960722656,1.9231595459,0.14990356535,0.195098819295,0.969257967578,0.00208979861335
2021/03/16/14:15:18.605917,797130,1615900518,608170986,mocap,-2.79031152344,10.2961777344,1.92316137695,0.149992648276,0.195071256482,0.969249973179,0.00197285114798
2021/03/16/14:15:18.614822,797131,1615900518,618170977,mocap,-2.79016455078,10.2962421875,1.92314233398,0.149988940887,0.195334375289,0.969197631291,0.00193598336568
2021/03/16/14:15:18.626030,797132,1615900518,628171206,mocap,-2.7900625,10.2962910156,1.92315112305,0.150165545775,0.19546182225,0.969144771495,0.00184022895641
2021/03/16/14:15:18.635456,797133,1615900518,638171196,mocap,-2.78994018555,10.2963847656,1.92316467285,0.150090446594,0.195535869238,0.969141427301,0.00186352266091
2021/03/16/14:15:18.647066,797134,1615900518,648171186,mocap,-2.78982324219,10.29646875,1.92316564941,0.150311906466,0.195750169196,0.969063923333,0.00181928158768
2021/03/16/14:15:18.654768,797135,1615900518,658171177,mocap,-2.78972875977,10.2965341797,1.92316699219,0.150409915245,0.195785881117,0.969041703514,0.00170992211758
2021/03/16/14:15:18.667289,797136,1615900518,668171167,mocap,-2.78963989258,10.2965605469,1.92316955566,0.150406167312,0.195932329592,0.969012747788,0.00167433833899
2021/03/16/14:15:18.675370,797137,1615900518,678171158,mocap,-2.78953466797,10.2966396484,1.9231484375,0.150447428199,0.196093771697,0.968973310943,0.00187737023384
2021/03/16/14:15:18.686728,797138,1615900518,688171148,mocap,-2.78944946289,10.2967089844,1.92315344238,0.150328559172,0.196094086492,0.968991664769,0.00189068470713
2021/03/16/14:15:18.695289,797139,1615900518,698171139,mocap,-2.78935327148,10.296734375,1.92317358398,0.150387999022,0.196095632719,0.96898227645,0.00181361136549
2021/03/16/14:15:18.706760,797140,1615900518,708171129,mocap,-2.78927124023,10.2967421875,1.92316467285,0.150451536048,0.196150782333,0.968961215835,0.00183641960165
2021/03/16/14:15:18.715396,797141,1615900518,718171120,mocap,-2.78917285156,10.29678125,1.92313037109,0.15036631163,0.19614425141,0.96897566382,0.00188952026866
2021/03/16/14:15:18.725730,797142,1615900518,728171110,mocap,-2.78908422852,10.2968251953,1.92316992188,0.150545366668,0.195986714537,0.968979931278,0.00178671641047
2021/03/16/14:15:18.734999,797143,1615900518,738171101,mocap,-2.78900537109,10.2968046875,1.92315637207,0.15056447276,0.195975227028,0.968979246948,0.0018052061189
2021/03/16/14:15:18.747008,797144,1615900518,748171091,mocap,-2.78889697266,10.296796875,1.92306945801,0.150634951395,0.195921313019,0.968979047032,0.0018870935259
2021/03/16/14:15:18.755123,797145,1615900518,758171082,mocap,-2.78879394531,10.2968398437,1.92308825684,0.150603492751,0.195803016948,0.969007657765,0.00198292194734
2021/03/16/14:15:18.766813,797146,1615900518,768171072,mocap,-2.78871508789,10.2968564453,1.92310253906,0.150700799822,0.195848170872,0.968983552836,0.00190603638164
2021/03/16/14:15:18.774941,797147,1615900518,778171062,mocap,-2.78863720703,10.2968496094,1.92306689453,0.150910019677,0.195676273217,0.968985575059,0.00197749925996
2021/03/16/14:15:18.786636,797148,1615900518,788171053,mocap,-2.78857373047,10.2968261719,1.92303771973,0.15065322176,0.195555642029,0.96904976114,0.0020405027476
2021/03/16/14:15:18.795692,797149,1615900518,798171043,mocap,-2.78848730469,10.2968515625,1.92300744629,0.15088892037,0.195569773271,0.969010218157,0.00204410078419
2021/03/16/14:15:18.806770,797150,1615900518,808171034,mocap,-2.78840185547,10.2968496094,1.92297570801,0.15088468711,0.195580800222,0.969008764963,0.00199275278285
2021/03/16/14:15:18.815029,797151,1615900518,818171024,mocap,-2.78833813477,10.2968291016,1.92295178223,0.151061795803,0.195475259751,0.96900252927,0.00196398118241
2021/03/16/14:15:18.826403,797152,1615900518,828171015,mocap,-2.78823901367,10.2967919922,1.92290014648,0.150736982522,0.195428505922,0.969062600922,0.00193102018285
2021/03/16/14:15:18.834921,797153,1615900518,838171005,mocap,-2.78818701172,10.2968232422,1.92291882324,0.150880921048,0.195439179041,0.969037889957,0.00201032197312
2021/03/16/14:15:18.845468,797154,1615900518,848170996,mocap,-2.78812036133,10.2968134766,1.92293676758,0.150940300439,0.195403966636,0.969036013928,0.00187719974052
2021/03/16/14:15:18.855623,797155,1615900518,858170986,mocap,-2.78807202148,10.2967392578,1.92304589844,0.151084950038,0.194803028417,0.969135115584,0.00149559642892
2021/03/16/14:15:18.865754,797156,1615900518,868170977,mocap,-2.78801049805,10.2967236328,1.92305615234,0.151061583784,0.194760638088,0.96914731615,0.00147189062394
2021/03/16/14:15:18.876255,797157,1615900518,878171206,mocap,-2.7879543457,10.2967285156,1.92307543945,0.151287346653,0.194837525624,0.969096713934,0.00142859755016
2021/03/16/14:15:18.885116,797158,1615900518,888171196,mocap,-2.78788769531,10.2966884766,1.9230645752,0.151171993154,0.19484329852,0.969113620073,0.00138187645745
2021/03/16/14:15:18.895274,797159,1615900518,898171186,mocap,-2.78780517578,10.2966630859,1.92294506836,0.15098390587,0.19541481456,0.969027210382,0.00177924614102
2021/03/16/14:15:18.905171,797160,1615900518,908171177,mocap,-2.78777368164,10.2966367187,1.92305944824,0.151348116774,0.194975738919,0.969059479409,0.00139297027223
2021/03/16/14:15:18.915673,797161,1615900518,918171167,mocap,-2.78769970703,10.2966699219,1.92297851563,0.15088002373,0.195668779744,0.968991803171,0.00195876575042
2021/03/16/14:15:18.925225,797162,1615900518,928171158,mocap,-2.78764941406,10.2966035156,1.92293786621,0.150734069872,0.195703663362,0.969007380965,0.00200201496167
2021/03/16/14:15:18.936077,797163,1615900518,938171148,mocap,-2.78760253906,10.2965585937,1.92290039062,0.150883121934,0.195926267959,0.968939216655,0.00199530645139
2021/03/16/14:15:18.944943,797164,1615900518,948171139,mocap,-2.78755126953,10.2965273438,1.92289746094,0.15067378371,0.196211644013,0.96891336448,0.00230318691947
2021/03/16/14:15:18.956244,797165,1615900518,958171129,mocap,-2.78750854492,10.2964990234,1.92288745117,0.150772264093,0.196246052843,0.968891279624,0.00221229214827
2021/03/16/14:15:18.965550,797166,1615900518,968171120,mocap,-2.78742626953,10.2963828125,1.92283081055,0.150572448503,0.196512769708,0.96886760244,0.00249570305881
2021/03/16/14:15:18.975063,797167,1615900518,978171110,mocap,-2.7873840332,10.2962548828,1.92278405762,0.150797036956,0.196658151765,0.96880325817,0.00246555190521
2021/03/16/14:15:18.985251,797168,1615900518,988171101,mocap,-2.78734521484,10.2961318359,1.92277880859,0.150571971912,0.196669209709,0.968835388543,0.00270012640014
2021/03/16/14:15:18.994948,797169,1615900518,998171091,mocap,-2.78726391602,10.2959726562,1.92271972656,0.150828781191,0.196710919463,0.968787069534,0.00266371809257
2021/03/16/14:15:19.004932,797170,1615900519,8171082,mocap,-2.78718188477,10.2957285156,1.92266381836,0.150922473843,0.196618967987,0.968790984056,0.00272345845804
2021/03/16/14:15:19.016191,797171,1615900519,18171072,mocap,-2.78713085937,10.2954707031,1.92260949707,0.151113378958,0.196726978475,0.968739155739,0.00277477820971
2021/03/16/14:15:19.024790,797172,1615900519,28171062,mocap,-2.78703857422,10.2952402344,1.92260412598,0.151437907207,0.196609750594,0.968712106087,0.00283301575582
2021/03/16/14:15:19.035117,797173,1615900519,38171053,mocap,-2.78696972656,10.2949111328,1.92254394531,0.151790998128,0.196752980046,0.968627568169,0.00289750667036
2021/03/16/14:15:19.046118,797174,1615900519,48171043,mocap,-2.78686572266,10.2945361328,1.92243774414,0.1520688191,0.196757806445,0.968582754157,0.00298067760725
2021/03/16/14:15:19.055193,797175,1615900519,58171034,mocap,-2.78681689453,10.2942148437,1.92243652344,0.152063234892,0.196784160547,0.968577754182,0.00314504741544
2021/03/16/14:15:19.064964,797176,1615900519,68171024,mocap,-2.78674926758,10.2938710938,1.92240441895,0.152416691046,0.196916102093,0.968494535418,0.00339768105373
2021/03/16/14:15:19.075975,797177,1615900519,78171015,mocap,-2.78671606445,10.2934804687,1.92238769531,0.152657617421,0.196931962857,0.968452815648,0.00354900233596
2021/03/16/14:15:19.086032,797178,1615900519,88171005,mocap,-2.78664648437,10.2930654297,1.92234912109,0.152453521097,0.196715914651,0.968527645311,0.00386743522082
2021/03/16/14:15:19.095000,797179,1615900519,98170996,mocap,-2.78663671875,10.2926845703,1.92239733887,0.152140574687,0.196829611523,0.968551838512,0.00432377283385
2021/03/16/14:15:19.106865,797180,1615900519,108170986,mocap,-2.78660351562,10.2922753906,1.92237097168,0.152271413344,0.196951810493,0.968504836224,0.00466685094562
2021/03/16/14:15:19.115147,797181,1615900519,118170977,mocap,-2.78655761719,10.2918496094,1.92237036133,0.152062170602,0.197275439608,0.968469194507,0.00518773752666
2021/03/16/14:15:19.125810,797182,1615900519,128171206,mocap,-2.78651538086,10.2913759766,1.922328125,0.152237306691,0.197366221208,0.968421957403,0.00541144714295
2021/03/16/14:15:19.135174,797183,1615900519,138171196,mocap,-2.78649389648,10.2909267578,1.92231469727,0.152354807642,0.19781163652,0.968308517395,0.0060977460544
2021/03/16/14:15:19.146826,797184,1615900519,148171186,mocap,-2.78648706055,10.2905097656,1.92235180664,0.152356909666,0.198157052308,0.968233932427,0.00664966119148
2021/03/16/14:15:19.156689,797185,1615900519,158171177,mocap,-2.78648901367,10.2900615234,1.92234362793,0.15232888245,0.198687487382,0.968124726223,0.00732766300005
2021/03/16/14:15:19.164729,797186,1615900519,168171167,mocap,-2.78650244141,10.2895761719,1.92234082031,0.15203611156,0.199181825891,0.968063788255,0.0080082720412
2021/03/16/14:15:19.176067,797187,1615900519,178171158,mocap,-2.78655004883,10.2890976563,1.9223963623,0.151591830543,0.199651381783,0.968028746032,0.00892108472102
2021/03/16/14:15:19.184935,797188,1615900519,188171148,mocap,-2.78660717773,10.2885830078,1.92240344238,0.151453831277,0.2001072297,0.967949336414,0.00963940067676
2021/03/16/14:15:19.195009,797189,1615900519,198171139,mocap,-2.78667089844,10.2880419922,1.9224074707,0.151515818408,0.200790943398,0.967790844065,0.0103359384274
2021/03/16/14:15:19.205066,797190,1615900519,208171129,mocap,-2.78674487305,10.2875126953,1.92242651367,0.151346766598,0.201081817716,0.967748454952,0.0110994455821
2021/03/16/14:15:19.214811,797191,1615900519,218171120,mocap,-2.78678857422,10.2869794922,1.92241638184,0.151063903687,0.201754534272,0.967640826304,0.0120842812238
2021/03/16/14:15:19.225478,797192,1615900519,228171110,mocap,-2.78684521484,10.2863876953,1.92238342285,0.150434006697,0.202330650958,0.967606731265,0.0130053740143
2021/03/16/14:15:19.236449,797193,1615900519,238171101,mocap,-2.78688500977,10.2857197266,1.92228149414,0.150061490715,0.20275045106,0.967566844395,0.0137189854049
2021/03/16/14:15:19.246643,797194,1615900519,248171091,mocap,-2.78691772461,10.2850595703,1.92223400879,0.149554898861,0.203064088298,0.967565766349,0.0146562460101
2021/03/16/14:15:19.254906,797195,1615900519,258171082,mocap,-2.78690893555,10.2844306641,1.92208679199,0.148859064666,0.203255219165,0.967618327409,0.0155905152639
2021/03/16/14:15:19.266494,797196,1615900519,268171072,mocap,-2.78692578125,10.2837197266,1.92202612305,0.14828972131,0.20338865655,0.967662516222,0.0165063220162
2021/03/16/14:15:19.276501,797197,1615900519,278171062,mocap,-2.78689599609,10.2829091797,1.92190148926,0.14754164429,0.203431871972,0.967754490856,0.017268079608
2021/03/16/14:15:19.286636,797198,1615900519,288171053,mocap,-2.78684960937,10.2821503906,1.92182873535,0.146885691097,0.203445859007,0.967837557704,0.0180230382618
2021/03/16/14:15:19.294941,797199,1615900519,298171043,mocap,-2.7867644043,10.2814189453,1.92176208496,0.146498579048,0.203468743319,0.967876933056,0.0187852317164
2021/03/16/14:15:19.305020,797200,1615900519,308171034,mocap,-2.78666943359,10.2805722656,1.92171777344,0.146280694012,0.203489885825,0.967893059937,0.0194124454642
2021/03/16/14:15:19.316288,797201,1615900519,318171024,mocap,-2.78648535156,10.279734375,1.92160595703,0.145901876569,0.20339685792,0.967957533986,0.0200140644904
2021/03/16/14:15:19.325191,797202,1615900519,328171015,mocap,-2.78629101562,10.2788574219,1.92148449707,0.145942982513,0.203327961848,0.967956902814,0.0204405513481
2021/03/16/14:15:19.336272,797203,1615900519,338171005,mocap,-2.78601342773,10.2779560547,1.9213380127,0.145381784042,0.203086153989,0.96807565599,0.0212056501297
2021/03/16/14:15:19.345382,797204,1615900519,348170996,mocap,-2.78572680664,10.2770117187,1.92120031738,0.145182894807,0.202739557304,0.968168607189,0.0216366302658
2021/03/16/14:15:19.355051,797205,1615900519,358170986,mocap,-2.78544165039,10.275984375,1.92099987793,0.145148468824,0.202523783355,0.968210723965,0.0220006890356
2021/03/16/14:15:19.366219,797206,1615900519,368170977,mocap,-2.78517919922,10.2749697266,1.92094799805,0.145140587016,0.202114875243,0.968291381751,0.0222617209999
2021/03/16/14:15:19.375282,797207,1615900519,378171206,mocap,-2.78484863281,10.2739609375,1.92076477051,0.144524623392,0.201479120299,0.968507374867,0.0226331245593
2021/03/16/14:15:19.386216,797208,1615900519,388171196,mocap,-2.78450683594,10.272875,1.92058435059,0.144442138225,0.201185758467,0.968578677256,0.0227179903365
2021/03/16/14:15:19.395010,797209,1615900519,398171186,mocap,-2.78412890625,10.2716914062,1.92031774902,0.144332518559,0.200614564636,0.968711167757,0.0228168078633
2021/03/16/14:15:19.406322,797210,1615900519,408171177,mocap,-2.78379052734,10.2705839844,1.92025939941,0.14406983649,0.199927018127,0.968894055638,0.0227457971945
2021/03/16/14:15:19.415168,797211,1615900519,418171167,mocap,-2.7833894043,10.2694462891,1.91998681641,0.143997713587,0.199389065668,0.96901306303,0.0228547782174
2021/03/16/14:15:19.425008,797212,1615900519,428171158,mocap,-2.7829543457,10.2682832031,1.91961132813,0.144091057916,0.198710617184,0.969141750189,0.0227185602606
2021/03/16/14:15:19.436183,797213,1615900519,438171148,mocap,-2.78248217773,10.2670175781,1.91908569336,0.143873273906,0.198135187361,0.969288276517,0.0228724068065
2021/03/16/14:15:19.446022,797214,1615900519,448171139,mocap,-2.78204443359,10.2658183594,1.91862084961,0.143903453628,0.197198331551,0.969475067195,0.0228629514985
2021/03/16/14:15:19.455906,797215,1615900519,458171129,mocap,-2.78164282227,10.2646210937,1.91820458984,0.144040962972,0.196304362939,0.969641529054,0.0226297080165
2021/03/16/14:15:19.464958,797216,1615900519,468171120,mocap,-2.78118798828,10.2633505859,1.9175333252,0.144463370495,0.195739301901,0.969688491612,0.0228185915734
2021/03/16/14:15:19.475997,797217,1615900519,478171110,mocap,-2.7807512207,10.262046875,1.91676464844,0.144071444995,0.195154304465,0.969862814068,0.0228980641936
2021/03/16/14:15:19.485831,797218,1615900519,488171101,mocap,-2.78031225586,10.2608261719,1.9160559082,0.143740760059,0.194623049178,0.970010237677,0.0232506962626
2021/03/16/14:15:19.495033,797219,1615900519,498171091,mocap,-2.77986157227,10.2596025391,1.91536547852,0.143405229875,0.193974650025,0.970184417847,0.0234727015665
2021/03/16/14:15:19.506780,797220,1615900519,508171082,mocap,-2.77936547852,10.2582714844,1.91460876465,0.143321099172,0.193560214966,0.970275608228,0.0236381020313
2021/03/16/14:15:19.514902,797221,1615900519,518171072,mocap,-2.77885327148,10.256921875,1.91392382812,0.143304035931,0.193184934891,0.970351625658,0.0236908844086
2021/03/16/14:15:19.526048,797222,1615900519,528171062,mocap,-2.77831762695,10.2555839844,1.91332409668,0.143422796096,0.192586390692,0.97045021677,0.0238064787452
2021/03/16/14:15:19.535179,797223,1615900519,538171053,mocap,-2.77776806641,10.2541533203,1.91271594238,0.143414100091,0.192159352246,0.97053914057,0.0236845664633
2021/03/16/14:15:19.546797,797224,1615900519,548171043,mocap,-2.77720483398,10.2526425781,1.91208068848,0.143608288847,0.191822020359,0.970575420184,0.0237553610242
2021/03/16/14:15:19.554961,797225,1615900519,558171034,mocap,-2.77660473633,10.2510390625,1.91147509766,0.143914498286,0.191334660166,0.970626651507,0.0237397047436
2021/03/16/14:15:19.564962,797226,1615900519,568171024,mocap,-2.7760637207,10.2494628906,1.91097546387,0.144459156568,0.190639627845,0.970691197282,0.0233813814015
2021/03/16/14:15:19.575559,797227,1615900519,578171015,mocap,-2.77547851563,10.2477773438,1.91037939453,0.145335496034,0.19019473954,0.970655620495,0.0230481345212
2021/03/16/14:15:19.585973,797228,1615900519,588171005,mocap,-2.77493383789,10.2459882812,1.90990490723,0.145611121267,0.189680590825,0.970717009785,0.0229599981451
2021/03/16/14:15:19.596441,797229,1615900519,598170996,mocap,-2.77440820313,10.2441787109,1.90950097656,0.146040055318,0.189199902629,0.970754011881,0.0226351701311
2021/03/16/14:15:19.604960,797230,1615900519,608170986,mocap,-2.77392504883,10.2422841797,1.90917419434,0.14635450031,0.188793868173,0.970787367053,0.022563790661
2021/03/16/14:15:19.616654,797231,1615900519,618170977,mocap,-2.77346557617,10.2402734375,1.90893322754,0.146829599797,0.188260918042,0.97082633881,0.0222509856661
2021/03/16/14:15:19.625135,797232,1615900519,628171206,mocap,-2.77305737305,10.2381289062,1.90879455566,0.146702857432,0.18781559716,0.970931711281,0.0222526906152
2021/03/16/14:15:19.636500,797233,1615900519,638171196,mocap,-2.77269213867,10.2358916016,1.90873120117,0.146495627854,0.187131737428,0.971099411878,0.0220606149488
2021/03/16/14:15:19.644927,797234,1615900519,648171186,mocap,-2.77235888672,10.233546875,1.90877062988,0.146360743172,0.186077001528,0.971326639264,0.0218734107
2021/03/16/14:15:19.656253,797235,1615900519,658171177,mocap,-2.77206030273,10.2310322266,1.90886657715,0.146176582689,0.185213170358,0.971520776071,0.0218147538996
2021/03/16/14:15:19.664908,797236,1615900519,668171167,mocap,-2.77179150391,10.2283916016,1.90905786133,0.145993594391,0.183982027091,0.971783487728,0.0217563695299
2021/03/16/14:15:19.676567,797237,1615900519,678171158,mocap,-2.77154956055,10.2256806641,1.90921594238,0.145896589358,0.182824224423,0.972019032786,0.021644654206
2021/03/16/14:15:19.684536,797238,1615900519,688171148,mocap,-2.77131494141,10.2229394531,1.90949975586,0.145330965163,0.181788781562,0.972297694289,0.0216549329186
2021/03/16/14:15:19.696319,797239,1615900519,698171139,mocap,-2.77107543945,10.2200917969,1.90973010254,0.14524770914,0.181209572176,0.97242028465,0.0215635864388
2021/03/16/14:15:19.704487,797240,1615900519,708171129,mocap,-2.77087670898,10.2171074219,1.91000512695,0.145165739324,0.180012129142,0.972666200334,0.0210476561961
2021/03/16/14:15:19.716319,797241,1615900519,718171120,mocap,-2.77064599609,10.2142714844,1.91033239746,0.142880558669,0.179556208809,0.973075707314,0.021642312509
2021/03/16/14:15:19.725182,797242,1615900519,728171110,mocap,-2.77038647461,10.2111318359,1.91020715332,0.144543231307,0.179754743254,0.972803663856,0.0211781386204
2021/03/16/14:15:19.735463,797243,1615900519,738171101,mocap,-2.77018994141,10.2079970703,1.91027844238,0.144538318831,0.179874450025,0.972783375288,0.0211274689517
2021/03/16/14:15:19.745188,797244,1615900519,748171091,mocap,-2.77000805664,10.2047597656,1.91027722168,0.144272403887,0.180113849995,0.972778733902,0.0211190653165
2021/03/16/14:15:19.755102,797245,1615900519,758171082,mocap,-2.76984765625,10.2014960938,1.91027087402,0.14405019399,0.180547387713,0.972731958836,0.0210880172476
2021/03/16/14:15:19.766122,797246,1615900519,768171072,mocap,-2.76970703125,10.1981337891,1.91016308594,0.143880086176,0.181186487666,0.972637605297,0.0211203455646
2021/03/16/14:15:19.774959,797247,1615900519,778171062,mocap,-2.76961645508,10.1947119141,1.91025317383,0.141546333414,0.181135134693,0.972979495711,0.0215776294912
2021/03/16/14:15:19.786140,797248,1615900519,788171053,mocap,-2.76947485352,10.1910068359,1.90979150391,0.143026225265,0.182415502568,0.972528755687,0.0213518946893
2021/03/16/14:15:19.795155,797249,1615900519,798171043,mocap,-2.76936621094,10.1871962891,1.90937548828,0.14291626916,0.183233201829,0.972395069031,0.0211747511485
2021/03/16/14:15:19.804816,797250,1615900519,808171034,mocap,-2.76930151367,10.1833730469,1.90908154297,0.142513568441,0.184116907487,0.972282904858,0.0213728646435
2021/03/16/14:15:19.815195,797251,1615900519,818171024,mocap,-2.76927612305,10.1793388672,1.90865197754,0.142505137908,0.184819298181,0.972151997089,0.021321290607
2021/03/16/14:15:19.827005,797252,1615900519,828171015,mocap,-2.7692409668,10.1751894531,1.90811547852,0.142259922655,0.185806372504,0.971995071525,0.0215334023966
2021/03/16/14:15:19.835343,797253,1615900519,838171005,mocap,-2.76925512695,10.1709521484,1.90758740234,0.142260253202,0.186544757405,0.971855124733,0.0214633652708
2021/03/16/14:15:19.847054,797254,1615900519,848170996,mocap,-2.76927050781,10.1665117187,1.90698547363,0.142093446151,0.187168389246,0.971756775832,0.0215919640978
2021/03/16/14:15:19.855002,797255,1615900519,858170986,mocap,-2.7693828125,10.1619189453,1.90642773438,0.142429022698,0.187625334795,0.971622952286,0.0214368951152
2021/03/16/14:15:19.867015,797256,1615900519,868170977,mocap,-2.76940332031,10.1571611328,1.90553820801,0.142181609902,0.188956128535,0.971390333176,0.0219269112845
2021/03/16/14:15:19.874893,797257,1615900519,878171206,mocap,-2.76948291016,10.1523222656,1.90487084961,0.142009716,0.189868499099,0.971227646157,0.0223618556758
2021/03/16/14:15:19.885989,797258,1615900519,888171196,mocap,-2.76961962891,10.1472978516,1.90415185547,0.141954529746,0.190494587834,0.971110490638,0.0224752591146
2021/03/16/14:15:19.894775,797259,1615900519,898171186,mocap,-2.76980664063,10.1421142578,1.90352880859,0.141301016945,0.190951437913,0.971107644237,0.0228366783749
2021/03/16/14:15:19.905363,797260,1615900519,908171177,mocap,-2.77000073242,10.1367294922,1.90276245117,0.141260495641,0.191400665167,0.971022386453,0.0229516478609
2021/03/16/14:15:19.917103,797261,1615900519,918171167,mocap,-2.77021264648,10.1311503906,1.90196862793,0.141385089915,0.191886597401,0.970898222938,0.0233759600309
2021/03/16/14:15:19.925109,797262,1615900519,928171158,mocap,-2.77045654297,10.1253994141,1.90119177246,0.141230215727,0.19206708364,0.970872369208,0.0238976459006
2021/03/16/14:15:19.935851,797263,1615900519,938171148,mocap,-2.77073974609,10.1194892578,1.90045410156,0.141037525712,0.192264785427,0.970855892756,0.0241143547044
2021/03/16/14:15:19.945082,797264,1615900519,948171139,mocap,-2.77112841797,10.1134560547,1.89973986816,0.141081273998,0.192400728252,0.970819523854,0.0242383131218
2021/03/16/14:15:19.955904,797265,1615900519,958171129,mocap,-2.7714921875,10.1072646484,1.89901513672,0.141599326724,0.192694471154,0.970679515037,0.0244894980745
2021/03/16/14:15:19.966541,797266,1615900519,968171120,mocap,-2.77189282227,10.1009208984,1.89831994629,0.141433121805,0.192347104811,0.970764411511,0.024813796055
2021/03/16/14:15:19.975184,797267,1615900519,978171110,mocap,-2.7723293457,10.0944433594,1.8976295166,0.141480817045,0.192506726884,0.970717048161,0.0251546621474
2021/03/16/14:15:19.986525,797268,1615900519,988171101,mocap,-2.77284838867,10.0878583984,1.89694836426,0.141713280593,0.192526610132,0.970666834807,0.0256270283812
2021/03/16/14:15:19.994853,797269,1615900519,998171091,mocap,-2.77334130859,10.0811474609,1.89627355957,0.141562531882,0.192365357742,0.970711921023,0.025961058175
2021/03/16/14:15:20.006407,797270,1615900520,8171082,mocap,-2.77390161133,10.0743310547,1.89566357422,0.141596362047,0.192562090742,0.970659427695,0.0262791357958
2021/03/16/14:15:20.014953,797271,1615900520,18171072,mocap,-2.77453710938,10.0674111328,1.8950871582,0.141531413707,0.192401419705,0.970692195102,0.0265935415102
2021/03/16/14:15:20.027137,797272,1615900520,28171062,mocap,-2.77513305664,10.0604404297,1.89449987793,0.141613444868,0.192891580092,0.970573378245,0.0269404505301
2021/03/16/14:15:20.035320,797273,1615900520,38171053,mocap,-2.77575439453,10.0533789062,1.8939251709,0.141363970303,0.193217267279,0.970532246829,0.0273946930904
2021/03/16/14:15:20.046897,797274,1615900520,48171043,mocap,-2.7764675293,10.0462363281,1.89337329102,0.141891142397,0.193766058376,0.970341490345,0.0275504765433
2021/03/16/14:15:20.055107,797275,1615900520,58171034,mocap,-2.77718115234,10.0389785156,1.89285241699,0.141445881464,0.194209061883,0.970307328952,0.0279212743625
2021/03/16/14:15:20.066891,797276,1615900520,68171024,mocap,-2.77791552734,10.03165625,1.89235461426,0.141696962983,0.194979109416,0.970110414872,0.0281231410706
2021/03/16/14:15:20.075123,797277,1615900520,78171015,mocap,-2.77868359375,10.0242070313,1.89189562988,0.141706912099,0.195599174262,0.969978422743,0.0283190365898
2021/03/16/14:15:20.086838,797278,1615900520,88171005,mocap,-2.77946704102,10.0166865234,1.89152062988,0.141528305577,0.196125724529,0.969892428101,0.0285154403792
2021/03/16/14:15:20.094892,797279,1615900520,98170996,mocap,-2.78032666016,10.0090791016,1.89120092773,0.141829834535,0.196567860571,0.969765192743,0.0282993292518
2021/03/16/14:15:20.105711,797280,1615900520,108170986,mocap,-2.78118139648,10.001421875,1.89093725586,0.141830538933,0.19696883889,0.9696887759,0.0281254582037
2021/03/16/14:15:20.116778,797281,1615900520,118170977,mocap,-2.78203027344,9.99363183594,1.89077941895,0.141707523745,0.197409040849,0.969621443261,0.0279802287734
2021/03/16/14:15:20.124760,797282,1615900520,128171206,mocap,-2.7829140625,9.98578515625,1.89079797363,0.141948814915,0.198227250433,0.969429562236,0.0276192054493
2021/03/16/14:15:20.136047,797283,1615900520,138171196,mocap,-2.78386889648,9.97789453125,1.89122631836,0.142036058632,0.199288172892,0.969205226383,0.0274080733779
2021/03/16/14:15:20.145099,797284,1615900520,148171186,mocap,-2.78484619141,9.96992480469,1.89200964355,0.142106220961,0.200319709431,0.968992779674,0.0270338924731
2021/03/16/14:15:20.156851,797285,1615900520,158171177,mocap,-2.78580688477,9.96182128906,1.89298254395,0.14219890525,0.20138993558,0.968765427866,0.0267415349636
2021/03/16/14:15:20.165165,797286,1615900520,168171167,mocap,-2.78679248047,9.95356054687,1.89399719238,0.142639423524,0.20186816487,0.968627760466,0.0257582976904
2021/03/16/14:15:20.176893,797287,1615900520,178171158,mocap,-2.78769116211,9.94520410156,1.8951595459,0.143274229273,0.202158557989,0.968499720453,0.0247528903747
2021/03/16/14:15:20.184896,797288,1615900520,188171148,mocap,-2.78866357422,9.93683398437,1.89655200195,0.143834964048,0.202350665824,0.968406231706,0.0235600918178
2021/03/16/14:15:20.196547,797289,1615900520,198171139,mocap,-2.78960888672,9.92837304688,1.89818054199,0.144708758311,0.202634771435,0.968247013875,0.0222765361591
2021/03/16/14:15:20.204900,797290,1615900520,208171129,mocap,-2.79056420898,9.91988867188,1.90000866699,0.145167405477,0.202550907527,0.968226437448,0.0209075968543
2021/03/16/14:15:20.216553,797291,1615900520,218171120,mocap,-2.79155444336,9.91142578125,1.90185241699,0.145770977601,0.202567888558,0.968158402849,0.0196563502069
2021/03/16/14:15:20.224882,797292,1615900520,228171110,mocap,-2.79246264648,9.90293066406,1.90370397949,0.146360393183,0.202107229331,0.968193678935,0.0182289918591
2021/03/16/14:15:20.236762,797293,1615900520,238171101,mocap,-2.79338305664,9.89439453125,1.90542810059,0.146945770279,0.201658422035,0.968224859955,0.0167762926138
2021/03/16/14:15:20.244920,797294,1615900520,248171091,mocap,-2.79420996094,9.88605664063,1.90698095703,0.147633506877,0.201112653532,0.968269805951,0.0145476492494
2021/03/16/14:15:20.255420,797295,1615900520,258171082,mocap,-2.79505664062,9.87773730469,1.90835400391,0.14808899146,0.200673246255,0.968312203019,0.013090706344
2021/03/16/14:15:20.265245,797296,1615900520,268171072,mocap,-2.79594238281,9.86962695312,1.90955700684,0.148605100738,0.20066811729,0.968252892774,0.0116262009615
2021/03/16/14:15:20.276135,797297,1615900520,278171062,mocap,-2.79675073242,9.86155371094,1.91052746582,0.149158113651,0.200817310943,0.968150206977,0.0104617203311
2021/03/16/14:15:20.285182,797298,1615900520,288171053,mocap,-2.79763818359,9.85365625,1.91133215332,0.149467690665,0.201337832747,0.968003439108,0.0095831530578
2021/03/16/14:15:20.296418,797299,1615900520,298171043,mocap,-2.79842138672,9.84582714844,1.9119017334,0.149439536104,0.202144671233,0.967847234258,0.00878026123491
2021/03/16/14:15:20.304972,797300,1615900520,308171034,mocap,-2.79924511719,9.83819628906,1.91243933105,0.148921978538,0.203234284997,0.967703992891,0.00818795949969
2021/03/16/14:15:20.314840,797301,1615900520,318171024,mocap,-2.80007788086,9.8305078125,1.91269018555,0.14857575144,0.20442836704,0.967511631479,0.00745191374213
2021/03/16/14:15:20.325513,797302,1615900520,328171015,mocap,-2.80086303711,9.82285644531,1.9129152832,0.148112394002,0.205609828049,0.967336238338,0.00692191775302
2021/03/16/14:15:20.335172,797303,1615900520,338171005,mocap,-2.80158496094,9.81529394531,1.91307458496,0.147665269797,0.206715503999,0.967175272863,0.00597207573785
2021/03/16/14:15:20.346422,797304,1615900520,348170996,mocap,-2.80225512695,9.807640625,1.91311425781,0.147157551607,0.20758515826,0.967070769999,0.00521363317076
2021/03/16/14:15:20.354759,797305,1615900520,358170986,mocap,-2.80294189453,9.79998046875,1.91325036621,0.146919850294,0.208461786715,0.966924423898,0.00392351791712
2021/03/16/14:15:20.366317,797306,1615900520,368170977,mocap,-2.80349853516,9.79231542969,1.91338208008,0.146801065103,0.209107553895,0.966807070592,0.00274920213419
2021/03/16/14:15:20.374894,797307,1615900520,378171206,mocap,-2.80398876953,9.78459082031,1.91361486816,0.147195053082,0.209317151873,0.96670487862,0.00127397579982
2021/03/16/14:15:20.386250,797308,1615900520,388171196,mocap,-2.80449560547,9.77681445313,1.91394848633,0.147024980351,0.209530471747,0.966685356105,-0.000248374111424
2021/03/16/14:15:20.395143,797309,1615900520,398171186,mocap,-2.8048269043,9.76883300781,1.91422241211,0.146408886266,0.209869031019,0.966704639697,-0.0012568526555
2021/03/16/14:15:20.405968,797310,1615900520,408171177,mocap,-2.80522070312,9.76088183594,1.9146550293,0.146805134557,0.209487753916,0.966723784179,-0.00287349249485
2021/03/16/14:15:20.415289,797311,1615900520,418171167,mocap,-2.80560131836,9.75287109375,1.91527563477,0.147533922468,0.208554661731,0.966808812231,-0.00440559727374
2021/03/16/14:15:20.426071,797312,1615900520,428171158,mocap,-2.8059362793,9.74478027344,1.91604199219,0.148068845712,0.206986369903,0.967055815882,-0.00594158753175
2021/03/16/14:15:20.435593,797313,1615900520,438171148,mocap,-2.80620385742,9.73662109375,1.91678967285,0.148555852762,0.205761885958,0.96723473392,-0.00708340130146
2021/03/16/14:15:20.445145,797314,1615900520,448171139,mocap,-2.80652099609,9.72844921875,1.91760571289,0.148895283378,0.204154966675,0.967513456559,-0.00828571394355
2021/03/16/14:15:20.454928,797315,1615900520,458171129,mocap,-2.80676733398,9.72026855469,1.9184753418,0.149560120505,0.2025611678,0.967732995475,-0.00967465362684
2021/03/16/14:15:20.467004,797316,1615900520,468171120,mocap,-2.80705151367,9.71207421875,1.91940869141,0.149755113912,0.200656842195,0.968090009445,-0.0105814401543
2021/03/16/14:15:20.474680,797317,1615900520,478171110,mocap,-2.80730126953,9.70384570312,1.92028381348,0.150205484532,0.199145187007,0.968322405738,-0.0114558162817
2021/03/16/14:15:20.487104,797318,1615900520,488171101,mocap,-2.80753100586,9.69568164063,1.92112414551,0.150685009978,0.197795428835,0.968515783114,-0.0121724646269
2021/03/16/14:15:20.495138,797319,1615900520,498171091,mocap,-2.80772875977,9.68752832031,1.92191699219,0.151205298703,0.196309937769,0.968727103855,-0.0129295807384
2021/03/16/14:15:20.506775,797320,1615900520,508171082,mocap,-2.80793237305,9.67931640625,1.92256787109,0.152014784424,0.195174834236,0.968815001491,-0.013992154233
2021/03/16/14:15:20.515192,797321,1615900520,518171072,mocap,-2.80812695312,9.67119824219,1.92327185059,0.152177006846,0.194094795086,0.96899575531,-0.0147176575637
2021/03/16/14:15:20.526836,797322,1615900520,528171062,mocap,-2.80826733398,9.66306445312,1.92374328613,0.152859643206,0.193505783182,0.968991357209,-0.0156583776858
2021/03/16/14:15:20.534867,797323,1615900520,538171053,mocap,-2.80836108398,9.65498339844,1.92413134766,0.153595819182,0.19324379791,0.968916317291,-0.0163196196599
2021/03/16/14:15:20.546693,797324,1615900520,548171043,mocap,-2.8084855957,9.64683496094,1.92438684082,0.154528919324,0.192954650435,0.968806980365,-0.0173880680528
2021/03/16/14:15:20.555000,797325,1615900520,558171034,mocap,-2.80859667969,9.63865234375,1.9244744873,0.155577586311,0.193077075404,0.96860099231,-0.0181375597111
2021/03/16/14:15:20.566688,797326,1615900520,568171024,mocap,-2.80871704102,9.6305234375,1.92445056152,0.156066983253,0.193493428206,0.96842620422,-0.0188171928267
2021/03/16/14:15:20.574813,797327,1615900520,578171015,mocap,-2.80879199219,9.62230175781,1.92425817871,0.156771936731,0.193879852216,0.968219288691,-0.0196103697909
2021/03/16/14:15:20.586621,797328,1615900520,588171005,mocap,-2.80889819336,9.61405566406,1.92395739746,0.157505065091,0.194252541963,0.968010412433,-0.0203455334894
2021/03/16/14:15:20.595105,797329,1615900520,598170996,mocap,-2.80897485352,9.60572070312,1.92342138672,0.158103166078,0.195050602837,0.967737853534,-0.0210259269715
2021/03/16/14:15:20.606465,797330,1615900520,608170986,mocap,-2.80906542969,9.59737109375,1.92270727539,0.159190419303,0.195828876479,0.967386378115,-0.0217499784276
2021/03/16/14:15:20.615230,797331,1615900520,618170977,mocap,-2.80916870117,9.58898144531,1.92186169434,0.159305777803,0.196651920598,0.967190032549,-0.0222064129698
2021/03/16/14:15:20.626204,797332,1615900520,628171206,mocap,-2.80929418945,9.58050683594,1.92088757324,0.159448559445,0.197537768023,0.966973028608,-0.0227626762851
2021/03/16/14:15:20.635042,797333,1615900520,638171196,mocap,-2.80935864258,9.57193066406,1.91967529297,0.159974439093,0.198530147098,0.966677833704,-0.0229765871401
2021/03/16/14:15:20.646424,797334,1615900520,648171186,mocap,-2.80942260742,9.56336425781,1.91830383301,0.160564818464,0.199584514113,0.966350514031,-0.0234871530428
2021/03/16/14:15:20.655139,797335,1615900520,658171177,mocap,-2.80949804687,9.55468652344,1.91679125977,0.160471998087,0.200535870059,0.966155415442,-0.0240378489213
2021/03/16/14:15:20.666328,797336,1615900520,668171167,mocap,-2.80960302734,9.54587207031,1.91506054687,0.161182966535,0.20177884127,0.965775221649,-0.0241573757078
2021/03/16/14:15:20.674999,797337,1615900520,678171158,mocap,-2.8096262207,9.53707421875,1.9133034668,0.161083175106,0.202719276348,0.965586526962,-0.0244900224331
2021/03/16/14:15:20.686299,797338,1615900520,688171148,mocap,-2.80967382813,9.52818652344,1.91142602539,0.161570826566,0.204019805227,0.96522619413,-0.0246817597761
2021/03/16/14:15:20.694767,797339,1615900520,698171139,mocap,-2.80968237305,9.51919433594,1.90944177246,0.161384818098,0.205096377084,0.965026961627,-0.0247664296181
2021/03/16/14:15:20.706314,797340,1615900520,708171129,mocap,-2.80968505859,9.51010449219,1.90744543457,0.16153695966,0.206328341874,0.964734082804,-0.0249518109545
2021/03/16/14:15:20.714983,797341,1615900520,718171120,mocap,-2.80966650391,9.500953125,1.90541418457,0.161689715541,0.207550255144,0.964447951892,-0.0248893118906
2021/03/16/14:15:20.726326,797342,1615900520,728171110,mocap,-2.80962695312,9.49179101562,1.90345544434,0.161468701531,0.208777482102,0.964226992777,-0.0246198705473
2021/03/16/14:15:20.735051,797343,1615900520,738171101,mocap,-2.8095690918,9.48247851563,1.90155200195,0.161781051793,0.210002269065,0.963902489229,-0.0248582826904
2021/03/16/14:15:20.746462,797344,1615900520,748171091,mocap,-2.80946508789,9.4730625,1.89962243652,0.161556846362,0.210894473788,0.963755839834,-0.0244455363373
2021/03/16/14:15:20.755067,797345,1615900520,758171082,mocap,-2.80930126953,9.4635625,1.89789489746,0.161312679558,0.211906259037,0.963581286295,-0.0241880922784
2021/03/16/14:15:20.766337,797346,1615900520,768171072,mocap,-2.80914038086,9.45398242188,1.8963338623,0.16123448968,0.212687761773,0.963433474403,-0.0237337489349
2021/03/16/14:15:20.775102,797347,1615900520,778171062,mocap,-2.80897119141,9.44427539063,1.89504833984,0.161143786041,0.213245438044,0.963331241656,-0.0234941804653
2021/03/16/14:15:20.786164,797348,1615900520,788171053,mocap,-2.8087668457,9.43441992187,1.89397155762,0.160722760794,0.213725487343,0.96330643781,-0.0230285070328
2021/03/16/14:15:20.794737,797349,1615900520,798171043,mocap,-2.80851489258,9.4245546875,1.89311816406,0.160331234535,0.21421311463,0.963276953893,-0.0224529624406
2021/03/16/14:15:20.805978,797350,1615900520,808171034,mocap,-2.80816967773,9.41458203125,1.89247338867,0.159670662489,0.214322424681,0.963375905531,-0.0218637981165
2021/03/16/14:15:20.815081,797351,1615900520,818171024,mocap,-2.80781176758,9.40454980469,1.89200585937,0.159172554962,0.214473454454,0.963442483729,-0.021067159485
2021/03/16/14:15:20.827016,797352,1615900520,828171015,mocap,-2.80741772461,9.39448535156,1.8917644043,0.158971714543,0.214949431932,0.963378457689,-0.0206562356894
2021/03/16/14:15:20.835312,797353,1615900520,838171005,mocap,-2.80697509766,9.38443457031,1.89169921875,0.158144033891,0.215333523342,0.963448662608,-0.0197134679716
2021/03/16/14:15:20.846724,797354,1615900520,848170996,mocap,-2.80652368164,9.37437988281,1.89188244629,0.157480635975,0.215720246269,0.963488178659,-0.0188454628041
2021/03/16/14:15:20.854950,797355,1615900520,858170986,mocap,-2.80604394531,9.36424902344,1.89235705566,0.156746850152,0.216346159878,0.963487614155,-0.0177869751598
2021/03/16/14:15:20.866824,797356,1615900520,868170977,mocap,-2.80553955078,9.35412207031,1.89313757324,0.155965859244,0.217142637257,0.963453434006,-0.0167690979686
2021/03/16/14:15:20.874788,797357,1615900520,878171206,mocap,-2.80501489258,9.34396484375,1.89415625,0.15538828098,0.217674018536,0.963441548,-0.0159029183412
2021/03/16/14:15:20.886832,797358,1615900520,888171196,mocap,-2.80446337891,9.33377539063,1.89532543945,0.154723834377,0.217791820042,0.963538155249,-0.0148820845927
2021/03/16/14:15:20.895054,797359,1615900520,898171186,mocap,-2.80384936523,9.32352832031,1.89649926758,0.154211844355,0.217619711178,0.963671431524,-0.0140617487118
2021/03/16/14:15:20.906576,797360,1615900520,908171177,mocap,-2.80317382812,9.31332519531,1.89776037598,0.153734837663,0.217770221698,0.963727838556,-0.0130526060449
2021/03/16/14:15:20.915626,797361,1615900520,918171167,mocap,-2.80249291992,9.30324316406,1.89924145508,0.153304740532,0.217749789638,0.963813169564,-0.0121188486569
2021/03/16/14:15:20.924974,797362,1615900520,928171158,mocap,-2.80181030273,9.29318847656,1.90074975586,0.153690065836,0.217719235117,0.963768085305,-0.0113483896459
2021/03/16/14:15:20.935166,797363,1615900520,938171148,mocap,-2.80114233398,9.28321875,1.90222485352,0.153715065235,0.217976473473,0.963716814086,-0.0103840867922
2021/03/16/14:15:20.945878,797364,1615900520,948171139,mocap,-2.80046484375,9.27332421875,1.90366052246,0.153997973123,0.217902415671,0.963696032694,-0.0096500926768
2021/03/16/14:15:20.955167,797365,1615900520,958171129,mocap,-2.79979125977,9.26353417969,1.90504309082,0.154112178575,0.218003641106,0.96366441907,-0.00864466260786
2021/03/16/14:15:20.965701,797366,1615900520,968171120,mocap,-2.79916455078,9.25379785156,1.90624841309,0.154961238046,0.218410181831,0.963440457605,-0.00815474780447
2021/03/16/14:15:20.974989,797367,1615900520,978171110,mocap,-2.79856835937,9.24415820313,1.90741589355,0.155222378838,0.218853333612,0.963303931867,-0.00740075030046
2021/03/16/14:15:20.985723,797368,1615900520,988171101,mocap,-2.79799169922,9.2346171875,1.90849841309,0.155748122661,0.219613162034,0.963051316353,-0.00668923591974
2021/03/16/14:15:20.995820,797369,1615900520,998171091,mocap,-2.79742358398,9.22517285156,1.90954602051,0.156555735237,0.220629049915,0.96269172951,-0.00614475312945
2021/03/16/14:15:21.004945,797370,1615900521,8171082,mocap,-2.79696411133,9.21574023437,1.91058056641,0.157172542081,0.221366751978,0.962426419975,-0.00537855859133
2021/03/16/14:15:21.016585,797371,1615900521,18171072,mocap,-2.79649511719,9.20631640625,1.91160424805,0.157976563345,0.222341229778,0.962072361348,-0.00495447059889
2021/03/16/14:15:21.024793,797372,1615900521,28171062,mocap,-2.79609375,9.19684082031,1.91260791016,0.158745834314,0.222973073114,0.961802031679,-0.00442998459375
2021/03/16/14:15:21.036412,797373,1615900521,38171053,mocap,-2.79568920898,9.18738476562,1.9135625,0.159191614117,0.222995076702,0.961725036328,-0.00402310419865
2021/03/16/14:15:21.044959,797374,1615900521,48171043,mocap,-2.79538500977,9.17782910156,1.91454052734,0.160374136288,0.223438526597,0.961427772873,-0.00346380187529
2021/03/16/14:15:21.055296,797375,1615900521,58171034,mocap,-2.79510742188,9.16827636719,1.91551696777,0.160911686488,0.223379150795,0.961352956328,-0.00310870034041
2021/03/16/14:15:21.064850,797376,1615900521,68171024,mocap,-2.79489868164,9.15869824219,1.91649951172,0.161394777679,0.222910612399,0.961382429503,-0.00253037625166
2021/03/16/14:15:21.075423,797377,1615900521,78171015,mocap,-2.79476025391,9.14910839844,1.91744616699,0.162076116097,0.222536391966,0.961355389856,-0.00216776501961
2021/03/16/14:15:21.084927,797378,1615900521,88171005,mocap,-2.79470996094,9.13948339844,1.91834729004,0.162281170385,0.221748271614,0.961504265104,-0.00144384676217
2021/03/16/14:15:21.096402,797379,1615900521,98170996,mocap,-2.79471948242,9.12982714844,1.9191817627,0.162545364921,0.221177945901,0.961591513527,-0.00103694231131
2021/03/16/14:15:21.104845,797380,1615900521,108170986,mocap,-2.7947890625,9.12026660156,1.92008691406,0.161830189542,0.219997585987,0.961983328712,-0.000361214202111
2021/03/16/14:15:21.115318,797381,1615900521,118170977,mocap,-2.79486572266,9.11058398437,1.92059631348,0.162522840227,0.219495241843,0.96198136922,4.52368206016e-05
2021/03/16/14:15:21.125211,797382,1615900521,128171206,mocap,-2.79501635742,9.10093652344,1.92122619629,0.162498476705,0.21844576882,0.962224269361,0.000394053142527
2021/03/16/14:15:21.134889,797383,1615900521,138171196,mocap,-2.79519238281,9.09133496094,1.92182910156,0.161950200414,0.217240289347,0.962589209002,0.000893394691616
2021/03/16/14:15:21.146255,797384,1615900521,148171186,mocap,-2.79541088867,9.08168261719,1.92218054199,0.16231077142,0.216201128253,0.962762239885,0.00107578554182
2021/03/16/14:15:21.154890,797385,1615900521,158171177,mocap,-2.79565869141,9.07206347656,1.92252954102,0.161923549896,0.215163988364,0.963059238427,0.00145507541925
2021/03/16/14:15:21.165180,797386,1615900521,168171167,mocap,-2.79593847656,9.06234277344,1.92264050293,0.161708123904,0.214111855749,0.963328859525,0.00202304891625
2021/03/16/14:15:21.175286,797387,1615900521,178171158,mocap,-2.79624560547,9.05267871094,1.92275939941,0.16174953551,0.213265698577,0.963508763482,0.00238545161022
2021/03/16/14:15:21.185107,797388,1615900521,188171148,mocap,-2.79657763672,9.04302636719,1.92280322266,0.161714695228,0.212266260295,0.963734819624,0.00256788933178
2021/03/16/14:15:21.195180,797389,1615900521,198171139,mocap,-2.79696826172,9.03332324219,1.92270776367,0.161670856907,0.211362538729,0.963939505572,0.00300658682628
2021/03/16/14:15:21.204959,797390,1615900521,208171129,mocap,-2.79737744141,9.02357128906,1.92247888184,0.160972004098,0.210385787963,0.964267574119,0.00372555754818
2021/03/16/14:15:21.216154,797391,1615900521,218171120,mocap,-2.79778735352,9.01386523438,1.9222401123,0.160656792183,0.2097838797,0.964449983625,0.00404535941442
2021/03/16/14:15:21.224785,797392,1615900521,228171110,mocap,-2.79826416016,9.00419726563,1.92187963867,0.160134327222,0.209117023165,0.96468011341,0.0043983418969
2021/03/16/14:15:21.236043,797393,1615900521,238171101,mocap,-2.79874316406,8.99443066406,1.92146594238,0.160148404691,0.208478437214,0.964813926946,0.00482895754043
2021/03/16/14:15:21.245943,797394,1615900521,248171091,mocap,-2.79925073242,8.98471777344,1.92095593262,0.159867543843,0.208010884772,0.964961203094,0.00486949956028
2021/03/16/14:15:21.254696,797395,1615900521,258171082,mocap,-2.79981152344,8.9749375,1.92032116699,0.159579883075,0.207628038783,0.965089426925,0.00522007148624
2021/03/16/14:15:21.266560,797396,1615900521,268171072,mocap,-2.80034155273,8.96519238281,1.91959094238,0.159364643091,0.207485194241,0.965154528277,0.00543537240275
2021/03/16/14:15:21.274948,797397,1615900521,278171062,mocap,-2.80091918945,8.95544335937,1.91880786133,0.158945810534,0.207230041432,0.965277477801,0.00559698948168
2021/03/16/14:15:21.285030,797398,1615900521,288171053,mocap,-2.80158178711,8.94560058594,1.91792333984,0.15879966435,0.207171077838,0.965312727956,0.00584308690666
2021/03/16/14:15:21.294977,797399,1615900521,298171043,mocap,-2.8021784668,8.93589746094,1.91693078613,0.158244077083,0.207055796676,0.965426905846,0.00613176826447
2021/03/16/14:15:21.306654,797400,1615900521,308171034,mocap,-2.80289624023,8.926078125,1.91585778809,0.157952278269,0.207169619376,0.965449100819,0.00631316905093
2021/03/16/14:15:21.314798,797401,1615900521,318171024,mocap,-2.80358276367,8.91627246094,1.91462634277,0.157923757372,0.207233780037,0.965439323055,0.00641506463354
2021/03/16/14:15:21.326917,797402,1615900521,328171015,mocap,-2.80432910156,8.90647167969,1.91335571289,0.157711617075,0.207507354479,0.965414565653,0.00651659070263
2021/03/16/14:15:21.335220,797403,1615900521,338171005,mocap,-2.80511279297,8.89664257813,1.91193884277,0.157180010767,0.207744145106,0.965448660937,0.00676002313456
2021/03/16/14:15:21.346724,797404,1615900521,348170996,mocap,-2.80590185547,8.88686328125,1.91048474121,0.157295308522,0.208013366837,0.965372195684,0.00671945726757
2021/03/16/14:15:21.355062,797405,1615900521,358170986,mocap,-2.80671728516,8.87708984375,1.90892004395,0.156896300839,0.208556476845,0.965318508951,0.00692310682475
2021/03/16/14:15:21.366534,797406,1615900521,368170977,mocap,-2.8075949707,8.86728027344,1.90735351563,0.157034302617,0.208843465452,0.965233064015,0.00705482305643
2021/03/16/14:15:21.374894,797407,1615900521,378171206,mocap,-2.80848095703,8.85742871094,1.90576477051,0.156477275557,0.209583519274,0.965163529257,0.0069977100694
2021/03/16/14:15:21.386541,797408,1615900521,388171196,mocap,-2.80943701172,8.84767382813,1.90430932617,0.156698357058,0.209786746983,0.96508168364,0.00724485923253
2021/03/16/14:15:21.395105,797409,1615900521,398171186,mocap,-2.81038916016,8.83773925781,1.90293115234,0.156266178801,0.210196595722,0.965063494782,0.0071219148811
2021/03/16/14:15:21.406457,797410,1615900521,408171177,mocap,-2.81144604492,8.82778222656,1.90163635254,0.156206319352,0.210306220013,0.965048208466,0.00726956497962
2021/03/16/14:15:21.414907,797411,1615900521,418171167,mocap,-2.81245458984,8.81780078125,1.90050463867,0.155917914887,0.210654206523,0.96502063844,0.0070416343981
2021/03/16/14:15:21.426419,797412,1615900521,428171158,mocap,-2.81355541992,8.80785449219,1.89947631836,0.155945489737,0.210804562774,0.964983153987,0.00706784257794
2021/03/16/14:15:21.436657,797413,1615900521,438171148,mocap,-2.81462426758,8.79783496094,1.8985456543,0.15571567437,0.211085851671,0.964960531357,0.00682292240651
2021/03/16/14:15:21.444954,797414,1615900521,448171139,mocap,-2.81577319336,8.78783496094,1.89766430664,0.155896943541,0.211487653884,0.96484348745,0.00679449023065
2021/03/16/14:15:21.456431,797415,1615900521,458171129,mocap,-2.81687207031,8.777859375,1.89684692383,0.156222658198,0.212107820481,0.964657738551,0.00634073479843
2021/03/16/14:15:21.465048,797416,1615900521,468171120,mocap,-2.81802246094,8.76796289063,1.89613659668,0.156359205368,0.212983494178,0.964444344204,0.00607663805103
2021/03/16/14:15:21.476226,797417,1615900521,478171110,mocap,-2.81914794922,8.75804882813,1.89565197754,0.156427054663,0.213959144291,0.964217874876,0.00599578357054
2021/03/16/14:15:21.484686,797418,1615900521,488171101,mocap,-2.82037597656,8.74817773438,1.89561010742,0.156158103771,0.215313108586,0.963959578364,0.00606987115933
2021/03/16/14:15:21.496111,797419,1615900521,498171091,mocap,-2.82155224609,8.73834765625,1.89606933594,0.156254540269,0.217075850323,0.963548795141,0.00602504358111
2021/03/16/14:15:21.504959,797420,1615900521,508171082,mocap,-2.82282006836,8.72840136719,1.89683215332,0.156309786751,0.218086103513,0.963312099362,0.00595848986653
2021/03/16/14:15:21.516065,797421,1615900521,518171072,mocap,-2.82396337891,8.71832324219,1.89773168945,0.156250707209,0.218912322267,0.963136080704,0.00565678702845
2021/03/16/14:15:21.524733,797422,1615900521,528171062,mocap,-2.82515844727,8.70830273437,1.89892749023,0.156928357532,0.21940259591,0.962917977461,0.00499702635443
2021/03/16/14:15:21.536219,797423,1615900521,538171053,mocap,-2.82621508789,8.69820996094,1.90026428223,0.157082484736,0.219816808867,0.962801273371,0.00440092282856
2021/03/16/14:15:21.544867,797424,1615900521,548171043,mocap,-2.82728955078,8.68813085938,1.90174536133,0.157391558981,0.21999055082,0.962714544759,0.00357107619438
2021/03/16/14:15:21.556241,797425,1615900521,558171034,mocap,-2.82835717773,8.67809667969,1.90333703613,0.158310715423,0.219423860393,0.962696411788,0.00255079436691
2021/03/16/14:15:21.564714,797426,1615900521,568171024,mocap,-2.82936669922,8.6680859375,1.90491650391,0.159142925875,0.219146505231,0.962624890412,0.00128571823153
2021/03/16/14:15:21.575897,797427,1615900521,578171015,mocap,-2.83031201172,8.65809082031,1.90646313477,0.159493524944,0.218213657342,0.9627795668,0.000332820428182
2021/03/16/14:15:21.584802,797428,1615900521,588171005,mocap,-2.83128881836,8.64804589844,1.90788342285,0.160272694247,0.217057606101,0.962910804769,-0.00119785947678
2021/03/16/14:15:21.595997,797429,1615900521,598170996,mocap,-2.83221264648,8.63811425781,1.90935656738,0.160119058237,0.215305024821,0.963328279459,-0.00206483032218
2021/03/16/14:15:21.604912,797430,1615900521,608170986,mocap,-2.83314599609,8.62826367188,1.91068225098,0.159949222066,0.213968714203,0.963651182635,-0.00316578542479
2021/03/16/14:15:21.616954,797431,1615900521,618170977,mocap,-2.83409472656,8.6186015625,1.91196020508,0.15968808189,0.212465529499,0.964024701915,-0.00380693562601
2021/03/16/14:15:21.624978,797432,1615900521,628171206,mocap,-2.83502636719,8.60899511719,1.91315820313,0.159307340359,0.211502154777,0.96429698139,-0.00439824088467
2021/03/16/14:15:21.635972,797433,1615900521,638171196,mocap,-2.83601538086,8.59954589844,1.91437890625,0.157758027205,0.210587170405,0.96475202302,-0.00435604839863
2021/03/16/14:15:21.645811,797434,1615900521,648171186,mocap,-2.83688378906,8.5902890625,1.91559362793,0.156687474669,0.210309157061,0.964986373615,-0.00451548909731
2021/03/16/14:15:21.655955,797435,1615900521,658171177,mocap,-2.83771362305,8.58120214844,1.91674926758,0.154829534027,0.210036208909,0.965344889608,-0.00467476722509
2021/03/16/14:15:21.665931,797436,1615900521,668171167,mocap,-2.83854101563,8.57209179688,1.91790234375,0.153304508224,0.210253536065,0.965542258573,-0.00439669863653
2021/03/16/14:15:21.674933,797437,1615900521,678171158,mocap,-2.83931005859,8.5631015625,1.91905236816,0.152157299943,0.210296765044,0.965715747878,-0.00406389677674
2021/03/16/14:15:21.685058,797438,1615900521,688171148,mocap,-2.8399230957,8.55421972656,1.92019116211,0.150847733707,0.210421796289,0.965893209424,-0.00423578011134
2021/03/16/14:15:21.696591,797439,1615900521,698171139,mocap,-2.84044165039,8.54533496094,1.9213314209,0.150400340019,0.210735115009,0.965893363697,-0.00452277608966
2021/03/16/14:15:21.705281,797440,1615900521,708171129,mocap,-2.84084008789,8.53648339844,1.92247924805,0.14929869053,0.210735642108,0.966063728168,-0.00461043770586
2021/03/16/14:15:21.715397,797441,1615900521,718171120,mocap,-2.8412175293,8.52764648437,1.9235559082,0.14933130469,0.21096434439,0.96600566046,-0.00522251402707
2021/03/16/14:15:21.725590,797442,1615900521,728171110,mocap,-2.8414597168,8.51885351563,1.92456237793,0.149032255082,0.211109799642,0.966015224248,-0.0060517688672
2021/03/16/14:15:21.734990,797443,1615900521,738171101,mocap,-2.84159594727,8.51007324219,1.92548815918,0.149413247115,0.211181277188,0.965936883231,-0.00663944294693
2021/03/16/14:15:21.745793,797444,1615900521,748171091,mocap,-2.84166162109,8.50125683594,1.92631164551,0.149512152835,0.211391516378,0.96587066982,-0.00731996357285
2021/03/16/14:15:21.756618,797445,1615900521,758171082,mocap,-2.8416887207,8.49251464844,1.92709484863,0.149715373282,0.211075104229,0.965903769379,-0.00790706268007
2021/03/16/14:15:21.765290,797446,1615900521,768171072,mocap,-2.84166918945,8.48381445312,1.9278203125,0.14974957763,0.211057736507,0.965896341168,-0.00859980390684
2021/03/16/14:15:21.776313,797447,1615900521,778171062,mocap,-2.84166040039,8.47499121094,1.9283894043,0.150364643489,0.210795023715,0.965847713132,-0.00970130509233
2021/03/16/14:15:21.784998,797448,1615900521,788171053,mocap,-2.84154101562,8.46627636719,1.92896081543,0.150015434027,0.209904818664,0.966089602614,-0.0103065597548
2021/03/16/14:15:21.795431,797449,1615900521,798171043,mocap,-2.84134790039,8.45754296875,1.92949255371,0.149811644094,0.209213983615,0.966268128969,-0.0105767469769
2021/03/16/14:15:21.806557,797450,1615900521,808171034,mocap,-2.84113793945,8.44888183594,1.92980322266,0.15015984447,0.20889127968,0.966278885302,-0.0110256891995
2021/03/16/14:15:21.815096,797451,1615900521,818171024,mocap,-2.84086010742,8.44015332031,1.93001586914,0.150382315001,0.20833282894,0.966354361323,-0.0119094595528
2021/03/16/14:15:21.826414,797452,1615900521,828171015,mocap,-2.84054589844,8.431515625,1.93017321777,0.150994221539,0.208171657391,0.966288515782,-0.0123206236579
2021/03/16/14:15:21.835194,797453,1615900521,838171005,mocap,-2.84015258789,8.42291894531,1.93005334473,0.151768858126,0.208646238238,0.966052876891,-0.0132214749774
2021/03/16/14:15:21.845380,797454,1615900521,848170996,mocap,-2.83969458008,8.41430664062,1.93006030273,0.151953432773,0.208140374689,0.9661263655,-0.0136959774085
2021/03/16/14:15:21.856277,797455,1615900521,858170986,mocap,-2.83927368164,8.40566210937,1.92981030273,0.153218580738,0.2083900363,0.965864976982,-0.0142305984798
2021/03/16/14:15:21.865287,797456,1615900521,868170977,mocap,-2.8387800293,8.39710253906,1.92938378906,0.153822838527,0.208895296257,0.965646448484,-0.0151074058747
2021/03/16/14:15:21.876177,797457,1615900521,878171206,mocap,-2.8382487793,8.38857519531,1.9290189209,0.154618537446,0.209032903988,0.965485309324,-0.015377464507
2021/03/16/14:15:21.885128,797458,1615900521,888171196,mocap,-2.83769506836,8.38008691406,1.92850488281,0.155717299467,0.210440634839,0.964989886626,-0.0161667866464
2021/03/16/14:15:21.896329,797459,1615900521,898171186,mocap,-2.83716308594,8.371390625,1.92766235352,0.156322804136,0.210518571436,0.964866290428,-0.0166779957794
2021/03/16/14:15:21.905099,797460,1615900521,908171177,mocap,-2.83662280273,8.36284277344,1.92706848145,0.15706602071,0.211901059192,0.964439786291,-0.0168556541431
2021/03/16/14:15:21.915138,797461,1615900521,918171167,mocap,-2.83604418945,8.35422363281,1.92618432617,0.15751651965,0.212628180522,0.964199368361,-0.0172447324494
2021/03/16/14:15:21.926212,797462,1615900521,928171158,mocap,-2.83550732422,8.34560839844,1.9253137207,0.157935035712,0.213586785539,0.963917909658,-0.01730508961
2021/03/16/14:15:21.934788,797463,1615900521,938171148,mocap,-2.83493505859,8.33684863281,1.92428417969,0.158798484753,0.214548515076,0.963556937363,-0.0176068051167
