time,.header.seq,.header.stamp.secs,.header.stamp.nsecs,.header.frame_id,.pose.position.x,.pose.position.y,.pose.position.z,.pose.orientation.x,.pose.orientation.y,.pose.orientation.z,.pose.orientation.w
2021/03/16/15:46:26.459948,206890,1615905986,462450027,mocap,-2.80114233398,10.4117919922,1.93127233887,0.127008052406,0.272401994064,0.953647642205,0.0149095478783
2021/03/16/15:46:26.471136,206891,1615905986,472450256,mocap,-2.80114599609,10.4116757813,1.93126806641,0.127165264763,0.272421645092,0.953620039471,0.0149753601125
2021/03/16/15:46:26.481223,206892,1615905986,482450247,mocap,-2.80114916992,10.4115517578,1.93126025391,0.127114715096,0.272424975733,0.953622383352,0.0151933166213
2021/03/16/15:46:26.491111,206893,1615905986,492450237,mocap,-2.80111499023,10.4113632813,1.93109094238,0.127936874295,0.271582766553,0.953761443286,0.0146309592264
2021/03/16/15:46:26.500094,206894,1615905986,502450228,mocap,-2.80111621094,10.4112763672,1.93125646973,0.127080403785,0.272177685791,0.953695236099,0.0153389389174
2021/03/16/15:46:26.512037,206895,1615905986,512450218,mocap,-2.80108935547,10.4111591797,1.93122839355,0.127138698674,0.272171944192,0.953686392502,0.0155064315763
2021/03/16/15:46:26.520317,206896,1615905986,522450209,mocap,-2.80106054688,10.4110166016,1.93120507813,0.126856394588,0.27201378538,0.953766114722,0.0156891167578
2021/03/16/15:46:26.530843,206897,1615905986,532450199,mocap,-2.80100512695,10.4108134766,1.93103051758,0.127850648289,0.271482275519,0.953790315211,0.0153499669132
2021/03/16/15:46:26.540111,206898,1615905986,542450190,mocap,-2.80106811523,10.4107646484,1.93181030273,0.122388588871,0.27065331677,0.954697687248,0.0178923205788
2021/03/16/15:46:26.551158,206899,1615905986,552450180,mocap,-2.80104394531,10.4106425781,1.93182580566,0.122632258386,0.270521571036,0.954702962822,0.0179351305041
2021/03/16/15:46:26.560061,206900,1615905986,562450171,mocap,-2.80098608398,10.410484375,1.93182666016,0.122615370565,0.270433708671,0.954726780584,0.0181066407631
2021/03/16/15:46:26.573965,206901,1615905986,572450161,mocap,-2.80079296875,10.4101015625,1.9308326416,0.130439450505,0.27325685875,0.95292336254,0.0159158734916
2021/03/16/15:46:26.580204,206902,1615905986,582450151,mocap,-2.8007199707,10.4098701172,1.93068713379,0.131287480984,0.272691128686,0.952976598287,0.0154517353155
2021/03/16/15:46:26.591623,206903,1615905986,592450142,mocap,-2.80067260742,10.4097226563,1.93071728516,0.130748846466,0.272553499199,0.953082490192,0.015908462234
2021/03/16/15:46:26.599914,206904,1615905986,602450132,mocap,-2.80062353516,10.4095400391,1.93071765137,0.131103696304,0.272446924435,0.953065237142,0.0158477004874
2021/03/16/15:46:26.610158,206905,1615905986,612450123,mocap,-2.80058300781,10.4093632813,1.93071313477,0.130962272464,0.272468747178,0.953073781623,0.0161255391202
2021/03/16/15:46:26.620915,206906,1615905986,622450113,mocap,-2.80054614258,10.4091855469,1.93071765137,0.130951047796,0.272260389516,0.95313368465,0.0161949288465
2021/03/16/15:46:26.629803,206907,1615905986,632450104,mocap,-2.80048632812,10.4090009766,1.93070959473,0.131049835066,0.272032077328,0.953184391735,0.0162480159289
2021/03/16/15:46:26.640816,206908,1615905986,642450094,mocap,-2.80048510742,10.4089179687,1.93101489258,0.128195960743,0.271377269325,0.953742171414,0.0172060052654
2021/03/16/15:46:26.651412,206909,1615905986,652450085,mocap,-2.80041601563,10.4087177734,1.93097399902,0.128399545706,0.271162552364,0.953775465339,0.0172274687127
2021/03/16/15:46:26.660175,206910,1615905986,662450075,mocap,-2.80037109375,10.4085693359,1.93098486328,0.128249466457,0.270852384449,0.953882572964,0.0172946354309
2021/03/16/15:46:26.670694,206911,1615905986,672450066,mocap,-2.80025341797,10.4083125,1.93065478516,0.131101142453,0.271353965641,0.953365655128,0.0165360521681
2021/03/16/15:46:26.681629,206912,1615905986,682450056,mocap,-2.80030664063,10.4083759766,1.93122570801,0.126301575054,0.270864058812,0.954123404027,0.0181411106259
2021/03/16/15:46:26.691786,206913,1615905986,692450047,mocap,-2.80021630859,10.4081464844,1.93109350586,0.126884029547,0.270205347655,0.954239123764,0.0178103786779
2021/03/16/15:46:26.700050,206914,1615905986,702450037,mocap,-2.8001574707,10.408,1.9310604248,0.127136650374,0.270026171522,0.954255848087,0.0178304632747
2021/03/16/15:46:26.711893,206915,1615905986,712450027,mocap,-2.80011206055,10.4078496094,1.93107141113,0.127010054803,0.269859789519,0.954316363953,0.018012065042
2021/03/16/15:46:26.720401,206916,1615905986,722450256,mocap,-2.80005541992,10.40765625,1.93102441406,0.126893196261,0.269602108901,0.954403231203,0.0180908563441
2021/03/16/15:46:26.731450,206917,1615905986,732450247,mocap,-2.79999731445,10.4075,1.93102050781,0.126789678131,0.269516018242,0.954436018079,0.0183681652455
2021/03/16/15:46:26.740073,206918,1615905986,742450237,mocap,-2.79992993164,10.4073574219,1.93101867676,0.126798137036,0.269294843185,0.954494976979,0.0184896302269
2021/03/16/15:46:26.751465,206919,1615905986,752450228,mocap,-2.79986401367,10.4071816406,1.93096704102,0.126837232871,0.269183750157,0.954518175484,0.0186405391151
2021/03/16/15:46:26.760029,206920,1615905986,762450218,mocap,-2.79979736328,10.4070263672,1.93095397949,0.126823665419,0.269063809818,0.954550849138,0.0187909155827
2021/03/16/15:46:26.771376,206921,1615905986,772450209,mocap,-2.79971240234,10.4069013672,1.93096228027,0.126945770631,0.268955345665,0.954560660382,0.0190194171224
2021/03/16/15:46:26.780352,206922,1615905986,782450199,mocap,-2.79973901367,10.406828125,1.93158251953,0.122517805999,0.267495226662,0.955506913054,0.0210293796286
2021/03/16/15:46:26.791547,206923,1615905986,792450190,mocap,-2.79966137695,10.4067011719,1.93154455566,0.122658673838,0.267353044604,0.955525759465,0.0211593133601
2021/03/16/15:46:26.804932,206924,1615905986,802450180,mocap,-2.79952148438,10.4063701172,1.93092626953,0.128138729382,0.268447459394,0.954527073818,0.019862002471
2021/03/16/15:46:26.811403,206925,1615905986,812450171,mocap,-2.79939282227,10.40621875,1.93040612793,0.131366398344,0.269599967378,0.953788401379,0.018612442399
2021/03/16/15:46:26.819858,206926,1615905986,822450161,mocap,-2.79936401367,10.4061328125,1.9304185791,0.131418162442,0.269679985244,0.953753217439,0.018888447054
2021/03/16/15:46:26.831205,206927,1615905986,832450151,mocap,-2.79930029297,10.406046875,1.9303894043,0.131547122188,0.269692944183,0.953728992573,0.0190284227321
2021/03/16/15:46:26.839999,206928,1615905986,842450142,mocap,-2.79925024414,10.4059404297,1.93037768555,0.131488416201,0.269620822496,0.953755357885,0.0191342607247
2021/03/16/15:46:26.850246,206929,1615905986,852450132,mocap,-2.79921435547,10.4058427734,1.93036218262,0.131818014819,0.269769102651,0.953667822244,0.019139507286
2021/03/16/15:46:26.862075,206930,1615905986,862450123,mocap,-2.79917333984,10.4057382813,1.93034643555,0.131804207648,0.269653800304,0.953698618831,0.0193241970158
2021/03/16/15:46:26.870082,206931,1615905986,872450113,mocap,-2.79915039062,10.4056298828,1.93032849121,0.131785426473,0.269678677744,0.953694353305,0.0193153295324
2021/03/16/15:46:26.882138,206932,1615905986,882450104,mocap,-2.79912329102,10.4055019531,1.93033215332,0.131712607121,0.269524149707,0.953746710143,0.0193837746649
2021/03/16/15:46:26.890266,206933,1615905986,892450094,mocap,-2.79908789063,10.4053339844,1.93021765137,0.132376549234,0.268673544001,0.95390421643,0.0189134854924
2021/03/16/15:46:26.903007,206934,1615905986,902450085,mocap,-2.79912060547,10.4054609375,1.93082263184,0.1275351229,0.268397021691,0.954608903387,0.0204861143351
2021/03/16/15:46:26.909858,206935,1615905986,912450075,mocap,-2.79911743164,10.4053291016,1.9308326416,0.127684346938,0.268300456755,0.954618245749,0.0203858219991
2021/03/16/15:46:26.924095,206936,1615905986,922450066,mocap,-2.79902758789,10.4049257813,1.93023144531,0.132118356658,0.268285182788,0.95404957656,0.0188998023974
2021/03/16/15:46:26.931064,206937,1615905986,932450056,mocap,-2.79904296875,10.4048740234,1.93039135742,0.131628284887,0.268865993437,0.953947626852,0.0192091716633
2021/03/16/15:46:26.941584,206938,1615905986,942450047,mocap,-2.79901782227,10.4047236328,1.93037280273,0.131491498807,0.268881770972,0.953962310031,0.0191959033549
2021/03/16/15:46:26.949997,206939,1615905986,952450037,mocap,-2.79898681641,10.4045976563,1.93038244629,0.131542679934,0.268701172604,0.954009935085,0.0190064450088
2021/03/16/15:46:26.961664,206940,1615905986,962450027,mocap,-2.79896142578,10.4044873047,1.9304119873,0.13116083906,0.268720408961,0.954056761206,0.0190227845225
2021/03/16/15:46:26.970074,206941,1615905986,972450256,mocap,-2.79893847656,10.4043652344,1.93040026855,0.13142800974,0.268688886618,0.954034535485,0.0187363750995
2021/03/16/15:46:26.981814,206942,1615905986,982450247,mocap,-2.79888549805,10.4042451172,1.93041442871,0.131185216934,0.268781850971,0.95404224348,0.0187124701915
2021/03/16/15:46:26.991203,206943,1615905986,992450237,mocap,-2.79888232422,10.4043144531,1.93086962891,0.126844960875,0.2680265981,0.954819408238,0.0197986810239
2021/03/16/15:46:27.000809,206944,1615905987,2450228,mocap,-2.79880932617,10.4042041016,1.93086340332,0.126934262238,0.268217576379,0.954757113814,0.0196441521752
2021/03/16/15:46:27.009993,206945,1615905987,12450218,mocap,-2.79873608398,10.4040878906,1.93087207031,0.126820880568,0.26822346787,0.954773142356,0.0195162964772
2021/03/16/15:46:27.021642,206946,1615905987,22450209,mocap,-2.79864794922,10.4039619141,1.93088232422,0.126785530038,0.26837578483,0.954735801836,0.0194786167251
2021/03/16/15:46:27.030475,206947,1615905987,32450199,mocap,-2.79855639648,10.4038457031,1.93087854004,0.126562552629,0.268586488171,0.954707949618,0.0193892804747
2021/03/16/15:46:27.041897,206948,1615905987,42450190,mocap,-2.79840722656,10.4036992188,1.93071118164,0.127360730182,0.268232057009,0.954712514971,0.0188369115399
2021/03/16/15:46:27.050042,206949,1615905987,52450180,mocap,-2.79832617187,10.4036337891,1.9308581543,0.126372570802,0.269260232705,0.954542458375,0.0194318212177
2021/03/16/15:46:27.061595,206950,1615905987,62450171,mocap,-2.7981496582,10.4034228516,1.9306184082,0.126843662456,0.268792254965,0.954621835938,0.0189358250541
2021/03/16/15:46:27.070001,206951,1615905987,72450161,mocap,-2.79803100586,10.4033544922,1.93078088379,0.126138104798,0.269896697637,0.954393785251,0.019428045286
2021/03/16/15:46:27.081654,206952,1615905987,82450151,mocap,-2.79781835937,10.4031601562,1.93058630371,0.126806596845,0.269613414599,0.95439548709,0.0189193825731
2021/03/16/15:46:27.089973,206953,1615905987,92450142,mocap,-2.79771655273,10.4030429688,1.93123071289,0.122184487291,0.268645843905,0.955229296744,0.0209128597633
2021/03/16/15:46:27.101475,206954,1615905987,102450132,mocap,-2.79749414063,10.4028125,1.93120056152,0.121821202838,0.268955830143,0.955182676307,0.0211757514488
2021/03/16/15:46:27.113952,206955,1615905987,112450123,mocap,-2.79720727539,10.4024257813,1.93073730469,0.126182731794,0.271174104928,0.954006233255,0.0203622275826
2021/03/16/15:46:27.122320,206956,1615905987,122450113,mocap,-2.7969699707,10.4023388672,1.93068347168,0.125131350439,0.272066211411,0.953888110801,0.0204839928661
2021/03/16/15:46:27.130480,206957,1615905987,132450104,mocap,-2.79671606445,10.4020478516,1.93066467285,0.125211117617,0.27250085231,0.953751936294,0.0205599452712
2021/03/16/15:46:27.141511,206958,1615905987,142450094,mocap,-2.79645605469,10.4017246094,1.9306295166,0.124975766531,0.272748603151,0.953706681091,0.0208042573483
2021/03/16/15:46:27.150277,206959,1615905987,152450085,mocap,-2.79622436523,10.4013935547,1.93061560059,0.125150841014,0.272707136942,0.953692197098,0.0209588404356
2021/03/16/15:46:27.161095,206960,1615905987,162450075,mocap,-2.7959152832,10.4010859375,1.93075488281,0.124697968944,0.273642452072,0.953466955972,0.0217023413676
2021/03/16/15:46:27.170058,206961,1615905987,172450066,mocap,-2.7955769043,10.4006533203,1.93071704102,0.124687100397,0.27389070369,0.953385802061,0.0221927017337
2021/03/16/15:46:27.181185,206962,1615905987,182450056,mocap,-2.79521435547,10.4002207031,1.93069641113,0.124687078842,0.27429155301,0.953258809875,0.0226916843956
2021/03/16/15:46:27.190315,206963,1615905987,192450047,mocap,-2.79480908203,10.3997939453,1.93070556641,0.124731316827,0.274609582842,0.953147676855,0.0232636127826
2021/03/16/15:46:27.201310,206964,1615905987,202450037,mocap,-2.79437280273,10.3993027344,1.93067126465,0.124544556197,0.274874961206,0.953080356053,0.0238798375068
2021/03/16/15:46:27.210355,206965,1615905987,212450027,mocap,-2.79395043945,10.3987734375,1.93066552734,0.124486490329,0.275007626576,0.953039376525,0.0242870971757
2021/03/16/15:46:27.219971,206966,1615905987,222450256,mocap,-2.79351489258,10.3981953125,1.93062585449,0.124221255287,0.275036471749,0.953051790959,0.0248254693637
2021/03/16/15:46:27.232186,206967,1615905987,232450247,mocap,-2.79306469727,10.3976386719,1.93062365723,0.123973478651,0.275289492899,0.952996753444,0.0253662056807
2021/03/16/15:46:27.240308,206968,1615905987,242450237,mocap,-2.79257250977,10.3969960937,1.93055981445,0.124194836625,0.275589842107,0.952869381006,0.0258034865897
2021/03/16/15:46:27.252260,206969,1615905987,252450228,mocap,-2.79201977539,10.3962871094,1.9304107666,0.124532176436,0.275463602226,0.952857292601,0.0259716149287
2021/03/16/15:46:27.260307,206970,1615905987,262450218,mocap,-2.79147460937,10.3955800781,1.93031530762,0.125056165975,0.275671723607,0.952714949093,0.0264627310529
2021/03/16/15:46:27.272078,206971,1615905987,272450209,mocap,-2.79095483398,10.3948642578,1.93032336426,0.12509341189,0.275771815924,0.952660619454,0.0271901450988
2021/03/16/15:46:27.281251,206972,1615905987,282450199,mocap,-2.79038916016,10.3940976563,1.93027233887,0.12500983654,0.275584937849,0.952711742738,0.0276734820142
2021/03/16/15:46:27.292341,206973,1615905987,292450190,mocap,-2.78984326172,10.3932705078,1.9301496582,0.124817879223,0.275557744609,0.952733514464,0.0280584414368
2021/03/16/15:46:27.300471,206974,1615905987,302450180,mocap,-2.78919848633,10.3923779297,1.92988635254,0.125663156147,0.275131793704,0.952746456831,0.0280261415332
2021/03/16/15:46:27.312228,206975,1615905987,312450171,mocap,-2.78860229492,10.3914912109,1.92989709473,0.125759490338,0.275244739307,0.952692942326,0.0283028746962
2021/03/16/15:46:27.320359,206976,1615905987,322450161,mocap,-2.78795385742,10.3906064453,1.92985949707,0.126179190563,0.275252973373,0.952625518999,0.0286223542094
2021/03/16/15:46:27.331758,206977,1615905987,332450151,mocap,-2.78729980469,10.3896494141,1.92969580078,0.126384871195,0.275166131109,0.952614514646,0.0289146122886
2021/03/16/15:46:27.340350,206978,1615905987,342450142,mocap,-2.78680151367,10.3887382812,1.93028540039,0.121631688168,0.273787036868,0.953551892533,0.0313875623255
2021/03/16/15:46:27.351842,206979,1615905987,352450132,mocap,-2.78618212891,10.3877412109,1.93021789551,0.121973330098,0.273685645699,0.953526967132,0.0317018293041
2021/03/16/15:46:27.364201,206980,1615905987,362450123,mocap,-2.78540991211,10.386453125,1.92952111816,0.127008323846,0.274599168695,0.952635529956,0.030817892746
2021/03/16/15:46:27.371630,206981,1615905987,372450113,mocap,-2.78461035156,10.3853457031,1.92891516113,0.130504798656,0.27549648158,0.951942578094,0.0295889860252
2021/03/16/15:46:27.379953,206982,1615905987,382450104,mocap,-2.78383007812,10.3841669922,1.92865246582,0.130046376946,0.275321128592,0.952042175623,0.0300317889597
2021/03/16/15:46:27.393144,206983,1615905987,392450094,mocap,-2.78320458984,10.38321875,1.92903039551,0.125577830519,0.274329477286,0.952883572566,0.0314074886982
2021/03/16/15:46:27.400384,206984,1615905987,402450085,mocap,-2.78248706055,10.3819619141,1.92893518066,0.126232473582,0.27443436532,0.952748302375,0.0319656408071
2021/03/16/15:46:27.415693,206985,1615905987,412450075,mocap,-2.78172412109,10.3805234375,1.92842138672,0.129261780687,0.274915810167,0.95220765541,0.0318320679944
2021/03/16/15:46:27.421324,206986,1615905987,422450066,mocap,-2.78096289063,10.3793867188,1.92863024902,0.125890275228,0.273407159098,0.953058709513,0.032852240894
2021/03/16/15:46:27.431601,206987,1615905987,432450056,mocap,-2.78016503906,10.3780390625,1.92855200195,0.126201205559,0.272770341737,0.953196538523,0.0329539020356
2021/03/16/15:46:27.439991,206988,1615905987,442450047,mocap,-2.77939135742,10.3766347656,1.92836767578,0.12582628277,0.272506962416,0.953308189485,0.0333344730381
2021/03/16/15:46:27.451929,206989,1615905987,452450037,mocap,-2.77858886719,10.3752265625,1.92829907227,0.125784680235,0.272000798708,0.953442356556,0.0337852917319
2021/03/16/15:46:27.464965,206990,1615905987,462450027,mocap,-2.77774951172,10.3735849609,1.92784265137,0.128940230742,0.272693171235,0.952823341035,0.0337719207465
2021/03/16/15:46:27.469973,206991,1615905987,472450256,mocap,-2.77688549805,10.3720683594,1.92764318848,0.129189975454,0.272209795114,0.952917905103,0.0340476872134
2021/03/16/15:46:27.483044,206992,1615905987,482450247,mocap,-2.77602954102,10.370609375,1.92783215332,0.126076885602,0.270195895305,0.953884970875,0.0346738059042
2021/03/16/15:46:27.494953,206993,1615905987,492450237,mocap,-2.77517382812,10.3688574219,1.92726416016,0.12962442684,0.270694370738,0.953284922457,0.0342041813343
2021/03/16/15:46:27.501553,206994,1615905987,502450228,mocap,-2.77425463867,10.3672490234,1.92718994141,0.128690911898,0.270193276233,0.953524326096,0.0350085158954
2021/03/16/15:46:27.510374,206995,1615905987,512450218,mocap,-2.77340722656,10.3655664063,1.92695166016,0.129051163345,0.26972915621,0.953590896742,0.0354455806544
2021/03/16/15:46:27.521567,206996,1615905987,522450209,mocap,-2.77248974609,10.3637919922,1.92646813965,0.129926014486,0.268864671714,0.953712946483,0.0355335559578
2021/03/16/15:46:27.530194,206997,1615905987,532450199,mocap,-2.77163549805,10.362078125,1.92624829102,0.129928589578,0.268212452686,0.95389010254,0.0356977346899
2021/03/16/15:46:27.541274,206998,1615905987,542450190,mocap,-2.77067236328,10.3603544922,1.92592993164,0.128792074193,0.268127789329,0.954029021927,0.0367247771153
2021/03/16/15:46:27.550566,206999,1615905987,552450180,mocap,-2.7696418457,10.3584492187,1.9252010498,0.130381571426,0.266706609542,0.954229980697,0.0362405284332
2021/03/16/15:46:27.561762,207000,1615905987,562450171,mocap,-2.76884472656,10.3566640625,1.92482214355,0.129912655413,0.266756579369,0.954231799948,0.037487078901
2021/03/16/15:46:27.570143,207001,1615905987,572450161,mocap,-2.76789306641,10.3547998047,1.92416723633,0.129921669928,0.266439980345,0.954298922411,0.037995514615
2021/03/16/15:46:27.581518,207002,1615905987,582450151,mocap,-2.76684936523,10.35284375,1.92330041504,0.130654387672,0.265558600299,0.954441154588,0.0380808232662
2021/03/16/15:46:27.591192,207003,1615905987,592450142,mocap,-2.76590429688,10.3509726563,1.92258337402,0.129963832169,0.265849181186,0.954410178992,0.0391769573978
2021/03/16/15:46:27.600733,207004,1615905987,602450132,mocap,-2.76498461914,10.3490332031,1.92168469238,0.130281326761,0.265615101779,0.954411084543,0.0396846799305
2021/03/16/15:46:27.611238,207005,1615905987,612450123,mocap,-2.76405688477,10.3470722656,1.92072119141,0.130101869051,0.265615044651,0.954400967305,0.0405086601141
2021/03/16/15:46:27.620481,207006,1615905987,622450113,mocap,-2.76309716797,10.3450507813,1.91965917969,0.130748305309,0.265501962416,0.954321594793,0.0410353042562
2021/03/16/15:46:27.630455,207007,1615905987,632450104,mocap,-2.76215942383,10.3429970703,1.91870556641,0.130798928494,0.265455311659,0.954286211901,0.0419873957854
2021/03/16/15:46:27.640041,207008,1615905987,642450094,mocap,-2.76123217773,10.3409091797,1.91769665527,0.131074691593,0.265825932912,0.954121436202,0.0425238641757
2021/03/16/15:46:27.651211,207009,1615905987,652450085,mocap,-2.76037670898,10.3387060547,1.91677832031,0.131087509427,0.265709546339,0.954118000307,0.043282050387
2021/03/16/15:46:27.659936,207010,1615905987,662450075,mocap,-2.75943212891,10.3364033203,1.91578173828,0.131479729123,0.26539957048,0.954131205009,0.0437012241561
2021/03/16/15:46:27.670350,207011,1615905987,672450066,mocap,-2.75863012695,10.3341064453,1.91502307129,0.131077691662,0.265421774119,0.954130463177,0.0447771863834
2021/03/16/15:46:27.681030,207012,1615905987,682450056,mocap,-2.75772558594,10.3316845703,1.91430102539,0.13138369566,0.264941956597,0.954200739474,0.0452220001027
2021/03/16/15:46:27.690107,207013,1615905987,692450047,mocap,-2.7568840332,10.3291894531,1.91352539063,0.131676441562,0.26436052521,0.954294034975,0.04580087723
2021/03/16/15:46:27.700081,207014,1615905987,702450037,mocap,-2.75605932617,10.3266220703,1.9128605957,0.132149206617,0.263992598028,0.954299320588,0.0464467074548
2021/03/16/15:46:27.709969,207015,1615905987,712450027,mocap,-2.75531103516,10.3240546875,1.91256420898,0.133283856919,0.263480141629,0.954260111103,0.0469177247207
2021/03/16/15:46:27.722082,207016,1615905987,722450256,mocap,-2.75441333008,10.3211943359,1.9117824707,0.1339193125,0.262155817793,0.954533958263,0.0469560605343
2021/03/16/15:46:27.730338,207017,1615905987,732450247,mocap,-2.75359887695,10.3183847656,1.91144470215,0.1342997482,0.261483881054,0.95463996619,0.0474582100085
2021/03/16/15:46:27.741851,207018,1615905987,742450237,mocap,-2.75281616211,10.3154970703,1.91128540039,0.134671731183,0.260350383549,0.954878023557,0.047845319654
2021/03/16/15:46:27.750170,207019,1615905987,752450228,mocap,-2.75209057617,10.312484375,1.91117956543,0.135200723029,0.259086091459,0.955121989111,0.048344068055
2021/03/16/15:46:27.760841,207020,1615905987,762450218,mocap,-2.75144604492,10.3094755859,1.91137963867,0.137140026422,0.258332572693,0.955048121818,0.0483735089264
2021/03/16/15:46:27.769900,207021,1615905987,772450209,mocap,-2.75075317383,10.3063056641,1.91146643066,0.137792939225,0.256967959954,0.955314840926,0.0485194677419
2021/03/16/15:46:27.780989,207022,1615905987,782450199,mocap,-2.7500625,10.3029990234,1.91140002441,0.137178655226,0.255417515854,0.955772732392,0.0494206874334
2021/03/16/15:46:27.789963,207023,1615905987,792450190,mocap,-2.74939013672,10.2996962891,1.91159301758,0.137706561076,0.254204264982,0.956000695735,0.0497971247355
2021/03/16/15:46:27.801823,207024,1615905987,802450180,mocap,-2.74881445313,10.2963271484,1.91179663086,0.138217122922,0.25265646531,0.956314565935,0.0502313669627
2021/03/16/15:46:27.809829,207025,1615905987,812450171,mocap,-2.74824121094,10.2929013672,1.91200244141,0.138975102593,0.251248674543,0.95656120279,0.0505042503973
2021/03/16/15:46:27.821972,207026,1615905987,822450161,mocap,-2.74775708008,10.2894257812,1.91217175293,0.138969176551,0.249908756893,0.956888421748,0.0509679837948
2021/03/16/15:46:27.830137,207027,1615905987,832450151,mocap,-2.74735058594,10.2860566406,1.91258081055,0.140881073057,0.248937113954,0.956859253979,0.0510216466194
2021/03/16/15:46:27.840588,207028,1615905987,842450142,mocap,-2.74688085938,10.2825253906,1.9126517334,0.141621874197,0.248106760442,0.956944995029,0.0514058035031
2021/03/16/15:46:27.850205,207029,1615905987,852450132,mocap,-2.74645092773,10.2788837891,1.91251257324,0.140407180866,0.247237501056,0.957294739243,0.0524043412054
2021/03/16/15:46:27.861788,207030,1615905987,862450123,mocap,-2.74609692383,10.2752558594,1.91241711426,0.141383318552,0.246044008792,0.957448961613,0.0525793152618
2021/03/16/15:46:27.870102,207031,1615905987,872450113,mocap,-2.74578564453,10.2717246094,1.91242333984,0.141275076237,0.246527908325,0.957290528656,0.0534806339891
2021/03/16/15:46:27.881518,207032,1615905987,882450104,mocap,-2.74557250977,10.2680927734,1.91231311035,0.140990142854,0.246313256039,0.957337918096,0.0543661129212
2021/03/16/15:46:27.889988,207033,1615905987,892450094,mocap,-2.74536669922,10.2643945312,1.91205236816,0.140755686879,0.246818570294,0.957197680891,0.055145453723
2021/03/16/15:46:27.901651,207034,1615905987,902450085,mocap,-2.7452355957,10.2607363281,1.91186242676,0.142279681171,0.246841495088,0.956957140797,0.0553064433538
2021/03/16/15:46:27.910158,207035,1615905987,912450075,mocap,-2.7451328125,10.2570195313,1.91160852051,0.141231305575,0.247982884928,0.956734965647,0.0567133917087
2021/03/16/15:46:27.920428,207036,1615905987,922450066,mocap,-2.74504589844,10.2530732422,1.91105810547,0.141199093481,0.248064365492,0.956681744341,0.0573317151943
2021/03/16/15:46:27.930366,207037,1615905987,932450056,mocap,-2.74496508789,10.2491298828,1.91055383301,0.139333500179,0.249098286833,0.956603191947,0.0587073543114
2021/03/16/15:46:27.940279,207038,1615905987,942450047,mocap,-2.74497363281,10.2451894531,1.91023999023,0.140050902389,0.25013088364,0.95619855973,0.0591996612196
2021/03/16/15:46:27.950236,207039,1615905987,952450037,mocap,-2.74493920898,10.2410361328,1.90956628418,0.140037821679,0.25064456703,0.956038828515,0.0596361593881
2021/03/16/15:46:27.961438,207040,1615905987,962450027,mocap,-2.74487353516,10.2367646484,1.90885144043,0.138081908418,0.252087932311,0.955866170656,0.0608681676223
2021/03/16/15:46:27.970653,207041,1615905987,972450256,mocap,-2.74484375,10.2324101562,1.90814819336,0.138427769353,0.252398753523,0.955728064007,0.0609629997231
2021/03/16/15:46:27.980184,207042,1615905987,982450247,mocap,-2.74492016602,10.2280898438,1.90779724121,0.138733085467,0.25398364129,0.95522906275,0.061505020268
2021/03/16/15:46:27.990565,207043,1615905987,992450237,mocap,-2.74491137695,10.2234257813,1.90693164063,0.137546759206,0.254768387706,0.955139595035,0.0623082212375
2021/03/16/15:46:28.001419,207044,1615905988,2450228,mocap,-2.74502514648,10.218796875,1.90644421387,0.138672645799,0.255676647525,0.954720818396,0.0625100314144
2021/03/16/15:46:28.010370,207045,1615905988,12450218,mocap,-2.74512060547,10.2139902344,1.90585498047,0.138171448675,0.256170691049,0.954628563605,0.0630042694067
2021/03/16/15:46:28.020485,207046,1615905988,22450209,mocap,-2.74519360352,10.2090478516,1.90516870117,0.138588889669,0.25694253736,0.954339660485,0.0633202544127
2021/03/16/15:46:28.031106,207047,1615905988,32450199,mocap,-2.74529736328,10.2039404297,1.90452612305,0.138250562875,0.257440579811,0.954228645537,0.063708856526
2021/03/16/15:46:28.040032,207048,1615905988,42450190,mocap,-2.74537646484,10.1986542969,1.90365209961,0.137505996644,0.257883908477,0.954189409723,0.0641135568858
2021/03/16/15:46:28.050166,207049,1615905988,52450180,mocap,-2.74559594727,10.1933808594,1.9032244873,0.138737453791,0.258197582408,0.953938824647,0.0639268719741
2021/03/16/15:46:28.061187,207050,1615905988,62450171,mocap,-2.74582250977,10.1878652344,1.90249389648,0.139457651545,0.258030021822,0.953884791227,0.0638426795256
2021/03/16/15:46:28.071302,207051,1615905988,72450161,mocap,-2.74608642578,10.1823203125,1.9019798584,0.138863788453,0.258919789567,0.953689853389,0.0644442157187
2021/03/16/15:46:28.082208,207052,1615905988,82450151,mocap,-2.74635742187,10.1766054687,1.90138891602,0.139196706666,0.258904391409,0.953661392491,0.0642085586122
2021/03/16/15:46:28.090193,207053,1615905988,92450142,mocap,-2.74664990234,10.1707890625,1.90081689453,0.139954831148,0.259037419551,0.953525795076,0.0640376008833
2021/03/16/15:46:28.101050,207054,1615905988,102450132,mocap,-2.74701660156,10.1649072266,1.90022851563,0.139919124363,0.259256247305,0.953477325358,0.0639518055936
2021/03/16/15:46:28.110419,207055,1615905988,112450123,mocap,-2.7474362793,10.1588818359,1.89960253906,0.140210569638,0.259717976588,0.95331558292,0.0638512047494
2021/03/16/15:46:28.122454,207056,1615905988,122450113,mocap,-2.7478581543,10.1527939453,1.89901171875,0.140201171002,0.260063853311,0.953229390353,0.0637507685731
2021/03/16/15:46:28.130149,207057,1615905988,132450104,mocap,-2.74836230469,10.1466074219,1.89844494629,0.14091099887,0.260240897115,0.953114384451,0.0631802103077
2021/03/16/15:46:28.141897,207058,1615905988,142450094,mocap,-2.74895874023,10.1403417969,1.89788244629,0.141276908485,0.261050076089,0.952851834785,0.0629847137441
2021/03/16/15:46:28.150367,207059,1615905988,152450085,mocap,-2.74960180664,10.1339912109,1.89749145508,0.13957270929,0.261113001243,0.953070904807,0.0632083986761
2021/03/16/15:46:28.161825,207060,1615905988,162450075,mocap,-2.75031396484,10.1275878906,1.89704992676,0.139835269638,0.261727759232,0.952914073931,0.0624455435115
2021/03/16/15:46:28.170022,207061,1615905988,172450066,mocap,-2.75105859375,10.1210419922,1.89656506348,0.139644968169,0.262396474217,0.952771895304,0.0622341893488
2021/03/16/15:46:28.182009,207062,1615905988,182450056,mocap,-2.75190673828,10.1144023437,1.89626208496,0.139752535369,0.262702817056,0.952725616014,0.0614033105984
2021/03/16/15:46:28.190021,207063,1615905988,192450047,mocap,-2.75273852539,10.1075908203,1.89580371094,0.139694282403,0.263233645198,0.952625691063,0.060809983571
2021/03/16/15:46:28.201679,207064,1615905988,202450037,mocap,-2.75366235352,10.1008105469,1.89556774902,0.139578147772,0.263580100043,0.952603799553,0.0599121734083
2021/03/16/15:46:28.210057,207065,1615905988,212450027,mocap,-2.7546237793,10.0939121094,1.89522729492,0.139891720193,0.264143609295,0.95246459407,0.0589038280449
2021/03/16/15:46:28.221869,207066,1615905988,222450256,mocap,-2.75564550781,10.0869462891,1.8950489502,0.13940222305,0.264648783134,0.952458562963,0.0578854619042
2021/03/16/15:46:28.230275,207067,1615905988,232450247,mocap,-2.7566953125,10.0799628906,1.89499865723,0.13967083036,0.265470110539,0.952270077491,0.0565630764102
2021/03/16/15:46:28.241570,207068,1615905988,242450237,mocap,-2.75782373047,10.0729638672,1.89529138184,0.139364193912,0.266640210291,0.952046698979,0.0555671253723
2021/03/16/15:46:28.250155,207069,1615905988,252450228,mocap,-2.75905078125,10.0659521484,1.89584887695,0.139265301562,0.26838241781,0.951620289969,0.0547254146276
2021/03/16/15:46:28.261745,207070,1615905988,262450218,mocap,-2.76031518555,10.0588896484,1.89659106445,0.139214017609,0.269967698592,0.951248933463,0.0535010031157
2021/03/16/15:46:28.270290,207071,1615905988,272450209,mocap,-2.76159399414,10.0517685547,1.89747814941,0.13921466338,0.271982629141,0.950745379258,0.0522298910644
2021/03/16/15:46:28.281495,207072,1615905988,282450199,mocap,-2.7628815918,10.0445332031,1.89852038574,0.138375286963,0.273495911717,0.950486000503,0.0512700305322
2021/03/16/15:46:28.289816,207073,1615905988,292450190,mocap,-2.76424926758,10.0372402344,1.89969042969,0.138474145403,0.274889625767,0.950141591576,0.0499155688016
2021/03/16/15:46:28.301446,207074,1615905988,302450180,mocap,-2.76553662109,10.0298457031,1.90098864746,0.139008857924,0.276077653346,0.949807051464,0.0482102028055
2021/03/16/15:46:28.310274,207075,1615905988,312450171,mocap,-2.76696630859,10.0224033203,1.90252368164,0.13886767144,0.277050394658,0.949623806403,0.0466205688685
2021/03/16/15:46:28.321675,207076,1615905988,322450161,mocap,-2.76840966797,10.0148847656,1.90427099609,0.13840166524,0.27812283979,0.949438375802,0.0453810948563
2021/03/16/15:46:28.330488,207077,1615905988,332450151,mocap,-2.76985302734,10.0073388672,1.90617858887,0.138887255109,0.278725069093,0.949272939132,0.0436298503956
2021/03/16/15:46:28.340233,207078,1615905988,342450142,mocap,-2.77139038086,9.99969140625,1.90806567383,0.137705690057,0.278740410833,0.949496005033,0.042405970098
2021/03/16/15:46:28.350517,207079,1615905988,352450132,mocap,-2.77277929688,9.99191210938,1.90975439453,0.138106542824,0.278023944522,0.949728879702,0.0405503458242
2021/03/16/15:46:28.361401,207080,1615905988,362450123,mocap,-2.77426953125,9.98417871094,1.91135070801,0.138477903508,0.277364544502,0.949966716811,0.0381578719919
2021/03/16/15:46:28.370183,207081,1615905988,372450113,mocap,-2.77565014648,9.97646972656,1.91279492187,0.138073098887,0.276726556987,0.950272544239,0.0366104473752
2021/03/16/15:46:28.381402,207082,1615905988,382450104,mocap,-2.77707495117,9.96883203125,1.91401977539,0.137601111,0.276125650031,0.950577763808,0.0349639184215
2021/03/16/15:46:28.390077,207083,1615905988,392450094,mocap,-2.77838208008,9.96119824219,1.91496496582,0.137538605866,0.275604327585,0.950807403669,0.0330251292007
2021/03/16/15:46:28.401314,207084,1615905988,402450085,mocap,-2.7797956543,9.95365039063,1.91571459961,0.137125352782,0.275252134099,0.951011910588,0.0317688013979
2021/03/16/15:46:28.410161,207085,1615905988,412450075,mocap,-2.78110229492,9.94621679687,1.91633972168,0.13688852098,0.275150384723,0.951130609577,0.0300725225704
2021/03/16/15:46:28.421288,207086,1615905988,422450066,mocap,-2.78241235352,9.93879199219,1.91676464844,0.136043198851,0.27542943035,0.951208987286,0.0288503658026
2021/03/16/15:46:28.430196,207087,1615905988,432450056,mocap,-2.78367529297,9.93146972656,1.91708898926,0.135295868812,0.275850455808,0.95122476231,0.0278030388067
2021/03/16/15:46:28.441410,207088,1615905988,442450047,mocap,-2.78495654297,9.92416894531,1.91725146484,0.134873340718,0.27647033382,0.951142821759,0.026470216399
2021/03/16/15:46:28.450061,207089,1615905988,452450037,mocap,-2.78613208008,9.91686132812,1.91731884766,0.133988147391,0.277159792291,0.951094637952,0.0254680494829
2021/03/16/15:46:28.462168,207090,1615905988,462450027,mocap,-2.78726757812,9.90960839844,1.9173157959,0.133671741483,0.278132308565,0.950890799161,0.0241034574263
2021/03/16/15:46:28.472101,207091,1615905988,472450256,mocap,-2.78834326172,9.90236914062,1.91728955078,0.132975947058,0.279080299245,0.950736367162,0.0230639428619
2021/03/16/15:46:28.482087,207092,1615905988,482450247,mocap,-2.78937817383,9.89512304687,1.91725244141,0.132447021838,0.280303242737,0.950477566017,0.0219151057254
2021/03/16/15:46:28.492003,207093,1615905988,492450237,mocap,-2.79036962891,9.88788769531,1.91730957031,0.132092919581,0.281478221473,0.950204635527,0.0207995268554
2021/03/16/15:46:28.500063,207094,1615905988,502450228,mocap,-2.79124658203,9.88048730469,1.91718737793,0.130591937273,0.282738453962,0.950056569711,0.0199303593729
2021/03/16/15:46:28.512080,207095,1615905988,512450218,mocap,-2.7920793457,9.87315429688,1.91733776855,0.129916341352,0.28363727464,0.949907876869,0.0186188457341
2021/03/16/15:46:28.521949,207096,1615905988,522450209,mocap,-2.79294287109,9.86573144531,1.91755407715,0.129455034137,0.284225959218,0.949819798382,0.0173020193922
2021/03/16/15:46:28.530264,207097,1615905988,532450199,mocap,-2.79369995117,9.85825292969,1.91791491699,0.128985610068,0.284437629918,0.949842263917,0.0160506431039
2021/03/16/15:46:28.541921,207098,1615905988,542450190,mocap,-2.79444750977,9.85063671875,1.91837011719,0.128257931236,0.284490286819,0.949948199328,0.0146155235048
2021/03/16/15:46:28.550328,207099,1615905988,552450180,mocap,-2.79519970703,9.84297070312,1.9189744873,0.127337666083,0.284203755698,0.950176870044,0.0133142820784
2021/03/16/15:46:28.561739,207100,1615905988,562450171,mocap,-2.79581079102,9.83520996094,1.91966247559,0.126914224191,0.28366527854,0.95041652351,0.0116280304509
2021/03/16/15:46:28.570206,207101,1615905988,572450161,mocap,-2.79641381836,9.8274375,1.92048010254,0.125951748651,0.282930844366,0.950778253091,0.010344217412
2021/03/16/15:46:28.581857,207102,1615905988,582450151,mocap,-2.79694799805,9.81952246094,1.92124414063,0.12539746389,0.281737704974,0.951221315951,0.00879431567669
2021/03/16/15:46:28.590249,207103,1615905988,592450142,mocap,-2.79740600586,9.81158007813,1.92208093262,0.124642974296,0.280783026772,0.951615161723,0.00732092242499
2021/03/16/15:46:28.601691,207104,1615905988,602450132,mocap,-2.79778173828,9.80362304687,1.92291101074,0.124462131971,0.279373986335,0.952065645189,0.00551032223261
2021/03/16/15:46:28.610147,207105,1615905988,612450123,mocap,-2.79809765625,9.79561816406,1.92368322754,0.124130154594,0.278139005275,0.952479104554,0.00373548723989
2021/03/16/15:46:28.621793,207106,1615905988,622450113,mocap,-2.79833886719,9.78758007812,1.9243536377,0.123811601147,0.276925959324,0.952879264297,0.00195193391437
2021/03/16/15:46:28.630054,207107,1615905988,632450104,mocap,-2.79853125,9.77956835938,1.92501342773,0.123927210921,0.275928931757,0.953155415472,0.000139902293702
2021/03/16/15:46:28.641715,207108,1615905988,642450094,mocap,-2.79861181641,9.77153710938,1.92554199219,0.123669236664,0.275076326455,0.953434127957,-0.00151436382325
2021/03/16/15:46:28.651798,207109,1615905988,652450085,mocap,-2.79865234375,9.76353027344,1.92592980957,0.12392383112,0.274417352846,0.953586154128,-0.00338186927702
2021/03/16/15:46:28.660077,207110,1615905988,662450075,mocap,-2.79863378906,9.75551464844,1.92624719238,0.123836374514,0.274160308944,0.953664001897,-0.00506371394652
2021/03/16/15:46:28.670530,207111,1615905988,672450066,mocap,-2.79858691406,9.747453125,1.92638977051,0.123959306929,0.274022151734,0.953676072264,-0.00692122749135
2021/03/16/15:46:28.681563,207112,1615905988,682450056,mocap,-2.79848754883,9.7394375,1.92643591309,0.12441463429,0.273872061871,0.953646189038,-0.00860449889555
2021/03/16/15:46:28.690020,207113,1615905988,692450047,mocap,-2.79832006836,9.731359375,1.92628479004,0.124847687778,0.273817234687,0.953587841783,-0.0103635158859
2021/03/16/15:46:28.700370,207114,1615905988,702450037,mocap,-2.79808886719,9.72322558594,1.92598522949,0.125333999405,0.274096254088,0.953425094389,-0.0119676128266
2021/03/16/15:46:28.710137,207115,1615905988,712450027,mocap,-2.79785986328,9.71513964844,1.92555981445,0.125398221104,0.274513671678,0.953276809735,-0.0134485010576
2021/03/16/15:46:28.720695,207116,1615905988,722450256,mocap,-2.79757910156,9.70706054688,1.92502160645,0.125648651254,0.275379203372,0.952975628827,-0.0147026612154
2021/03/16/15:46:28.730690,207117,1615905988,732450247,mocap,-2.79720239258,9.69881445312,1.92417944336,0.126410027864,0.275400814191,0.952845118031,-0.0161579190645
2021/03/16/15:46:28.740108,207118,1615905988,742450237,mocap,-2.79681787109,9.6905859375,1.92319226074,0.126965474542,0.276312705378,0.952482648051,-0.0175459461062
2021/03/16/15:46:28.751584,207119,1615905988,752450228,mocap,-2.796453125,9.68241992188,1.92224194336,0.127389305046,0.27744616357,0.952074965552,-0.0186776092478
2021/03/16/15:46:28.760072,207120,1615905988,762450218,mocap,-2.79601391602,9.67408007812,1.9209498291,0.1280744732,0.278454670279,0.95166562873,-0.0198104271156
2021/03/16/15:46:28.771357,207121,1615905988,772450209,mocap,-2.79552416992,9.66573730469,1.91951721191,0.128468654919,0.279607339922,0.951250875901,-0.0209122165159
2021/03/16/15:46:28.780616,207122,1615905988,782450199,mocap,-2.79505419922,9.65734082031,1.91800512695,0.129078302631,0.280505162847,0.950879461314,-0.0219975699896
2021/03/16/15:46:28.790116,207123,1615905988,792450190,mocap,-2.7944831543,9.64884667969,1.91630004883,0.129851317528,0.28196893138,0.950319515317,-0.022912383069
2021/03/16/15:46:28.800224,207124,1615905988,802450180,mocap,-2.79393945313,9.6403984375,1.91457055664,0.130811014979,0.283011815887,0.949855080958,-0.0238349292127
2021/03/16/15:46:28.811451,207125,1615905988,812450171,mocap,-2.79333569336,9.63182324219,1.91264147949,0.131649260307,0.284645958928,0.94923131644,-0.0245980098868
2021/03/16/15:46:28.820106,207126,1615905988,822450161,mocap,-2.79273901367,9.62319238281,1.9106920166,0.132443380724,0.285821726593,0.948748939323,-0.0253007074225
2021/03/16/15:46:28.830752,207127,1615905988,832450151,mocap,-2.79212011719,9.61451171875,1.90869030762,0.133195840026,0.287355487267,0.948167957107,-0.0257529427852
2021/03/16/15:46:28.840046,207128,1615905988,842450142,mocap,-2.79151049805,9.60577148437,1.90667443848,0.133569041779,0.28900251711,0.947606188717,-0.026064577565
2021/03/16/15:46:28.851045,207129,1615905988,852450132,mocap,-2.79089111328,9.59696289063,1.904609375,0.133867283299,0.290752281269,0.947025913701,-0.0261645911433
2021/03/16/15:46:28.861313,207130,1615905988,862450123,mocap,-2.79030151367,9.58814355469,1.90271044922,0.13463735592,0.292463406772,0.946389766724,-0.0261602252
2021/03/16/15:46:28.869815,207131,1615905988,872450113,mocap,-2.78968676758,9.5791796875,1.9008269043,0.134928363736,0.294466339913,0.945730621304,-0.0260288067637
2021/03/16/15:46:28.882194,207132,1615905988,882450104,mocap,-2.78907836914,9.57022070313,1.89921313477,0.134857478558,0.296204999991,0.945213044665,-0.0254628512105
2021/03/16/15:46:28.890005,207133,1615905988,892450094,mocap,-2.78847387695,9.56110546875,1.89777905273,0.13487667598,0.297907807425,0.944689703146,-0.0249117534646
2021/03/16/15:46:28.902044,207134,1615905988,902450085,mocap,-2.78783569336,9.551875,1.89648486328,0.134677057967,0.299675700203,0.944173654934,-0.0243446918676
2021/03/16/15:46:28.909884,207135,1615905988,912450075,mocap,-2.78719189453,9.54255566406,1.89546789551,0.134651751549,0.301107630381,0.943746349189,-0.0233650400856
2021/03/16/15:46:28.921966,207136,1615905988,922450066,mocap,-2.7865559082,9.53310546875,1.89464001465,0.13451941227,0.302440968528,0.943354936356,-0.0227035717977
2021/03/16/15:46:28.930342,207137,1615905988,932450056,mocap,-2.78588476563,9.5235859375,1.89400537109,0.134413426694,0.303402019268,0.943077361166,-0.0220301777771
2021/03/16/15:46:28.941970,207138,1615905988,942450047,mocap,-2.78520996094,9.51402148438,1.89364245605,0.134018664585,0.304124147445,0.942921175385,-0.0211460363202
2021/03/16/15:46:28.950292,207139,1615905988,952450037,mocap,-2.78450292969,9.50435449219,1.89344519043,0.133860144599,0.305223691805,0.94260802271,-0.0202502642313
2021/03/16/15:46:28.961865,207140,1615905988,962450027,mocap,-2.78382519531,9.49466015625,1.89368347168,0.133100177646,0.306112566557,0.942449774858,-0.0191792927909
2021/03/16/15:46:28.970048,207141,1615905988,972450256,mocap,-2.783109375,9.48487695312,1.89419689941,0.13232538318,0.307419303991,0.942154733205,-0.0181060486039
2021/03/16/15:46:28.981664,207142,1615905988,982450247,mocap,-2.78243212891,9.47500488281,1.8950567627,0.13187352584,0.308060500784,0.942027618988,-0.0170898327063
2021/03/16/15:46:28.990229,207143,1615905988,992450237,mocap,-2.78162524414,9.46509472656,1.8961126709,0.130841777411,0.308549550337,0.942036073767,-0.0156731375587
2021/03/16/15:46:29.001685,207144,1615905989,2450228,mocap,-2.78085131836,9.45509277344,1.89735107422,0.130502918074,0.308736622882,0.942035227502,-0.0148428285325
2021/03/16/15:46:29.009967,207145,1615905989,12450218,mocap,-2.78004125977,9.4449921875,1.89859484863,0.130141995197,0.308941212945,0.942033155335,-0.0138536939986
2021/03/16/15:46:29.021794,207146,1615905989,22450209,mocap,-2.77922021484,9.43489941406,1.90001672363,0.12972244464,0.308744554117,0.942167836707,-0.0129866473424
2021/03/16/15:46:29.030160,207147,1615905989,32450199,mocap,-2.77840454102,9.42485742188,1.90154760742,0.129885394217,0.3087080661,0.942167211982,-0.0122503497537
2021/03/16/15:46:29.041680,207148,1615905989,42450190,mocap,-2.77754077148,9.41472265625,1.90300378418,0.130220890348,0.30835593852,0.942244832902,-0.0115673547016
2021/03/16/15:46:29.050362,207149,1615905989,52450180,mocap,-2.77665112305,9.40456152344,1.90438049316,0.130746532925,0.307685790844,0.942399296592,-0.0108794448907
2021/03/16/15:46:29.060683,207150,1615905989,62450171,mocap,-2.77578808594,9.39441503906,1.90565576172,0.130916162412,0.306768168803,0.942681781999,-0.0102620295033
2021/03/16/15:46:29.070821,207151,1615905989,72450161,mocap,-2.77498168945,9.38430175781,1.90685534668,0.131874246079,0.305853210435,0.942848130218,-0.0100205993622
2021/03/16/15:46:29.079999,207152,1615905989,82450151,mocap,-2.77415917969,9.37418359375,1.90790734863,0.132882539828,0.304976796011,0.942995676574,-0.00951523896735
2021/03/16/15:46:29.091873,207153,1615905989,92450142,mocap,-2.77336572266,9.36416113281,1.90888427734,0.133421333871,0.304075852707,0.943215645529,-0.00899253454561
2021/03/16/15:46:29.100060,207154,1615905989,102450132,mocap,-2.77262963867,9.35422265625,1.90979589844,0.134389443914,0.303696658741,0.943205992746,-0.00838298147794
2021/03/16/15:46:29.111696,207155,1615905989,112450123,mocap,-2.77192675781,9.3443359375,1.91058483887,0.135742521225,0.303326308618,0.943137670019,-0.00764641086311
2021/03/16/15:46:29.120211,207156,1615905989,122450113,mocap,-2.77131982422,9.33448339844,1.9113314209,0.136668851312,0.303301517363,0.943018486399,-0.00677844366324
2021/03/16/15:46:29.131821,207157,1615905989,132450104,mocap,-2.77074511719,9.32465429687,1.91210021973,0.137482721137,0.303446105354,0.942861579677,-0.00556920009896
2021/03/16/15:46:29.140056,207158,1615905989,142450094,mocap,-2.77026171875,9.31486914062,1.91277697754,0.138327798829,0.303458551464,0.942739824257,-0.0044665398904
2021/03/16/15:46:29.151655,207159,1615905989,152450085,mocap,-2.76985961914,9.305078125,1.9134342041,0.139458713705,0.303260611333,0.942641449061,-0.00337213854927
2021/03/16/15:46:29.160496,207160,1615905989,162450075,mocap,-2.76955419922,9.29529101563,1.91410168457,0.140454286309,0.303325643548,0.942476684955,-0.00196290500366
2021/03/16/15:46:29.170186,207161,1615905989,172450066,mocap,-2.76933544922,9.28549511719,1.91480883789,0.141216824002,0.302904679944,0.942500068604,-0.000438742327438
2021/03/16/15:46:29.181447,207162,1615905989,182450056,mocap,-2.76917553711,9.27572460938,1.91554382324,0.142104013635,0.302576927577,0.9424717204,0.000842913229375
2021/03/16/15:46:29.189828,207163,1615905989,192450047,mocap,-2.76914794922,9.26596484375,1.91637561035,0.142934319235,0.301788979099,0.942596213732,0.00235661720103
2021/03/16/15:46:29.201425,207164,1615905989,202450037,mocap,-2.76914892578,9.25611425781,1.91708508301,0.143538489153,0.300932336256,0.942773348672,0.00385354597775
2021/03/16/15:46:29.209795,207165,1615905989,212450027,mocap,-2.76925170898,9.24623046875,1.91780749512,0.143996001659,0.300091276394,0.942963953646,0.00541751791693
2021/03/16/15:46:29.221430,207166,1615905989,222450256,mocap,-2.76944750977,9.23645507812,1.91862255859,0.145105621675,0.298873797936,0.943170042764,0.00700528294065
2021/03/16/15:46:29.229984,207167,1615905989,232450247,mocap,-2.76976586914,9.22650878906,1.91919616699,0.145576171283,0.297435702749,0.943538285502,0.0086646005957
2021/03/16/15:46:29.241470,207168,1615905989,242450237,mocap,-2.77017724609,9.21659082031,1.91980029297,0.145671122118,0.296015114005,0.943955716708,0.0101285114462
2021/03/16/15:46:29.251495,207169,1615905989,252450228,mocap,-2.77072558594,9.20671582031,1.92036474609,0.145837236515,0.294016256943,0.944535724449,0.0117560528636
2021/03/16/15:46:29.260034,207170,1615905989,262450218,mocap,-2.77124975586,9.196796875,1.92084973145,0.145565424094,0.292226924658,0.945110906433,0.0133976414637
2021/03/16/15:46:29.271204,207171,1615905989,272450209,mocap,-2.77198120117,9.18684277344,1.9212857666,0.144796360072,0.290254569928,0.945808091576,0.0152762556204
2021/03/16/15:46:29.280595,207172,1615905989,282450199,mocap,-2.77270947266,9.17685253906,1.92155175781,0.145384127784,0.287801887066,0.946447778389,0.0164355868025
2021/03/16/15:46:29.291532,207173,1615905989,292450190,mocap,-2.77354589844,9.16689453125,1.92187219238,0.144098779974,0.285641278968,0.947256430355,0.0187048682646
2021/03/16/15:46:29.300233,207174,1615905989,302450180,mocap,-2.77440673828,9.15685742187,1.92206933594,0.143251221448,0.284017448279,0.947841830845,0.0202249417876
2021/03/16/15:46:29.310244,207175,1615905989,312450171,mocap,-2.7753269043,9.14684179687,1.92214331055,0.141613003304,0.281696111707,0.948733476525,0.0223122761568
2021/03/16/15:46:29.319918,207176,1615905989,322450161,mocap,-2.77631030273,9.13687109375,1.92216052246,0.140877210705,0.279893517718,0.949335569878,0.0239835733594
2021/03/16/15:46:29.331045,207177,1615905989,332450151,mocap,-2.7773203125,9.12690234375,1.92210009766,0.139737434982,0.277897309967,0.950048680376,0.0255741656752
2021/03/16/15:46:29.340205,207178,1615905989,342450142,mocap,-2.77832714844,9.11689648437,1.92190612793,0.138389035544,0.276359737014,0.950633035421,0.0277598600855
2021/03/16/15:46:29.352075,207179,1615905989,352450132,mocap,-2.77939819336,9.10691601562,1.92160168457,0.137343512847,0.274755060763,0.951211540758,0.029034864616
2021/03/16/15:46:29.360190,207180,1615905989,362450123,mocap,-2.78037255859,9.09698242187,1.92116723633,0.135852033697,0.273572772029,0.95169996606,0.0311341585716
2021/03/16/15:46:29.372056,207181,1615905989,372450113,mocap,-2.78149707031,9.087046875,1.92063574219,0.134748897059,0.27277875189,0.952037949632,0.0325304877637
2021/03/16/15:46:29.380183,207182,1615905989,382450104,mocap,-2.78249316406,9.07711523438,1.9199564209,0.13404159602,0.271801505261,0.952367684969,0.0339496392369
2021/03/16/15:46:29.392064,207183,1615905989,392450094,mocap,-2.78358642578,9.067140625,1.91916149902,0.132866431726,0.271126631721,0.952669621168,0.0354607062184
2021/03/16/15:46:29.400158,207184,1615905989,402450085,mocap,-2.78461645508,9.05717285156,1.91824243164,0.131919094738,0.270643989296,0.952893354064,0.0366529756638
2021/03/16/15:46:29.411870,207185,1615905989,412450075,mocap,-2.78567822266,9.04728613281,1.9172064209,0.131269648727,0.270548970723,0.952963479223,0.0378436062633
2021/03/16/15:46:29.419819,207186,1615905989,422450066,mocap,-2.78681323242,9.03736132812,1.91619885254,0.131249308698,0.270141297612,0.953050336884,0.0386309301874
2021/03/16/15:46:29.430971,207187,1615905989,432450056,mocap,-2.78780078125,9.02733496094,1.9148762207,0.129359572077,0.27017669665,0.95323686256,0.0401264546113
2021/03/16/15:46:29.440196,207188,1615905989,442450047,mocap,-2.78894189453,9.01731152344,1.91347106934,0.128710497569,0.270283523304,0.953269072103,0.0407245770448
2021/03/16/15:46:29.450891,207189,1615905989,452450037,mocap,-2.78998071289,9.00736230469,1.91222009277,0.128774217518,0.269732019365,0.95338824811,0.0413847374322
2021/03/16/15:46:29.460139,207190,1615905989,462450027,mocap,-2.79109057617,8.99726660156,1.91055834961,0.128405720323,0.269896656195,0.9533722041,0.0418235355591
2021/03/16/15:46:29.471949,207191,1615905989,472450256,mocap,-2.79217749023,8.98722265625,1.90900854492,0.127233119441,0.269514475821,0.95361375003,0.0423614034418
2021/03/16/15:46:29.479920,207192,1615905989,482450247,mocap,-2.7932487793,8.97713769531,1.90729699707,0.126971425193,0.269752222391,0.953569402432,0.0426307662383
2021/03/16/15:46:29.491883,207193,1615905989,492450237,mocap,-2.79442114258,8.96712304688,1.90563391113,0.126121994899,0.269796187496,0.953666970675,0.0426915226816
2021/03/16/15:46:29.499939,207194,1615905989,502450228,mocap,-2.79555834961,8.95704980469,1.90395605469,0.125355597774,0.270240663662,0.953622844314,0.0431210053227
2021/03/16/15:46:29.511824,207195,1615905989,512450218,mocap,-2.79673657227,8.94697070313,1.90237927246,0.125538240272,0.270370360813,0.953594506426,0.0423975024583
2021/03/16/15:46:29.519945,207196,1615905989,522450209,mocap,-2.79788696289,8.93685546875,1.90091088867,0.124101226635,0.270576378035,0.95371015753,0.0427109710021
2021/03/16/15:46:29.531539,207197,1615905989,532450199,mocap,-2.79900097656,8.92660351563,1.8994309082,0.123366395483,0.270974949727,0.953707102952,0.0423801965678
2021/03/16/15:46:29.539810,207198,1615905989,542450190,mocap,-2.80024829102,8.91644824219,1.89829455566,0.122677185863,0.271050377624,0.953800806065,0.0417854692998
2021/03/16/15:46:29.551846,207199,1615905989,552450180,mocap,-2.80140820312,8.90631933594,1.8973939209,0.123724492665,0.270967407619,0.95373227363,0.0407881144639
2021/03/16/15:46:29.559957,207200,1615905989,562450171,mocap,-2.80264086914,8.8960703125,1.89638537598,0.12289640886,0.271195317326,0.953806609965,0.0400316309002
2021/03/16/15:46:29.571573,207201,1615905989,572450161,mocap,-2.8037878418,8.88582617187,1.89556726074,0.12250174126,0.271320147225,0.953858882531,0.0391399854784
2021/03/16/15:46:29.580181,207202,1615905989,582450151,mocap,-2.80495263672,8.87566113281,1.89491601563,0.12281287494,0.271637574031,0.953776144954,0.0379615258828
2021/03/16/15:46:29.591669,207203,1615905989,592450142,mocap,-2.80607836914,8.86555371094,1.89441870117,0.123295300028,0.272100291457,0.953630360315,0.0367263856991
2021/03/16/15:46:29.600832,207204,1615905989,602450132,mocap,-2.80720776367,8.85547265625,1.89435107422,0.123309233535,0.273180045675,0.953352002174,0.0358814192975
2021/03/16/15:46:29.611482,207205,1615905989,612450123,mocap,-2.80846020508,8.84543457031,1.89481811523,0.123741595322,0.274227358561,0.953032035671,0.0348898341285
2021/03/16/15:46:29.620322,207206,1615905989,622450113,mocap,-2.80970385742,8.83544042969,1.89566333008,0.12400618793,0.275108966818,0.952779957587,0.0338802384499
2021/03/16/15:46:29.630587,207207,1615905989,632450104,mocap,-2.81098779297,8.82531640625,1.89665979004,0.124610609811,0.275648222188,0.952594429614,0.0324671517815
2021/03/16/15:46:29.639935,207208,1615905989,642450094,mocap,-2.81215014648,8.81512695313,1.8978527832,0.124395588589,0.275838177694,0.952602728037,0.0314180123101
2021/03/16/15:46:29.651799,207209,1615905989,652450085,mocap,-2.81339404297,8.80496875,1.89937438965,0.124804872564,0.275821284105,0.9525944609,0.0301686155645
2021/03/16/15:46:29.659989,207210,1615905989,662450075,mocap,-2.81458325195,8.79491015625,1.90110742187,0.125035385709,0.275642263838,0.952659782627,0.0287546831914
2021/03/16/15:46:29.671450,207211,1615905989,672450066,mocap,-2.81575366211,8.78481347656,1.90281066895,0.125317732162,0.275353521365,0.952748255455,0.0273251609219
2021/03/16/15:46:29.680219,207212,1615905989,682450056,mocap,-2.81692163086,8.77478027344,1.90465270996,0.125955666557,0.274619801146,0.952915786232,0.025896636151
2021/03/16/15:46:29.691195,207213,1615905989,692450047,mocap,-2.81797631836,8.76473632813,1.9063560791,0.126074451607,0.273674251878,0.953204745724,0.0246648056033
2021/03/16/15:46:29.700302,207214,1615905989,702450037,mocap,-2.81909130859,8.7547734375,1.90797827148,0.126532523445,0.27245059536,0.953537414002,0.0229478508637
2021/03/16/15:46:29.709947,207215,1615905989,712450027,mocap,-2.82009887695,8.74484179688,1.90954443359,0.126785674415,0.270915571965,0.953966183853,0.0218784575234
2021/03/16/15:46:29.721011,207216,1615905989,722450256,mocap,-2.8211640625,8.73495410156,1.91086499023,0.127133190975,0.269618641642,0.954319174557,0.0204413717441
2021/03/16/15:46:29.730076,207217,1615905989,732450247,mocap,-2.82213354492,8.72521582031,1.91217004395,0.126946858807,0.268375961343,0.954708800258,0.0197469123538
2021/03/16/15:46:29.740003,207218,1615905989,742450237,mocap,-2.82316699219,8.71558984375,1.91337854004,0.126617582907,0.267321836256,0.955062273202,0.0190546549896
2021/03/16/15:46:29.752104,207219,1615905989,752450228,mocap,-2.82410253906,8.70605957031,1.91454101563,0.125403104605,0.266908718006,0.955343205773,0.0187922544931
2021/03/16/15:46:29.762009,207220,1615905989,762450218,mocap,-2.82519897461,8.69687402344,1.91568310547,0.124644228073,0.266472164466,0.955571825171,0.0184087839922
2021/03/16/15:46:29.769897,207221,1615905989,772450209,mocap,-2.82616381836,8.68736914062,1.91673266602,0.123579397939,0.266171957159,0.955794442189,0.0183741799535
2021/03/16/15:46:29.782413,207222,1615905989,782450199,mocap,-2.82697851563,8.67813574219,1.91784924316,0.122120110937,0.266178338489,0.955979668671,0.018401985437
2021/03/16/15:46:29.789889,207223,1615905989,792450190,mocap,-2.8278684082,8.66897363281,1.91884973145,0.120774149791,0.266297418824,0.956119920884,0.0182751035467
2021/03/16/15:46:29.801954,207224,1615905989,802450180,mocap,-2.82859765625,8.65984863281,1.91997497559,0.119994526183,0.266292676775,0.956219932607,0.0182469443321
2021/03/16/15:46:29.810101,207225,1615905989,812450171,mocap,-2.82929980469,8.650953125,1.92104052734,0.118674201107,0.266259968221,0.956403269359,0.0177444242667
2021/03/16/15:46:29.821981,207226,1615905989,822450161,mocap,-2.82982714844,8.64170996094,1.92209716797,0.118261580414,0.266521605131,0.956383271685,0.0176484800178
2021/03/16/15:46:29.830107,207227,1615905989,832450151,mocap,-2.83023754883,8.63288964844,1.92313342285,0.117681803681,0.266480186304,0.956477904431,0.0170093454705
2021/03/16/15:46:29.841816,207228,1615905989,842450142,mocap,-2.83052124023,8.62372167969,1.92408679199,0.117807353463,0.266851342979,0.95636902299,0.0164338418039
2021/03/16/15:46:29.850008,207229,1615905989,852450132,mocap,-2.83076196289,8.61495507812,1.92500170898,0.117656629049,0.266631999555,0.956463898628,0.0155281403315
2021/03/16/15:46:29.861720,207230,1615905989,862450123,mocap,-2.83087451172,8.60604785156,1.92582495117,0.11822556324,0.26690292711,0.956330069761,0.014776116721
2021/03/16/15:46:29.870116,207231,1615905989,872450113,mocap,-2.83090893555,8.59715820312,1.92659973145,0.118275206315,0.266972319073,0.956316872047,0.0139569728233
2021/03/16/15:46:29.881634,207232,1615905989,882450104,mocap,-2.83085302734,8.58827050781,1.92725891113,0.119027160907,0.267267779612,0.956153911238,0.0130444773445
2021/03/16/15:46:29.890320,207233,1615905989,892450094,mocap,-2.83069482422,8.57936035156,1.92787329102,0.119540694969,0.267444599436,0.95604955966,0.0123549618454
2021/03/16/15:46:29.901608,207234,1615905989,902450085,mocap,-2.83048974609,8.57048242188,1.92841296387,0.120023159014,0.26745971604,0.955996471655,0.0114239916737
2021/03/16/15:46:29.910082,207235,1615905989,912450075,mocap,-2.83022875977,8.56163476562,1.92893151855,0.121046887761,0.267352337242,0.955911417154,0.0101858767821
2021/03/16/15:46:29.922020,207236,1615905989,922450066,mocap,-2.82987182617,8.55277734375,1.92937487793,0.122496816588,0.26714414052,0.95579745112,0.00893117540281
2021/03/16/15:46:29.930336,207237,1615905989,932450056,mocap,-2.82946191406,8.54388476563,1.92968347168,0.123642243566,0.267068401793,0.955682684091,0.00759384776114
2021/03/16/15:46:29.941895,207238,1615905989,942450047,mocap,-2.82899243164,8.5349921875,1.9299276123,0.125144222916,0.266861999269,0.955555739852,0.00606869360299
2021/03/16/15:46:29.950181,207239,1615905989,952450037,mocap,-2.82849145508,8.52612109375,1.93008178711,0.126796453571,0.266742089968,0.955380179417,0.00447568367684
2021/03/16/15:46:29.961526,207240,1615905989,962450027,mocap,-2.8279465332,8.51729589844,1.93013623047,0.128324704723,0.266675334338,0.955200421513,0.00303132884236
2021/03/16/15:46:29.970093,207241,1615905989,972450256,mocap,-2.82737426758,8.50841699219,1.93000097656,0.130130814513,0.266939644068,0.954886036846,0.00135899984316
2021/03/16/15:46:29.981380,207242,1615905989,982450247,mocap,-2.82680493164,8.49955175781,1.92968383789,0.131659222574,0.267206316159,0.954602815584,-0.00029945064177
2021/03/16/15:46:29.990426,207243,1615905989,992450237,mocap,-2.82630419922,8.49080957031,1.92936047363,0.133503673205,0.267610837786,0.954231159697,-0.00202298090597
2021/03/16/15:46:30.001345,207244,1615905990,2450228,mocap,-2.82577783203,8.482046875,1.92879260254,0.134668996143,0.268505034361,0.953811937336,-0.00347832618165
2021/03/16/15:46:30.010318,207245,1615905990,12450218,mocap,-2.82527661133,8.473296875,1.92811279297,0.135896006062,0.269455906251,0.953363193391,-0.00494175866458
2021/03/16/15:46:30.021443,207246,1615905990,22450209,mocap,-2.8248034668,8.46456054687,1.92731518555,0.136517742972,0.270660497149,0.952925911419,-0.00616553768307
2021/03/16/15:46:30.030437,207247,1615905990,32450199,mocap,-2.8243581543,8.45588867187,1.9265279541,0.137648576126,0.272132093269,0.952333590772,-0.00759781422031
2021/03/16/15:46:30.040089,207248,1615905990,42450190,mocap,-2.823890625,8.44707519531,1.92542016602,0.138507873197,0.27306399778,0.951932552023,-0.00871943665659
2021/03/16/15:46:30.051259,207249,1615905990,52450180,mocap,-2.82346704102,8.43829785156,1.92430285645,0.138574837158,0.27458031792,0.951477385537,-0.0096668471476
2021/03/16/15:46:30.060326,207250,1615905990,62450171,mocap,-2.82310009766,8.429453125,1.92306677246,0.139691207922,0.275292014895,0.951096337862,-0.0107900867773
2021/03/16/15:46:30.071261,207251,1615905990,72450161,mocap,-2.82267089844,8.4205859375,1.92176989746,0.14023209355,0.276728006667,0.950589144442,-0.0116981888034
2021/03/16/15:46:30.080898,207252,1615905990,82450151,mocap,-2.8223684082,8.4116953125,1.92035583496,0.140368466448,0.277609808392,0.950300753821,-0.0125688727252
