time,.header.seq,.header.stamp.secs,.header.stamp.nsecs,.header.frame_id,.pose.position.x,.pose.position.y,.pose.position.z,.pose.orientation.x,.pose.orientation.y,.pose.orientation.z,.pose.orientation.w
2021/03/16/15:23:19.272175,90160,1615904599,272450209,mocap,-2.83021459961,10.3623066406,1.93392272949,0.126139440443,0.24320850171,0.960526153477,-0.0482492027304
2021/03/16/15:23:19.280803,90161,1615904599,282450199,mocap,-2.83015576172,10.3622568359,1.93387890625,0.126213897148,0.243020093674,0.960569427523,-0.0481420696839
2021/03/16/15:23:19.291439,90162,1615904599,292450190,mocap,-2.83008789063,10.3622011719,1.93383068848,0.126486266146,0.243022051027,0.9605310635,-0.0481828920174
2021/03/16/15:23:19.300647,90163,1615904599,302450180,mocap,-2.83002099609,10.3621464844,1.93379882813,0.126386569509,0.243013989554,0.96055057148,-0.048096137401
2021/03/16/15:23:19.310417,90164,1615904599,312450171,mocap,-2.82997485352,10.3621191406,1.93379553223,0.126351226918,0.242953132746,0.960576633211,-0.0479757180291
2021/03/16/15:23:19.320411,90165,1615904599,322450161,mocap,-2.82990454102,10.3620625,1.9337734375,0.12652444693,0.242948086191,0.960553100119,-0.0480160344298
2021/03/16/15:23:19.330671,90166,1615904599,332450151,mocap,-2.82986401367,10.3620273438,1.93377160645,0.126382302769,0.242867447755,0.960593906475,-0.0479819818512
2021/03/16/15:23:19.342227,90167,1615904599,342450142,mocap,-2.82979736328,10.3619951172,1.93373547363,0.1265934607,0.242880536393,0.960560546381,-0.048026957117
2021/03/16/15:23:19.350783,90168,1615904599,352450132,mocap,-2.82977490234,10.3620146484,1.9338984375,0.125691259031,0.243548270733,0.960529644018,-0.047631475837
2021/03/16/15:23:19.362049,90169,1615904599,362450123,mocap,-2.82970239258,10.3619404297,1.93374230957,0.126503944751,0.242908876023,0.960561446133,-0.0481012745231
2021/03/16/15:23:19.371152,90170,1615904599,372450113,mocap,-2.82966723633,10.3618984375,1.93374121094,0.126717766438,0.242891932585,0.960526766262,-0.0483160575657
2021/03/16/15:23:19.381886,90171,1615904599,382450104,mocap,-2.82961914063,10.3618837891,1.93373144531,0.126770282061,0.242947504548,0.960504767824,-0.0483362423492
2021/03/16/15:23:19.390701,90172,1615904599,392450094,mocap,-2.82957421875,10.3618447266,1.93372949219,0.126734491362,0.242887351074,0.96051973085,-0.048435063689
2021/03/16/15:23:19.402051,90173,1615904599,402450085,mocap,-2.82952978516,10.3618115234,1.93372546387,0.126629655083,0.242875551898,0.960531637498,-0.0485321757384
2021/03/16/15:23:19.412146,90174,1615904599,412450075,mocap,-2.82948803711,10.3617910156,1.93372351074,0.126657845242,0.243002324272,0.960486825848,-0.0487104900295
2021/03/16/15:23:19.420360,90175,1615904599,422450066,mocap,-2.82944335937,10.3617705078,1.93371984863,0.126813621201,0.242972749843,0.960470683212,-0.0487710334687
2021/03/16/15:23:19.431872,90176,1615904599,432450056,mocap,-2.82945996094,10.3618271484,1.93389953613,0.12602212696,0.243499406637,0.960455859054,-0.0484873294944
2021/03/16/15:23:19.440607,90177,1615904599,442450047,mocap,-2.82938427734,10.3617275391,1.9337310791,0.126661186943,0.242992233147,0.960474220497,-0.0489997995448
2021/03/16/15:23:19.452000,90178,1615904599,452449083,mocap,-2.82938867187,10.361796875,1.9338963623,0.125819932295,0.243450801282,0.960488780632,-0.0486040550123
2021/03/16/15:23:19.460494,90179,1615904599,462449074,mocap,-2.82934521484,10.3617851563,1.933890625,0.126082441543,0.243618838824,0.960403286137,-0.0487709533855
2021/03/16/15:23:19.471440,90180,1615904599,472449064,mocap,-2.82929907227,10.3617822266,1.93389929199,0.126043758546,0.243717354643,0.960381672767,-0.0488044122396
2021/03/16/15:23:19.480521,90181,1615904599,482449055,mocap,-2.82925,10.3617861328,1.93390258789,0.126005776448,0.243757221032,0.960374985402,-0.0488349636356
2021/03/16/15:23:19.491830,90182,1615904599,492449045,mocap,-2.82920166016,10.3617841797,1.93390209961,0.126121964204,0.243869974133,0.960327606182,-0.0489037138677
2021/03/16/15:23:19.501640,90183,1615904599,502449036,mocap,-2.82913842773,10.3617695312,1.93386169434,0.126258110215,0.243880028981,0.960302127344,-0.049002455268
2021/03/16/15:23:19.510556,90184,1615904599,512450218,mocap,-2.82910058594,10.3617587891,1.93388342285,0.126135739181,0.243987904741,0.960292017861,-0.0489788591619
2021/03/16/15:23:19.520848,90185,1615904599,522450209,mocap,-2.82905102539,10.3617490234,1.93386877441,0.126121989241,0.243983487863,0.960293034245,-0.0490161962718
2021/03/16/15:23:19.531689,90186,1615904599,532450199,mocap,-2.8289909668,10.3617509766,1.93387792969,0.126193588381,0.243978429559,0.960281031534,-0.0490922259245
2021/03/16/15:23:19.540649,90187,1615904599,542450190,mocap,-2.8289284668,10.3617294922,1.93385961914,0.126148841215,0.243973525947,0.960289643708,-0.0490630504069
2021/03/16/15:23:19.551610,90188,1615904599,552450180,mocap,-2.82887817383,10.3617167969,1.9338293457,0.12619155785,0.243934985808,0.960290815268,-0.0491220476145
2021/03/16/15:23:19.560738,90189,1615904599,562450171,mocap,-2.82881323242,10.3617109375,1.93380200195,0.126226544731,0.244073346149,0.960254550555,-0.0490537044865
2021/03/16/15:23:19.570965,90190,1615904599,572450161,mocap,-2.82874682617,10.3617099609,1.93380822754,0.125993323546,0.243933845156,0.960324169216,-0.0489841757418
2021/03/16/15:23:19.582633,90191,1615904599,582450151,mocap,-2.82867749023,10.3617119141,1.93379797363,0.126114491141,0.243969934203,0.960294772182,-0.0490689186794
2021/03/16/15:23:19.591027,90192,1615904599,592450142,mocap,-2.8285769043,10.3617050781,1.93376831055,0.126237055026,0.244018418343,0.960261184446,-0.0491698142413
2021/03/16/15:23:19.602557,90193,1615904599,602450132,mocap,-2.82845874023,10.3617089844,1.93372937012,0.126283600344,0.244187036611,0.960215227319,-0.0491108275385
2021/03/16/15:23:19.610635,90194,1615904599,612450123,mocap,-2.82836816406,10.36171875,1.93375512695,0.126285271521,0.244212887246,0.960209718213,-0.0490854938307
2021/03/16/15:23:19.622610,90195,1615904599,622450113,mocap,-2.82824975586,10.3616992187,1.9337364502,0.126484608501,0.244204612824,0.960183064557,-0.0491348850453
2021/03/16/15:23:19.630759,90196,1615904599,632450104,mocap,-2.82815551758,10.3616855469,1.93371569824,0.126557932385,0.244181064342,0.960179060625,-0.0491413722822
2021/03/16/15:23:19.640600,90197,1615904599,642450094,mocap,-2.82802050781,10.3616787109,1.93372583008,0.126474369086,0.244106450543,0.960214792799,-0.0490288738823
2021/03/16/15:23:19.651470,90198,1615904599,652450085,mocap,-2.82791162109,10.3616425781,1.93370068359,0.126550896096,0.244124356023,0.960197652385,-0.0490779797319
2021/03/16/15:23:19.660599,90199,1615904599,662450075,mocap,-2.82777587891,10.3615429687,1.93357775879,0.127116130098,0.243430305259,0.960282591041,-0.0494016693947
2021/03/16/15:23:19.672607,90200,1615904599,672450066,mocap,-2.82765454102,10.3614902344,1.93361401367,0.127216835789,0.243279990252,0.960302670444,-0.0494925008741
2021/03/16/15:23:19.680717,90201,1615904599,682450056,mocap,-2.82748901367,10.3614511719,1.93361450195,0.127396211562,0.243096330317,0.960315906483,-0.0496764120777
2021/03/16/15:23:19.691425,90202,1615904599,692450047,mocap,-2.82732397461,10.3614033203,1.93363195801,0.127291347257,0.242664075105,0.960439824503,-0.0496627989416
2021/03/16/15:23:19.700735,90203,1615904599,702449083,mocap,-2.8271940918,10.3613447266,1.93360876465,0.127554798275,0.242665932897,0.960394062113,-0.0498624287242
2021/03/16/15:23:19.711340,90204,1615904599,712449074,mocap,-2.82702563477,10.3613261719,1.9336184082,0.127947339255,0.242653632657,0.960333805102,-0.0500767409001
2021/03/16/15:23:19.722418,90205,1615904599,722449064,mocap,-2.82692529297,10.3613671875,1.93376428223,0.126995150961,0.243040880984,0.960377553294,-0.0497826572697
2021/03/16/15:23:19.730447,90206,1615904599,732449055,mocap,-2.8267565918,10.3613496094,1.93375012207,0.127346256275,0.242969354938,0.960334705068,-0.0500607574195
2021/03/16/15:23:19.742491,90207,1615904599,742449045,mocap,-2.82657348633,10.3612607422,1.93360900879,0.128272545024,0.242224745738,0.960362991473,-0.0507567301986
2021/03/16/15:23:19.750464,90208,1615904599,752449036,mocap,-2.82640307617,10.3612714844,1.93361291504,0.128453410312,0.242075290022,0.960368639344,-0.0509052600466
2021/03/16/15:23:19.762249,90209,1615904599,762450218,mocap,-2.82621777344,10.3612597656,1.93359460449,0.128551398836,0.242207728407,0.960312097067,-0.0510943933936
2021/03/16/15:23:19.771061,90210,1615904599,772450209,mocap,-2.82607666016,10.3612880859,1.93374511719,0.128230227023,0.24309459437,0.960140525807,-0.0509135257624
2021/03/16/15:23:19.782244,90211,1615904599,782450199,mocap,-2.82588842773,10.3612255859,1.93361694336,0.129000720426,0.242486433146,0.960160142597,-0.051494126569
2021/03/16/15:23:19.790555,90212,1615904599,792450190,mocap,-2.82576904297,10.3612773438,1.93378894043,0.12859412354,0.243063533362,0.960080439133,-0.0512758776878
2021/03/16/15:23:19.802230,90213,1615904599,802450180,mocap,-2.82560961914,10.361234375,1.93380065918,0.128995861405,0.243289626634,0.959961147056,-0.051427800855
2021/03/16/15:23:19.810436,90214,1615904599,812450171,mocap,-2.8254609375,10.3612460937,1.93398828125,0.12814290992,0.244024442292,0.959910999757,-0.0510129912377
2021/03/16/15:23:19.822245,90215,1615904599,822450161,mocap,-2.82528344727,10.3611904297,1.93397741699,0.128207108636,0.244272644794,0.95984186344,-0.0509648231836
2021/03/16/15:23:19.830844,90216,1615904599,832450151,mocap,-2.82509350586,10.3610683594,1.93388134766,0.129167613903,0.243653589775,0.959842857014,-0.0514813548461
2021/03/16/15:23:19.840987,90217,1615904599,842450142,mocap,-2.82492895508,10.3610029297,1.93391943359,0.12930769437,0.243948076127,0.959754223071,-0.0513875636076
2021/03/16/15:23:19.850688,90218,1615904599,852450132,mocap,-2.8247487793,10.3609013672,1.93392028809,0.129178063421,0.244138054275,0.95972766545,-0.0513072834988
2021/03/16/15:23:19.862114,90219,1615904599,862450123,mocap,-2.82458959961,10.3607988281,1.93395947266,0.129234275246,0.244435889078,0.959652413572,-0.0511550286143
2021/03/16/15:23:19.870843,90220,1615904599,872450113,mocap,-2.82438989258,10.3606728516,1.93397875977,0.128939184977,0.244852794241,0.959592366213,-0.0510322633269
2021/03/16/15:23:19.881027,90221,1615904599,882450104,mocap,-2.8241550293,10.3604443359,1.93376196289,0.130150514583,0.244637946712,0.959451635388,-0.0516302835266
2021/03/16/15:23:19.890608,90222,1615904599,892450094,mocap,-2.82397070313,10.3602607422,1.933765625,0.129848784499,0.245192507095,0.959364099161,-0.0513852976906
2021/03/16/15:23:19.900649,90223,1615904599,902450085,mocap,-2.82378369141,10.3600605469,1.93376550293,0.129798779575,0.246131797564,0.959140081254,-0.0512027997738
2021/03/16/15:23:19.912108,90224,1615904599,912450075,mocap,-2.82362768555,10.3598261719,1.93374572754,0.12994216332,0.246907755515,0.95893697369,-0.0509064182703
2021/03/16/15:23:19.920676,90225,1615904599,922450066,mocap,-2.82354907227,10.3596513672,1.93401037598,0.128408947909,0.248456910723,0.958807934847,-0.049675517155
2021/03/16/15:23:19.931993,90226,1615904599,932450056,mocap,-2.82335327148,10.359375,1.93410949707,0.127509123928,0.249737433589,0.958631819736,-0.0489661939429
2021/03/16/15:23:19.940708,90227,1615904599,942450047,mocap,-2.82311669922,10.3589375,1.93392712402,0.128287890455,0.24966975388,0.958543757819,-0.0490009661389
2021/03/16/15:23:19.951597,90228,1615904599,952449083,mocap,-2.8228671875,10.3585234375,1.93393432617,0.127981531121,0.250312625936,0.958439884102,-0.0485521738705
2021/03/16/15:23:19.960588,90229,1615904599,962449074,mocap,-2.82259887695,10.3579755859,1.93389550781,0.127738842018,0.250931929466,0.958331451034,-0.0481329631044
2021/03/16/15:23:19.970536,90230,1615904599,972449064,mocap,-2.82231274414,10.3573857422,1.9338848877,0.12758657801,0.251311552493,0.958271593026,-0.0477464062296
2021/03/16/15:23:19.980729,90231,1615904599,982449055,mocap,-2.82189135742,10.3566699219,1.93362744141,0.129301901802,0.250609730476,0.958194244008,-0.0483691247617
2021/03/16/15:23:19.990824,90232,1615904599,992449045,mocap,-2.82164868164,10.3561103516,1.93391894531,0.12778434643,0.251629666969,0.958200029072,-0.0469721191191
2021/03/16/15:23:20.000372,90233,1615904600,2449036,mocap,-2.82128344727,10.35534375,1.9338951416,0.127464110272,0.251917156563,0.95819457836,-0.0464089883768
2021/03/16/15:23:20.012758,90234,1615904600,12450218,mocap,-2.82088256836,10.3545195313,1.9338359375,0.127623574833,0.252323429355,0.958095146033,-0.0458127151802
2021/03/16/15:23:20.021055,90235,1615904600,22450209,mocap,-2.82050512695,10.3536914063,1.93377612305,0.127728607553,0.252517392986,0.958048042907,-0.0454345924373
2021/03/16/15:23:20.032831,90236,1615904600,32450199,mocap,-2.82011450195,10.3528105469,1.93376635742,0.127301094446,0.252329612047,0.95817619656,-0.0449731345687
2021/03/16/15:23:20.040658,90237,1615904600,42450190,mocap,-2.81970556641,10.3517998047,1.93371069336,0.127304632227,0.252488916567,0.958152612287,-0.0445694840226
2021/03/16/15:23:20.052361,90238,1615904600,52450180,mocap,-2.81927124023,10.3507939453,1.93366064453,0.127370351162,0.252441685071,0.958171826554,-0.0442352151935
2021/03/16/15:23:20.060396,90239,1615904600,62450171,mocap,-2.81875366211,10.349625,1.93332531738,0.128620449445,0.251643478838,0.958192292318,-0.0447199310228
2021/03/16/15:23:20.072399,90240,1615904600,72450161,mocap,-2.81837011719,10.3486611328,1.93363769531,0.126082215704,0.253052192137,0.958245126493,-0.0428268417285
2021/03/16/15:23:20.080984,90241,1615904600,82450151,mocap,-2.8178293457,10.3474824219,1.93355480957,0.125808628089,0.252862471961,0.958349596625,-0.0424123735571
2021/03/16/15:23:20.092513,90242,1615904600,92450142,mocap,-2.81715942383,10.3460644531,1.93299438477,0.127544716053,0.251273896794,0.95850427112,-0.0431662499595
2021/03/16/15:23:20.100474,90243,1615904600,102450132,mocap,-2.81680322266,10.3449814453,1.93328942871,0.126249971241,0.251839345038,0.958586429608,-0.0418321843542
2021/03/16/15:23:20.112498,90244,1615904600,112450123,mocap,-2.81626000977,10.3436669922,1.9331328125,0.126194239232,0.251390687563,0.958727769258,-0.0414584328562
2021/03/16/15:23:20.120706,90245,1615904600,122450113,mocap,-2.8156262207,10.3421962891,1.93272412109,0.127113904793,0.250628331878,0.958792890711,-0.0417575351042
2021/03/16/15:23:20.132450,90246,1615904600,132450104,mocap,-2.81514135742,10.3409238281,1.93286462402,0.124665838821,0.251915739303,0.958864534741,-0.0396948164978
2021/03/16/15:23:20.141128,90247,1615904600,142450094,mocap,-2.81451855469,10.3395078125,1.93264038086,0.123948072252,0.251902518195,0.958987739075,-0.039045149307
2021/03/16/15:23:20.152530,90248,1615904600,152450085,mocap,-2.81375463867,10.3378056641,1.93197277832,0.125687709427,0.250327637508,0.959149558142,-0.039633387181
2021/03/16/15:23:20.160633,90249,1615904600,162450075,mocap,-2.81317675781,10.3363017578,1.93182885742,0.124634205651,0.250669018659,0.95923460514,-0.0387340983869
2021/03/16/15:23:20.171954,90250,1615904600,172450066,mocap,-2.8125949707,10.3347441406,1.93171081543,0.123229461676,0.250902324036,0.959405049279,-0.0374762008401
2021/03/16/15:23:20.180357,90251,1615904600,182450056,mocap,-2.81196459961,10.3331210937,1.93154626465,0.121735072809,0.251438997067,0.959506628779,-0.0361391443405
2021/03/16/15:23:20.191900,90252,1615904600,192450047,mocap,-2.8112265625,10.3311953125,1.93093774414,0.122682814715,0.250123381397,0.959728030321,-0.0361846916033
2021/03/16/15:23:20.200723,90253,1615904600,202449083,mocap,-2.81052612305,10.3294082031,1.9306907959,0.121530450707,0.250034751546,0.959938305174,-0.0350918431748
2021/03/16/15:23:20.212043,90254,1615904600,212449074,mocap,-2.80987329102,10.3275068359,1.9302409668,0.120661112835,0.249026046765,0.960340632403,-0.0342461295659
2021/03/16/15:23:20.220478,90255,1615904600,222449064,mocap,-2.8091550293,10.3255488281,1.9298503418,0.120117285104,0.248379023354,0.960599382353,-0.033593719796
2021/03/16/15:23:20.232187,90256,1615904600,232449055,mocap,-2.80845263672,10.3235517578,1.9293692627,0.118998259546,0.248312072438,0.960790211935,-0.0325990004374
2021/03/16/15:23:20.240663,90257,1615904600,242449045,mocap,-2.80765209961,10.3213623047,1.92856188965,0.118739107037,0.246562470173,0.961288899625,-0.0321189618111
2021/03/16/15:23:20.252195,90258,1615904600,252449036,mocap,-2.80681469727,10.3192314453,1.92774475098,0.118529412965,0.245127617037,0.961689034878,-0.031897078998
2021/03/16/15:23:20.260940,90259,1615904600,262450218,mocap,-2.80604272461,10.3170322266,1.92684375,0.117823188952,0.244179590839,0.962043017733,-0.0311008155161
2021/03/16/15:23:20.271829,90260,1615904600,272450209,mocap,-2.80528369141,10.3148867187,1.92601147461,0.116634177742,0.24382836405,0.962322841478,-0.0296469557492
2021/03/16/15:23:20.280516,90261,1615904600,282450199,mocap,-2.80448681641,10.3126259766,1.92476501465,0.116784769474,0.242232024413,0.962712099189,-0.0295021201209
2021/03/16/15:23:20.291815,90262,1615904600,292450190,mocap,-2.80367822266,10.3104824219,1.92377050781,0.115589166338,0.24234821564,0.962865894921,-0.028209168271
2021/03/16/15:23:20.300648,90263,1615904600,302450180,mocap,-2.80279907227,10.3081806641,1.92242260742,0.115671633604,0.241142466211,0.963171942976,-0.027752200588
2021/03/16/15:23:20.311870,90264,1615904600,312450171,mocap,-2.80195800781,10.3060283203,1.92142492676,0.11432873232,0.241649403397,0.963249572951,-0.0261679334499
2021/03/16/15:23:20.320484,90265,1615904600,322450161,mocap,-2.80113037109,10.3037314453,1.92016394043,0.114742331761,0.240680085673,0.963454516654,-0.0257428434763
2021/03/16/15:23:20.332257,90266,1615904600,332450151,mocap,-2.80037866211,10.3014501953,1.9191505127,0.113814264322,0.241389004499,0.963423676183,-0.0243407689372
2021/03/16/15:23:20.340457,90267,1615904600,342450142,mocap,-2.79953564453,10.2990214844,1.91799755859,0.112871685715,0.240679773931,0.963740749241,-0.0231731996382
2021/03/16/15:23:20.351660,90268,1615904600,352450132,mocap,-2.79875634766,10.2965664062,1.91716503906,0.113546911,0.240801976978,0.963655504599,-0.0221263762454
2021/03/16/15:23:20.360653,90269,1615904600,362450123,mocap,-2.79788720703,10.293953125,1.9161114502,0.112832105493,0.239708038601,0.964033883472,-0.0211577391401
2021/03/16/15:23:20.371761,90270,1615904600,372450113,mocap,-2.79708251953,10.2913115234,1.91535571289,0.113242147983,0.239674121759,0.964015620744,-0.0201595189447
2021/03/16/15:23:20.380547,90271,1615904600,382450104,mocap,-2.79629663086,10.2885683594,1.91466113281,0.11393587126,0.238625807709,0.964204870126,-0.019629187397
2021/03/16/15:23:20.391384,90272,1615904600,392450094,mocap,-2.79547290039,10.2856738281,1.91408349609,0.11406874963,0.237653098737,0.964440581996,-0.0190707055923
2021/03/16/15:23:20.400663,90273,1615904600,402450085,mocap,-2.79465722656,10.2826972656,1.91353710937,0.114833033504,0.236328627237,0.964684067767,-0.0186224842501
2021/03/16/15:23:20.411626,90274,1615904600,412450075,mocap,-2.79385009766,10.2796210938,1.91316345215,0.115260525035,0.234629998242,0.965048216186,-0.0185934965537
2021/03/16/15:23:20.421259,90275,1615904600,422450066,mocap,-2.79308862305,10.2764736328,1.91287255859,0.117008117431,0.232927416073,0.965246842233,-0.0187737347227
2021/03/16/15:23:20.432596,90276,1615904600,432450056,mocap,-2.79231884766,10.2732216797,1.91267871094,0.117101222581,0.230925604064,0.965721194713,-0.0185267303231
2021/03/16/15:23:20.440717,90277,1615904600,442450047,mocap,-2.79163793945,10.2699931641,1.91280993652,0.118309112753,0.229921676931,0.965819217076,-0.01822659069
2021/03/16/15:23:20.452466,90278,1615904600,452449083,mocap,-2.791,10.2666953125,1.9130526123,0.118281046026,0.228887933213,0.966077779891,-0.0177095451144
2021/03/16/15:23:20.460382,90279,1615904600,462449074,mocap,-2.79035546875,10.2632128906,1.9130625,0.120471811687,0.226759818176,0.966293797469,-0.0185157204989
2021/03/16/15:23:20.471537,90280,1615904600,472449064,mocap,-2.78971899414,10.2597167969,1.91320837402,0.120941388295,0.224740681982,0.96670336801,-0.0186924850288
2021/03/16/15:23:20.480548,90281,1615904600,482449055,mocap,-2.78914550781,10.2562451172,1.91340771484,0.121618247871,0.223378939358,0.966932722624,-0.0187604191388
2021/03/16/15:23:20.492395,90282,1615904600,492449045,mocap,-2.78861303711,10.2527265625,1.91349780273,0.122563998171,0.222076577056,0.967110500136,-0.0189037333806
2021/03/16/15:23:20.500634,90283,1615904600,502449036,mocap,-2.78814331055,10.2492470703,1.91359643555,0.123623319776,0.22137577199,0.967133280478,-0.0190594802962
2021/03/16/15:23:20.512510,90284,1615904600,512450218,mocap,-2.78770532227,10.2458007813,1.91369421387,0.124686894017,0.22123445201,0.96703033711,-0.0189954451929
2021/03/16/15:23:20.520904,90285,1615904600,522450209,mocap,-2.78729541016,10.2422695313,1.91351403809,0.125049483894,0.221080794299,0.96701785558,-0.019035925268
2021/03/16/15:23:20.532339,90286,1615904600,532450199,mocap,-2.78698217773,10.2387871094,1.91343310547,0.126393631516,0.221880063585,0.966657115969,-0.0191809667665
2021/03/16/15:23:20.540654,90287,1615904600,542450190,mocap,-2.78671801758,10.2352167969,1.91313537598,0.126598162243,0.22220974829,0.966554075637,-0.0192081043228
2021/03/16/15:23:20.552485,90288,1615904600,552450180,mocap,-2.78654980469,10.2316621094,1.91292053223,0.127376960377,0.223660020316,0.966121321964,-0.0189972140578
2021/03/16/15:23:20.560478,90289,1615904600,562450171,mocap,-2.78640161133,10.2279414063,1.91241430664,0.126940975866,0.224307632058,0.966032130328,-0.0188149381571
2021/03/16/15:23:20.572143,90290,1615904600,572450161,mocap,-2.78639916992,10.2242060547,1.91205126953,0.127565182861,0.225942169825,0.965574265971,-0.0185365003487
2021/03/16/15:23:20.580624,90291,1615904600,582450151,mocap,-2.78640820313,10.2202744141,1.91143786621,0.127479558235,0.227068308533,0.965322846604,-0.0184597518498
2021/03/16/15:23:20.592178,90292,1615904600,592450142,mocap,-2.78652832031,10.2162910156,1.91093273926,0.128238983927,0.229238603045,0.964709940601,-0.0184166431846
2021/03/16/15:23:20.600641,90293,1615904600,602450132,mocap,-2.78664428711,10.2121337891,1.91015698242,0.12772068516,0.230233576814,0.964544790492,-0.018255749881
2021/03/16/15:23:20.612155,90294,1615904600,612450123,mocap,-2.78685693359,10.2079111328,1.90954138184,0.127620360184,0.231592206653,0.964238815012,-0.0179332552055
2021/03/16/15:23:20.620403,90295,1615904600,622450113,mocap,-2.78711962891,10.2035800781,1.90886352539,0.128360239298,0.234075732325,0.963543436547,-0.017783088979
2021/03/16/15:23:20.632043,90296,1615904600,632450104,mocap,-2.78743530273,10.1991113281,1.90812780762,0.128244113689,0.235756650218,0.963154530292,-0.0174814889086
2021/03/16/15:23:20.640615,90297,1615904600,642450094,mocap,-2.78782592773,10.1944013672,1.90722729492,0.127925910406,0.236908657186,0.962912065991,-0.017595755313
2021/03/16/15:23:20.652037,90298,1615904600,652450085,mocap,-2.78821557617,10.1896494141,1.90643481445,0.127676193894,0.238780123974,0.962484866184,-0.0174850434729
2021/03/16/15:23:20.660945,90299,1615904600,662450075,mocap,-2.78871313477,10.1847480469,1.90568286133,0.128162420088,0.240880830915,0.96189957816,-0.0173212858755
2021/03/16/15:23:20.672069,90300,1615904600,672450066,mocap,-2.78924194336,10.1797373047,1.9048482666,0.128027490648,0.24281132143,0.961435933057,-0.0171046289009
2021/03/16/15:23:20.680608,90301,1615904600,682450056,mocap,-2.78977539063,10.1744560547,1.90379553223,0.127256823906,0.244136207291,0.961200406776,-0.0172336368519
2021/03/16/15:23:20.691763,90302,1615904600,692450047,mocap,-2.790359375,10.1691738281,1.90290344238,0.127300885019,0.245658004079,0.960804333027,-0.0173681474492
2021/03/16/15:23:20.700276,90303,1615904600,702449083,mocap,-2.79105078125,10.163765625,1.90193920898,0.127056552192,0.247341105271,0.960405489339,-0.0173291342346
2021/03/16/15:23:20.711793,90304,1615904600,712449074,mocap,-2.79175488281,10.1582851563,1.90107336426,0.126654579169,0.249538043699,0.959892480064,-0.0171992671988
2021/03/16/15:23:20.720464,90305,1615904600,722449064,mocap,-2.79241381836,10.1526142578,1.90002258301,0.127106408941,0.250950575807,0.959454858047,-0.0177241043592
2021/03/16/15:23:20.730669,90306,1615904600,732449055,mocap,-2.79324438477,10.1469179687,1.89907800293,0.127650286341,0.253497733311,0.958710252542,-0.0178589471677
2021/03/16/15:23:20.740928,90307,1615904600,742449045,mocap,-2.79405151367,10.1410996094,1.8981829834,0.127618491699,0.255327768606,0.958228557325,-0.0178686279284
2021/03/16/15:23:20.750773,90308,1615904600,752449036,mocap,-2.79493188477,10.1351660156,1.89732739258,0.126263404247,0.256644136864,0.958055220898,-0.0179314989642
2021/03/16/15:23:20.761678,90309,1615904600,762450218,mocap,-2.79580517578,10.1291083984,1.89632751465,0.126443072425,0.258331687057,0.957569025716,-0.0183970042403
2021/03/16/15:23:20.770829,90310,1615904600,772450209,mocap,-2.79662426758,10.1228769531,1.89515783691,0.125985386092,0.259383433593,0.957341319088,-0.0185880825399
2021/03/16/15:23:20.781693,90311,1615904600,782450199,mocap,-2.79757958984,10.1165664062,1.89416162109,0.126141976472,0.262100690863,0.956575503144,-0.0188342119778
2021/03/16/15:23:20.790415,90312,1615904600,792450190,mocap,-2.79847021484,10.1101943359,1.89333508301,0.126556326646,0.263428911743,0.956146407282,-0.0193069086773
2021/03/16/15:23:20.801818,90313,1615904600,802450180,mocap,-2.79953881836,10.1036982422,1.8925916748,0.127019946841,0.26348998097,0.956043364133,-0.0204952200913
2021/03/16/15:23:20.810705,90314,1615904600,812450171,mocap,-2.80052270508,10.097125,1.89196191406,0.127677194011,0.265320313507,0.955441310298,-0.0208705063355
2021/03/16/15:23:20.821576,90315,1615904600,822450161,mocap,-2.80162231445,10.0903310547,1.8912310791,0.127882532691,0.26659461946,0.955048277843,-0.0213578702775
2021/03/16/15:23:20.830617,90316,1615904600,832450151,mocap,-2.80269995117,10.0835546875,1.89087133789,0.12778627331,0.267790723219,0.954717306618,-0.0217635809741
2021/03/16/15:23:20.842448,90317,1615904600,842450142,mocap,-2.80385327148,10.0765,1.89030480957,0.128321596477,0.267533683402,0.954693832002,-0.0227809216836
2021/03/16/15:23:20.850580,90318,1615904600,852450132,mocap,-2.80504956055,10.0695253906,1.89032348633,0.128911956752,0.268978656571,0.954196562084,-0.0232617859278
2021/03/16/15:23:20.861452,90319,1615904600,862450123,mocap,-2.80638549805,10.0624902344,1.89069628906,0.129270346512,0.270314600778,0.953758357625,-0.023752740319
2021/03/16/15:23:20.870890,90320,1615904600,872450113,mocap,-2.80769165039,10.0553193359,1.89119958496,0.129371851951,0.271337078854,0.953440035676,-0.024314769581
2021/03/16/15:23:20.881456,90321,1615904600,882450104,mocap,-2.80901489258,10.0480751953,1.89192089844,0.129805492578,0.272126331477,0.9531341693,-0.025160686678
2021/03/16/15:23:20.890556,90322,1615904600,892450094,mocap,-2.81034423828,10.0406796875,1.89263061523,0.131400620705,0.272444688186,0.952794173938,-0.0262871871047
2021/03/16/15:23:20.902570,90323,1615904600,902450085,mocap,-2.81165380859,10.0333427734,1.8937253418,0.131281456308,0.273656661413,0.952444717087,-0.0269494263465
2021/03/16/15:23:20.910596,90324,1615904600,912450075,mocap,-2.81306591797,10.0258554688,1.89479052734,0.132094197137,0.273996880603,0.952205808818,-0.0279454407378
2021/03/16/15:23:20.922584,90325,1615904600,922450066,mocap,-2.81434155273,10.0182861328,1.89599560547,0.132441060115,0.2742862345,0.952044124269,-0.0289553448186
2021/03/16/15:23:20.930474,90326,1615904600,932450056,mocap,-2.8157644043,10.0106171875,1.89719885254,0.133172070587,0.273658860667,0.952088300322,-0.0300648286675
2021/03/16/15:23:20.941265,90327,1615904600,942450047,mocap,-2.81709716797,10.0029482422,1.89867858887,0.134086777383,0.273859288845,0.951868636272,-0.0311114222578
2021/03/16/15:23:20.950458,90328,1615904600,952449083,mocap,-2.81859741211,9.99510351563,1.90012036133,0.134794246714,0.272991866987,0.951984677048,-0.0321110926412
2021/03/16/15:23:20.962180,90329,1615904600,962449074,mocap,-2.81999780273,9.98733203125,1.90182788086,0.135530824421,0.271812898693,0.952176951446,-0.0332897017865
2021/03/16/15:23:20.972114,90330,1615904600,972449064,mocap,-2.82146826172,9.97926171875,1.90326330566,0.136072571777,0.269853650572,0.952620529123,-0.0343131393184
2021/03/16/15:23:20.980770,90331,1615904600,982449055,mocap,-2.82286303711,9.97133691406,1.90499609375,0.135214118206,0.268611184389,0.953056559685,-0.0353323489686
2021/03/16/15:23:20.991125,90332,1615904600,992449045,mocap,-2.82434204102,9.96336132812,1.90666650391,0.136703417631,0.266541212905,0.953377338526,-0.036600677378
2021/03/16/15:23:21.000685,90333,1615904601,2449036,mocap,-2.82569775391,9.9553203125,1.90817565918,0.135728144503,0.263816779174,0.954223140908,-0.0379047101046
2021/03/16/15:23:21.012059,90334,1615904601,12450218,mocap,-2.827015625,9.94717382813,1.90942041016,0.135989744807,0.261903665381,0.954677380697,-0.0387859619991
2021/03/16/15:23:21.020501,90335,1615904601,22450209,mocap,-2.82834033203,9.93925976562,1.91069836426,0.136673101896,0.25951729809,0.955171592211,-0.0402301564689
2021/03/16/15:23:21.032031,90336,1615904601,32450199,mocap,-2.82960205078,9.93124023438,1.91174914551,0.135816382994,0.257500965048,0.955798215044,-0.0411937866652
2021/03/16/15:23:21.040518,90337,1615904601,42450190,mocap,-2.83084423828,9.92337695313,1.91274523926,0.137807141415,0.254950667933,0.956114006345,-0.0430738195275
2021/03/16/15:23:21.052095,90338,1615904601,52450180,mocap,-2.83207324219,9.91552050781,1.91366906738,0.136383554233,0.25440986718,0.956453327927,-0.0432686566268
2021/03/16/15:23:21.060512,90339,1615904601,62450171,mocap,-2.83328491211,9.90773925781,1.91450427246,0.135262595496,0.253472199467,0.956839748608,-0.0437443797471
2021/03/16/15:23:21.072009,90340,1615904601,72450161,mocap,-2.83438769531,9.89996484375,1.91522558594,0.13638519935,0.252205083756,0.956943858302,-0.0452783032245
2021/03/16/15:23:21.080786,90341,1615904601,82450151,mocap,-2.83553149414,9.89212011719,1.91582299805,0.135958423296,0.250672823237,0.957369444901,-0.0460671370913
2021/03/16/15:23:21.090581,90342,1615904601,92450142,mocap,-2.83673925781,9.88450683594,1.91695739746,0.13485783139,0.249857512028,0.95771875405,-0.046469119043
2021/03/16/15:23:21.100954,90343,1615904601,102450132,mocap,-2.83781201172,9.87679296875,1.91783227539,0.134264938609,0.249024982975,0.957979876532,-0.0472655853164
2021/03/16/15:23:21.110934,90344,1615904601,112450123,mocap,-2.83883837891,9.86892285156,1.91850476074,0.134267064929,0.247461324593,0.958348756991,-0.0479886772434
2021/03/16/15:23:21.121964,90345,1615904601,122450113,mocap,-2.83985693359,9.86122167969,1.91961193848,0.13276195539,0.246802920481,0.958707268296,-0.0484040387428
2021/03/16/15:23:21.130451,90346,1615904601,132450104,mocap,-2.84072875977,9.85336621094,1.92049743652,0.133366179137,0.2454013811,0.958930322868,-0.0494394403057
2021/03/16/15:23:21.141814,90347,1615904601,142450094,mocap,-2.84163378906,9.84561621094,1.92162841797,0.132385433057,0.244814612761,0.959207885551,-0.0495997382555
2021/03/16/15:23:21.150976,90348,1615904601,152450085,mocap,-2.84237231445,9.83776171875,1.92266320801,0.131717411688,0.2434423284,0.959612289247,-0.0503052531857
2021/03/16/15:23:21.160643,90349,1615904601,162450075,mocap,-2.84300805664,9.82979882812,1.92356311035,0.130364976281,0.242116885749,0.960100313238,-0.0509094054204
2021/03/16/15:23:21.170650,90350,1615904601,172450066,mocap,-2.84363647461,9.82184765625,1.92445544434,0.130211019916,0.241265482006,0.960310491056,-0.0513791735667
2021/03/16/15:23:21.181809,90351,1615904601,182450056,mocap,-2.84420605469,9.81401953125,1.92560107422,0.130356862209,0.239976789218,0.960574593286,-0.0521024481677
2021/03/16/15:23:21.190780,90352,1615904601,192450047,mocap,-2.84460766602,9.80602050781,1.92644592285,0.130389138799,0.237421607989,0.961139130567,-0.0533031321308
2021/03/16/15:23:21.200656,90353,1615904601,202449083,mocap,-2.84499047852,9.79814941406,1.92752514648,0.130249782991,0.236721151078,0.96130897351,-0.0536948877625
2021/03/16/15:23:21.210932,90354,1615904601,212449074,mocap,-2.84527441406,9.79009960937,1.92816601563,0.129496767824,0.234974138551,0.961792356276,-0.0545270596946
2021/03/16/15:23:21.222517,90355,1615904601,222449064,mocap,-2.8455246582,9.78211523438,1.92887768555,0.129838213102,0.234015640149,0.961931079385,-0.0553834373437
2021/03/16/15:23:21.231067,90356,1615904601,232449055,mocap,-2.84571264648,9.77406835938,1.92944152832,0.129850618574,0.231937043743,0.96238160365,-0.0562643857057
2021/03/16/15:23:21.241740,90357,1615904601,242449045,mocap,-2.8458203125,9.76602441406,1.92985913086,0.130103931231,0.231033108745,0.962533757002,-0.0567929915638
2021/03/16/15:23:21.251572,90358,1615904601,252449036,mocap,-2.84582763672,9.75793066406,1.93003833008,0.129761043827,0.229108268548,0.962996331965,-0.0575286431773
2021/03/16/15:23:21.260787,90359,1615904601,262450218,mocap,-2.84570263672,9.74998144531,1.93014538574,0.129935585339,0.22836229729,0.963036516446,-0.0593976272064
2021/03/16/15:23:21.271706,90360,1615904601,272450209,mocap,-2.84566308594,9.74205761719,1.93034655762,0.129732933454,0.227373882424,0.963254066882,-0.0601006387566
2021/03/16/15:23:21.282389,90361,1615904601,282450199,mocap,-2.84557275391,9.73406152344,1.93026135254,0.130920603537,0.226919361448,0.963132290178,-0.0611848264326
2021/03/16/15:23:21.290532,90362,1615904601,292450190,mocap,-2.84537597656,9.72599902344,1.92995800781,0.131188461224,0.226267865417,0.963200764879,-0.0619412841208
2021/03/16/15:23:21.301346,90363,1615904601,302450180,mocap,-2.84509448242,9.71793359375,1.92943481445,0.131292453037,0.225262278701,0.963369509636,-0.0627565361526
2021/03/16/15:23:21.312437,90364,1615904601,312450171,mocap,-2.84484204102,9.70978613281,1.92886401367,0.132211946624,0.225527471745,0.963147777088,-0.0632749936916
2021/03/16/15:23:21.320575,90365,1615904601,322450161,mocap,-2.84445458984,9.70165429688,1.92799633789,0.1323077647,0.224837882445,0.9632370579,-0.0641634793131
2021/03/16/15:23:21.332406,90366,1615904601,332450151,mocap,-2.84402783203,9.69350878906,1.92706652832,0.13306102655,0.225067973719,0.963042937761,-0.0647106431076
2021/03/16/15:23:21.340528,90367,1615904601,342450142,mocap,-2.84362231445,9.68529199219,1.9260098877,0.133701240555,0.225239925794,0.962875458944,-0.0652825248059
2021/03/16/15:23:21.352324,90368,1615904601,352450132,mocap,-2.84318310547,9.67706054687,1.9247479248,0.134439889725,0.225436997734,0.962682860207,-0.065922582743
2021/03/16/15:23:21.361238,90369,1615904601,362450123,mocap,-2.84272314453,9.66879296875,1.92332434082,0.135017311542,0.225939812738,0.962455086156,-0.066345561995
2021/03/16/15:23:21.371225,90370,1615904601,372450113,mocap,-2.84221069336,9.66047753906,1.9218034668,0.135906340107,0.226767974595,0.962096476807,-0.0669038683659
2021/03/16/15:23:21.380316,90371,1615904601,382450104,mocap,-2.84169677734,9.65212109375,1.92017150879,0.136741606485,0.227482514562,0.961777769396,-0.0673569551068
2021/03/16/15:23:21.392228,90372,1615904601,392450094,mocap,-2.84113012695,9.64370703125,1.91834399414,0.137139562986,0.228254876248,0.961515973589,-0.0676718677793
2021/03/16/15:23:21.400593,90373,1615904601,402450085,mocap,-2.84056396484,9.63526660156,1.91651135254,0.137754392982,0.228931489664,0.961258749259,-0.0677917042527
2021/03/16/15:23:21.411149,90374,1615904601,412450075,mocap,-2.83998046875,9.62673242187,1.91453808594,0.138074776728,0.229732840626,0.96100339431,-0.068048796335
2021/03/16/15:23:21.420541,90375,1615904601,422450066,mocap,-2.83939746094,9.61818164063,1.91259741211,0.139128311713,0.230900597163,0.960562376911,-0.0681773267416
2021/03/16/15:23:21.431295,90376,1615904601,432450056,mocap,-2.83868823242,9.60958691406,1.91046655273,0.139442935146,0.231264612584,0.960404853203,-0.068519155987
2021/03/16/15:23:21.440511,90377,1615904601,442450047,mocap,-2.83806054687,9.60089746094,1.90834667969,0.139459755748,0.232555172843,0.9601104713,-0.0682418693609
2021/03/16/15:23:21.452259,90378,1615904601,452449083,mocap,-2.83736669922,9.59226757812,1.90630700684,0.139757419946,0.233540692682,0.959822744704,-0.0683146898428
2021/03/16/15:23:21.460656,90379,1615904601,462449074,mocap,-2.83668286133,9.58354296875,1.9043380127,0.140154663118,0.234742838717,0.95949390184,-0.0679994003439
2021/03/16/15:23:21.471005,90380,1615904601,472449064,mocap,-2.83597216797,9.57484375,1.90261364746,0.140528659394,0.236230075481,0.959092625493,-0.0677376712575
2021/03/16/15:23:21.482008,90381,1615904601,482449055,mocap,-2.83522143555,9.56611914063,1.90104675293,0.140466991647,0.237439982002,0.958847245864,-0.0671062040271
2021/03/16/15:23:21.492077,90382,1615904601,492449045,mocap,-2.83442749023,9.55722070312,1.89963720703,0.140500957117,0.23837456369,0.958649042551,-0.0665512138002
2021/03/16/15:23:21.502019,90383,1615904601,502449036,mocap,-2.83362548828,9.548234375,1.89849841309,0.140394483659,0.239363224591,0.958466150921,-0.0658580367982
2021/03/16/15:23:21.512079,90384,1615904601,512450218,mocap,-2.83278271484,9.53923046875,1.89762438965,0.140393787997,0.240001980589,0.958361763463,-0.0650489964634
2021/03/16/15:23:21.520450,90385,1615904601,522450209,mocap,-2.83189575195,9.53009375,1.89691210938,0.140693717708,0.240524671442,0.958226450198,-0.0644610694579
2021/03/16/15:23:21.530889,90386,1615904601,532450199,mocap,-2.83102246094,9.52093261719,1.89644396973,0.140388288423,0.241152572242,0.958155948179,-0.0638259532643
2021/03/16/15:23:21.540637,90387,1615904601,542450190,mocap,-2.8300871582,9.51172167969,1.8961842041,0.140121184623,0.241471876213,0.958173412822,-0.0629372368331
2021/03/16/15:23:21.550444,90388,1615904601,552450180,mocap,-2.82914770508,9.50250683594,1.89622961426,0.140530064286,0.242267889209,0.957958558476,-0.0622331756046
2021/03/16/15:23:21.561742,90389,1615904601,562450171,mocap,-2.82821459961,9.49320214844,1.89665625,0.140147679352,0.242931081221,0.957909550814,-0.0612570115043
2021/03/16/15:23:21.570443,90390,1615904601,572450161,mocap,-2.82727124023,9.48383984375,1.89737609863,0.138798880127,0.243664037344,0.958009904554,-0.0598308703225
2021/03/16/15:23:21.581858,90391,1615904601,582450151,mocap,-2.8263449707,9.47448730469,1.89856933594,0.138445004662,0.244545945709,0.95790864857,-0.0586624341572
2021/03/16/15:23:21.590369,90392,1615904601,592450142,mocap,-2.82538183594,9.46511328125,1.89989526367,0.138860099583,0.245189638017,0.957733970646,-0.0578407606793
2021/03/16/15:23:21.600513,90393,1615904601,602450132,mocap,-2.82434838867,9.455625,1.90110314941,0.138414863732,0.245495786516,0.957771396533,-0.0569834094014
2021/03/16/15:23:21.610797,90394,1615904601,612450123,mocap,-2.82332861328,9.4461171875,1.90242907715,0.138545862129,0.245507575615,0.957800606534,-0.0561164765686
2021/03/16/15:23:21.623246,90395,1615904601,622450113,mocap,-2.82229223633,9.43673144531,1.90399560547,0.138329822011,0.245841178966,0.957794212304,-0.0552919859288
2021/03/16/15:23:21.630556,90396,1615904601,632450104,mocap,-2.82129345703,9.42723632812,1.9055045166,0.138360329885,0.245913181084,0.957817750951,-0.0544820366844
2021/03/16/15:23:21.642816,90397,1615904601,642450094,mocap,-2.82027587891,9.41784667969,1.9071328125,0.138495516903,0.24583633323,0.957856612567,-0.05379769857
2021/03/16/15:23:21.650820,90398,1615904601,652450085,mocap,-2.81930200195,9.40831835938,1.90857470703,0.138777469928,0.245298281376,0.957970442515,-0.0534995180207
2021/03/16/15:23:21.662553,90399,1615904601,662450075,mocap,-2.81840600586,9.39884082031,1.91011413574,0.139435668591,0.244624748373,0.958069537835,-0.0530959895901
2021/03/16/15:23:21.670407,90400,1615904601,672450066,mocap,-2.8174609375,9.38933691406,1.91143469238,0.139327843147,0.243308502533,0.958444011904,-0.052666758135
2021/03/16/15:23:21.682618,90401,1615904601,682450056,mocap,-2.81657495117,9.37988769531,1.91268737793,0.140172063891,0.24186986589,0.958723665992,-0.0519586609769
2021/03/16/15:23:21.690659,90402,1615904601,692450047,mocap,-2.81572705078,9.37043359375,1.91361706543,0.140064030788,0.240572230437,0.959084771644,-0.0516088427087
2021/03/16/15:23:21.702471,90403,1615904601,702449083,mocap,-2.81500463867,9.36112890625,1.91456506348,0.140542327505,0.239386947297,0.959336249286,-0.0511439610686
2021/03/16/15:23:21.710721,90404,1615904601,712449074,mocap,-2.81433666992,9.35181445312,1.91533728027,0.140690667836,0.238461843861,0.959588336523,-0.0503219657597
2021/03/16/15:23:21.722276,90405,1615904601,722449064,mocap,-2.81372998047,9.34267089844,1.91609765625,0.141197483556,0.237709182115,0.959744806495,-0.0494723640134
2021/03/16/15:23:21.730551,90406,1615904601,732449055,mocap,-2.81317626953,9.33355175781,1.91671789551,0.141219779711,0.237397093132,0.959875512421,-0.048358974672
2021/03/16/15:23:21.742327,90407,1615904601,742449045,mocap,-2.81269750977,9.32451660156,1.91732177734,0.140946662619,0.236988935473,0.960072911543,-0.0472258536554
2021/03/16/15:23:21.750668,90408,1615904601,752449036,mocap,-2.81226538086,9.31555859375,1.91794567871,0.14120458295,0.236969033381,0.96009534669,-0.0460854240411
2021/03/16/15:23:21.762074,90409,1615904601,762450218,mocap,-2.81187133789,9.30657128906,1.91850268555,0.141224736425,0.236833576829,0.960187433169,-0.0447831186281
2021/03/16/15:23:21.771054,90410,1615904601,772450209,mocap,-2.81154516602,9.29765917969,1.91910290527,0.141647483409,0.236374316203,0.960303958367,-0.0433529792802
2021/03/16/15:23:21.782060,90411,1615904601,782450199,mocap,-2.81122070313,9.28872167969,1.91961047363,0.14171051762,0.236242033858,0.9603846906,-0.0420602180861
2021/03/16/15:23:21.790850,90412,1615904601,792450190,mocap,-2.81096557617,9.27977050781,1.92014978027,0.141748139254,0.235910553741,0.960522957683,-0.0406118699761
2021/03/16/15:23:21.801015,90413,1615904601,802450180,mocap,-2.81078710938,9.270875,1.92067712402,0.141764122847,0.235535821613,0.960672869337,-0.0391593080439
2021/03/16/15:23:21.810529,90414,1615904601,812450171,mocap,-2.81061352539,9.26196191406,1.92127490234,0.141971605448,0.234888858942,0.96085493772,-0.037803195744
2021/03/16/15:23:21.821912,90415,1615904601,822450161,mocap,-2.81051538086,9.25298730469,1.92179370117,0.141662936248,0.234113679533,0.961147471492,-0.0363034740517
2021/03/16/15:23:21.830917,90416,1615904601,832450151,mocap,-2.81037841797,9.24393847656,1.92219152832,0.14198819019,0.232791849656,0.961463846099,-0.0351368053433
2021/03/16/15:23:21.841167,90417,1615904601,842450142,mocap,-2.81034619141,9.2350234375,1.92272229004,0.141895066769,0.232276937397,0.961649731562,-0.0338083732462
2021/03/16/15:23:21.850408,90418,1615904601,852450132,mocap,-2.81030957031,9.22593457031,1.92309204102,0.142387759681,0.230692692,0.962003031842,-0.0325079967602
2021/03/16/15:23:21.862078,90419,1615904601,862450123,mocap,-2.81027832031,9.21694140625,1.92351953125,0.142614745618,0.22907710212,0.962386705493,-0.031568076705
2021/03/16/15:23:21.870367,90420,1615904601,872450113,mocap,-2.81026342773,9.20793945313,1.92388171387,0.14270270501,0.227866410987,0.96269831565,-0.0304102213819
2021/03/16/15:23:21.880548,90421,1615904601,882450104,mocap,-2.81034448242,9.19891699219,1.92413818359,0.142795546405,0.226416417608,0.963070796491,-0.0289772273882
2021/03/16/15:23:21.891703,90422,1615904601,892450094,mocap,-2.81042871094,9.18995996094,1.92438476562,0.142269862592,0.224743139022,0.963574930424,-0.0278056611472
2021/03/16/15:23:21.900655,90423,1615904601,902450085,mocap,-2.81055908203,9.18101367188,1.92452575684,0.142137996952,0.223485044911,0.963919842025,-0.0266413915879
2021/03/16/15:23:21.910984,90424,1615904601,912450075,mocap,-2.81075756836,9.1720078125,1.92448034668,0.142232967851,0.222449469098,0.964174115476,-0.0255793769305
2021/03/16/15:23:21.921779,90425,1615904601,922450066,mocap,-2.81095166016,9.16306933594,1.92435083008,0.141935022858,0.221328229511,0.964497778327,-0.0247447778294
2021/03/16/15:23:21.930568,90426,1615904601,932450056,mocap,-2.81117382812,9.15419042969,1.92414611816,0.141742458929,0.220335759104,0.964775260626,-0.0238733457106
2021/03/16/15:23:21.941870,90427,1615904601,942450047,mocap,-2.81146582031,9.14532617188,1.92387976074,0.141913725124,0.219744362836,0.964911014513,-0.0227955937816
2021/03/16/15:23:21.950573,90428,1615904601,952449083,mocap,-2.81174755859,9.13648144531,1.92343481445,0.141270721259,0.219233081746,0.965142555146,-0.0218925075657
2021/03/16/15:23:21.961759,90429,1615904601,962449074,mocap,-2.81205639648,9.12758691406,1.92290161133,0.140996721534,0.218872370862,0.965282572057,-0.0210798067439
2021/03/16/15:23:21.970535,90430,1615904601,972449064,mocap,-2.81242919922,9.11877636719,1.92226928711,0.140504557381,0.218745292736,0.965411524956,-0.0197373457295
2021/03/16/15:23:21.981838,90431,1615904601,982449055,mocap,-2.81278076172,9.10989746094,1.92152746582,0.140321784945,0.2187846825,0.965441460743,-0.0191267706477
2021/03/16/15:23:21.992595,90432,1615904601,992449045,mocap,-2.81320166016,9.10103125,1.92070825195,0.140141321437,0.218578333367,0.96552478832,-0.0185959228697
2021/03/16/15:23:22.000803,90433,1615904602,2449036,mocap,-2.81362304688,9.092125,1.91975463867,0.139892873884,0.218961459671,0.965493975395,-0.0175285267298
2021/03/16/15:23:22.011561,90434,1615904602,12450218,mocap,-2.81410253906,9.08319628906,1.91878430176,0.138965294766,0.218872831943,0.965663700501,-0.0166418612759
2021/03/16/15:23:22.020739,90435,1615904602,22450209,mocap,-2.81464038086,9.07427832031,1.91769433594,0.139352260726,0.219446678809,0.965480401345,-0.0164831554634
2021/03/16/15:23:22.031265,90436,1615904602,32450199,mocap,-2.81513720703,9.06534277344,1.9165177002,0.138843157333,0.219696943786,0.965511415338,-0.0156059237243
2021/03/16/15:23:22.041371,90437,1615904602,42450190,mocap,-2.81571411133,9.0563515625,1.91524938965,0.138256062869,0.220097118223,0.965507688155,-0.0154086174992
2021/03/16/15:23:22.050561,90438,1615904602,52450180,mocap,-2.81634082031,9.04745605469,1.91394177246,0.138183774733,0.220882897986,0.965342952375,-0.0151316687227
2021/03/16/15:23:22.062443,90439,1615904602,62450171,mocap,-2.81693823242,9.0384140625,1.91246716309,0.137404151367,0.221411236066,0.965343971159,-0.0144285145307
2021/03/16/15:23:22.070608,90440,1615904602,72450161,mocap,-2.81769042969,9.02940234375,1.91097790527,0.137472889972,0.222214449615,0.965144461902,-0.0147689270165
2021/03/16/15:23:22.082566,90441,1615904602,82450151,mocap,-2.8183737793,9.02044433594,1.90940283203,0.136923609992,0.222767852921,0.965100628715,-0.0143936866815
2021/03/16/15:23:22.090679,90442,1615904602,92450142,mocap,-2.81911547852,9.01132519531,1.90774511719,0.13607747821,0.223611419471,0.965025919346,-0.0143467537634
2021/03/16/15:23:22.102355,90443,1615904602,102450132,mocap,-2.81990112305,9.00222851562,1.90614416504,0.136048979548,0.224283813477,0.964870622392,-0.014564429949
2021/03/16/15:23:22.110603,90444,1615904602,112450123,mocap,-2.82072827148,8.99308203125,1.90457312012,0.135643521571,0.224766079619,0.964811625699,-0.0148182843186
2021/03/16/15:23:22.122178,90445,1615904602,122450113,mocap,-2.82159448242,8.9839375,1.90312915039,0.134958590799,0.225523670853,0.964726220822,-0.0151185660251
2021/03/16/15:23:22.130713,90446,1615904602,132450104,mocap,-2.82246484375,8.97466210938,1.90177038574,0.134598494617,0.226020078293,0.964652957662,-0.0155834398291
2021/03/16/15:23:22.142102,90447,1615904602,142450094,mocap,-2.82335229492,8.965421875,1.90055737305,0.134134288493,0.226574802647,0.964576104915,-0.0162720900328
2021/03/16/15:23:22.150437,90448,1615904602,152450085,mocap,-2.82424707031,8.95609667969,1.89948632813,0.13420970548,0.227233331401,0.964396253279,-0.0171064515641
2021/03/16/15:23:22.162277,90449,1615904602,162450075,mocap,-2.82519506836,8.94676660156,1.89855187988,0.133807304745,0.227881892296,0.964289533075,-0.0176393487942
2021/03/16/15:23:22.170835,90450,1615904602,172450066,mocap,-2.8261027832,8.93749023437,1.8978145752,0.13409941181,0.22856293966,0.964057687101,-0.0192120514622
2021/03/16/15:23:22.182175,90451,1615904602,182450056,mocap,-2.82705908203,8.92813671875,1.8971361084,0.1341261961,0.22946752796,0.963825924501,-0.0198595394774
2021/03/16/15:23:22.190465,90452,1615904602,192450047,mocap,-2.82800708008,8.91881152344,1.89661767578,0.134409717332,0.230777622519,0.963446381299,-0.0211375261836
2021/03/16/15:23:22.201395,90453,1615904602,202449083,mocap,-2.82896923828,8.90946679687,1.89636669922,0.135176364388,0.231645669591,0.963104881916,-0.0222851486808
2021/03/16/15:23:22.211944,90454,1615904602,212449074,mocap,-2.8299909668,8.90011035156,1.89643859863,0.135152055635,0.232967034088,0.962762804813,-0.0234107947351
2021/03/16/15:23:22.220514,90455,1615904602,222449064,mocap,-2.83104272461,8.89073339844,1.89695458984,0.135356109209,0.234231147668,0.96240805707,-0.0241915201974
2021/03/16/15:23:22.232130,90456,1615904602,232449055,mocap,-2.83210375977,8.88127050781,1.89772021484,0.135612353975,0.235291838563,0.962081151092,-0.0254341404916
2021/03/16/15:23:22.240702,90457,1615904602,242449045,mocap,-2.83314599609,8.87173730469,1.89858532715,0.136278145484,0.23613230357,0.961754838962,-0.0264090172694
2021/03/16/15:23:22.251035,90458,1615904602,252449036,mocap,-2.83413720703,8.86217285156,1.89964978027,0.136398540913,0.23646839998,0.961610349159,-0.0279942059227
2021/03/16/15:23:22.260322,90459,1615904602,262450218,mocap,-2.8352668457,8.85262011719,1.90093859863,0.136967825624,0.236933893318,0.961386707417,-0.028943769545
2021/03/16/15:23:22.271283,90460,1615904602,272450209,mocap,-2.83634301758,8.84313769531,1.90250769043,0.137636824068,0.23763207986,0.961082873939,-0.0301130903687
2021/03/16/15:23:22.280571,90461,1615904602,282450199,mocap,-2.8374465332,8.83358203125,1.90411828613,0.137788358312,0.237905673469,0.960952122895,-0.031404900386
2021/03/16/15:23:22.290908,90462,1615904602,292450190,mocap,-2.83851025391,8.82407226563,1.90580175781,0.138272856439,0.237595459475,0.960919899508,-0.032587953321
2021/03/16/15:23:22.300780,90463,1615904602,302450180,mocap,-2.83956396484,8.81458105469,1.90740576172,0.1384231448,0.236828590221,0.961026738063,-0.0343345243182
2021/03/16/15:23:22.311839,90464,1615904602,312450171,mocap,-2.84063305664,8.80512792969,1.90902697754,0.138630056839,0.235796775637,0.961208344104,-0.0354979661913
2021/03/16/15:23:22.321724,90465,1615904602,322450161,mocap,-2.84164160156,8.79565039062,1.91046606445,0.138644088683,0.234938224744,0.961387226655,-0.0362827957299
2021/03/16/15:23:22.330728,90466,1615904602,332450151,mocap,-2.84273388672,8.7862890625,1.91184606934,0.138728612017,0.233779326288,0.961614323888,-0.0374096895886
2021/03/16/15:23:22.341755,90467,1615904602,342450142,mocap,-2.84369482422,8.77714160156,1.91319787598,0.138265037763,0.23289235752,0.961858106816,-0.0383786081536
2021/03/16/15:23:22.350839,90468,1615904602,352450132,mocap,-2.84473852539,8.76798925781,1.91431237793,0.138576313178,0.232257382757,0.961939498643,-0.0390579013112
2021/03/16/15:23:22.360531,90469,1615904602,362450123,mocap,-2.84574975586,8.7590703125,1.9153996582,0.137818039014,0.231955681017,0.962097452565,-0.0396389000909
2021/03/16/15:23:22.371493,90470,1615904602,372450113,mocap,-2.84669262695,8.75015429687,1.91629846191,0.137348746197,0.232299777855,0.962059753538,-0.0401642280681
2021/03/16/15:23:22.380534,90471,1615904602,382450104,mocap,-2.84771972656,8.74151660156,1.91735778809,0.136412395542,0.232880439698,0.962052419559,-0.0401684057567
2021/03/16/15:23:22.390480,90472,1615904602,392450094,mocap,-2.84858886719,8.7329375,1.91835974121,0.135870979037,0.233669280413,0.9619383136,-0.0401549546375
2021/03/16/15:23:22.400658,90473,1615904602,402450085,mocap,-2.84945507813,8.72431640625,1.91914855957,0.135064039023,0.234581592173,0.961809940802,-0.0406303393317
2021/03/16/15:23:22.412816,90474,1615904602,412450075,mocap,-2.85035571289,8.71585449219,1.92016992187,0.134403944165,0.236049057226,0.961548564427,-0.0405065157015
2021/03/16/15:23:22.420587,90475,1615904602,422450066,mocap,-2.85112597656,8.70736328125,1.92106945801,0.133850995384,0.23709049644,0.961367371404,-0.0405557844986
2021/03/16/15:23:22.431568,90476,1615904602,432450056,mocap,-2.85191601563,8.69890429687,1.92201672363,0.13290961578,0.238366432829,0.96118350873,-0.0405307410309
2021/03/16/15:23:22.442655,90477,1615904602,442450047,mocap,-2.85258789063,8.69037695312,1.92287487793,0.13216961295,0.239422127577,0.961019140358,-0.0406258248828
2021/03/16/15:23:22.450497,90478,1615904602,452449083,mocap,-2.85323803711,8.68181640625,1.92374023438,0.132047130185,0.240333878288,0.960799005654,-0.0408468558734
2021/03/16/15:23:22.461439,90479,1615904602,462449074,mocap,-2.853890625,8.67332519531,1.92468457031,0.130816805799,0.240510840625,0.960914510747,-0.0410462774957
2021/03/16/15:23:22.471762,90480,1615904602,472449064,mocap,-2.85438500977,8.66478320312,1.9256295166,0.130736313468,0.240977770616,0.960785186916,-0.0415880433075
2021/03/16/15:23:22.480467,90481,1615904602,482449055,mocap,-2.85480029297,8.656140625,1.92638085938,0.129593399881,0.241038053364,0.960923210286,-0.0416267487077
2021/03/16/15:23:22.491605,90482,1615904602,492449045,mocap,-2.85527685547,8.64741308594,1.92702209473,0.129612063734,0.241017366645,0.960902221156,-0.0421695213949
2021/03/16/15:23:22.502744,90483,1615904602,502449036,mocap,-2.85565600586,8.63884472656,1.92786755371,0.129256985488,0.241257842223,0.960877664766,-0.0424428580752
2021/03/16/15:23:22.511256,90484,1615904602,512450218,mocap,-2.85594848633,8.63016699219,1.92847595215,0.1288772764,0.240729732351,0.961047507401,-0.0427495255173
2021/03/16/15:23:22.522352,90485,1615904602,522450209,mocap,-2.85616625977,8.62146289063,1.92895996094,0.128416376325,0.24056019743,0.961131479487,-0.0432007642072
2021/03/16/15:23:22.530417,90486,1615904602,532450199,mocap,-2.85636254883,8.61278125,1.92945861816,0.128244387884,0.239935437519,0.961272692952,-0.0440359822901
2021/03/16/15:23:22.542202,90487,1615904602,542450190,mocap,-2.85653857422,8.60399023438,1.92968505859,0.128884926786,0.239934279392,0.961147843577,-0.0448892373912
2021/03/16/15:23:22.550640,90488,1615904602,552450180,mocap,-2.85659106445,8.5953515625,1.93000170898,0.128194872181,0.23886645676,0.961496888142,-0.0450847041253
2021/03/16/15:23:22.562165,90489,1615904602,562450171,mocap,-2.85662963867,8.58654589844,1.93007080078,0.129102237157,0.238478837253,0.961432662792,-0.0459094861486
2021/03/16/15:23:22.570707,90490,1615904602,572450161,mocap,-2.85661181641,8.57787792969,1.93010961914,0.12935187649,0.238153078508,0.961450098911,-0.0465285073075
2021/03/16/15:23:22.581998,90491,1615904602,582450151,mocap,-2.85654174805,8.5691953125,1.93002294922,0.129379702979,0.237645694284,0.961541009588,-0.0471624490662
2021/03/16/15:23:22.590505,90492,1615904602,592450142,mocap,-2.8564543457,8.56051953125,1.92977209473,0.129673298911,0.237439615745,0.96151849969,-0.0478479095442
2021/03/16/15:23:22.602065,90493,1615904602,602450132,mocap,-2.85632788086,8.55181542969,1.92943273926,0.130274941479,0.237210602888,0.961465473431,-0.0484119449418
2021/03/16/15:23:22.610693,90494,1615904602,612450123,mocap,-2.85616479492,8.54317871094,1.92895422363,0.130305827922,0.237016451212,0.961487271661,-0.0488448988419
2021/03/16/15:23:22.620928,90495,1615904602,622450113,mocap,-2.85587768555,8.53451269531,1.92838171387,0.130629939247,0.237004966373,0.961423270405,-0.0492924630599
2021/03/16/15:23:22.632309,90496,1615904602,632450104,mocap,-2.85562597656,8.52588574219,1.92773242188,0.130791957217,0.237283684842,0.961311430401,-0.0497016098146
2021/03/16/15:23:22.640602,90497,1615904602,642450094,mocap,-2.85533984375,8.51725195312,1.92693469238,0.131253581151,0.237590759847,0.961168579292,-0.0497804322902
2021/03/16/15:23:22.650891,90498,1615904602,652450085,mocap,-2.85498193359,8.50859375,1.92603088379,0.131672755026,0.238071129919,0.960976312985,-0.0500893210214
2021/03/16/15:23:22.660500,90499,1615904602,662450075,mocap,-2.85461572266,8.499953125,1.9251027832,0.131807537404,0.238584259519,0.960829868337,-0.0501027798353
2021/03/16/15:23:22.670894,90500,1615904602,672450066,mocap,-2.85422485352,8.49127539063,1.92408166504,0.132366677041,0.238851066084,0.96067089166,-0.0504050636517
2021/03/16/15:23:22.681982,90501,1615904602,682450056,mocap,-2.85371923828,8.48255664063,1.9229498291,0.132769290297,0.239180469923,0.960523019737,-0.0506018255581
2021/03/16/15:23:22.690572,90502,1615904602,692450047,mocap,-2.85326123047,8.47387597656,1.92173376465,0.132750864886,0.239600927994,0.960424037927,-0.0505397221401
2021/03/16/15:23:22.700728,90503,1615904602,702449083,mocap,-2.85275732422,8.465203125,1.92045837402,0.133362445556,0.239844286067,0.960263706089,-0.0508212211392
2021/03/16/15:23:22.710924,90504,1615904602,712449074,mocap,-2.85222314453,8.45652441406,1.91909069824,0.133791942445,0.240401864321,0.960054907172,-0.0510022743677
2021/03/16/15:23:22.721984,90505,1615904602,722449064,mocap,-2.85164916992,8.44790136719,1.91763867188,0.134467614447,0.241056861078,0.959786640849,-0.0511827593375
2021/03/16/15:23:22.731901,90506,1615904602,732449055,mocap,-2.85106542969,8.43931152344,1.91616882324,0.13454054014,0.241898585721,0.95957001248,-0.0510812775856
2021/03/16/15:23:22.741027,90507,1615904602,742449045,mocap,-2.85046411133,8.43073144531,1.91471276855,0.134788460287,0.242883457039,0.959284181987,-0.0511229098966
2021/03/16/15:23:22.751973,90508,1615904602,752449036,mocap,-2.84981835937,8.42208300781,1.91326672363,0.134475877266,0.243693754259,0.959140267686,-0.0507891993632
2021/03/16/15:23:22.760612,90509,1615904602,762450218,mocap,-2.84919628906,8.41346386719,1.91192199707,0.133949882121,0.244842814548,0.958935147826,-0.0505253153085
2021/03/16/15:23:22.771476,90510,1615904602,772450209,mocap,-2.84849169922,8.40482714844,1.91074584961,0.134549929256,0.245194977526,0.958769982141,-0.0503573722577
2021/03/16/15:23:22.780608,90511,1615904602,782450199,mocap,-2.84782739258,8.39609667969,1.90955859375,0.133457095164,0.245612735342,0.958836817995,-0.0499554266457
2021/03/16/15:23:22.790531,90512,1615904602,792450190,mocap,-2.84712329102,8.38739746094,1.90863537598,0.133879439001,0.246234995434,0.958647177279,-0.0493984692185
2021/03/16/15:23:22.801496,90513,1615904602,802450180,mocap,-2.8463515625,8.37870605469,1.90771887207,0.133268991511,0.246175063347,0.958777115872,-0.0488227561171
2021/03/16/15:23:22.811404,90514,1615904602,812450171,mocap,-2.84559301758,8.37000390625,1.90687011719,0.132952028301,0.246186090344,0.958840881924,-0.0483768920027
2021/03/16/15:23:22.822433,90515,1615904602,822450161,mocap,-2.84478320312,8.36125683594,1.90604589844,0.132540985318,0.246457048523,0.9588571297,-0.0477997536217
2021/03/16/15:23:22.830546,90516,1615904602,832450151,mocap,-2.84394189453,8.35260351563,1.9052520752,0.131922002666,0.246689359566,0.958931022139,-0.0468212973182
2021/03/16/15:23:22.842755,90517,1615904602,842450142,mocap,-2.84303466797,8.34399902344,1.90473242187,0.131701634001,0.246912678759,0.958943562309,-0.0460005892768
2021/03/16/15:23:22.850642,90518,1615904602,852450132,mocap,-2.84207495117,8.33537109375,1.90439318848,0.131109142989,0.247681188902,0.958885420843,-0.0447567722817
2021/03/16/15:23:22.862508,90519,1615904602,862450123,mocap,-2.84112597656,8.32679492188,1.90450427246,0.130163196922,0.248523053227,0.958863882043,-0.0432883863576
2021/03/16/15:23:22.870615,90520,1615904602,872450113,mocap,-2.84017529297,8.31825585938,1.9048182373,0.129841865803,0.249199512255,0.958777418938,-0.0422674920761
2021/03/16/15:23:22.882344,90521,1615904602,882450104,mocap,-2.83918994141,8.30965625,1.90529040527,0.129826704527,0.249721461524,0.958670189817,-0.0416614991476
2021/03/16/15:23:22.890896,90522,1615904602,892450094,mocap,-2.83813525391,8.30105078125,1.90592480469,0.129674477221,0.250014800279,0.958657731561,-0.0406507253241
2021/03/16/15:23:22.902239,90523,1615904602,902450085,mocap,-2.83704296875,8.29250292969,1.90681115723,0.129112604647,0.249862802091,0.958833764208,-0.0391960648307
