time,.header.seq,.header.stamp.secs,.header.stamp.nsecs,.header.frame_id,.pose.position.x,.pose.position.y,.pose.position.z,.pose.orientation.x,.pose.orientation.y,.pose.orientation.z,.pose.orientation.w
2021/03/16/15:16:43.580722,52865,1615904203,582450151,mocap,-2.793390625,10.3856923828,1.93451403809,0.157746181313,0.254256290611,0.953215594755,-0.04301060199
2021/03/16/15:16:43.591621,52866,1615904203,592450142,mocap,-2.79336303711,10.3857607422,1.93450109863,0.15797190979,0.254362761004,0.953147473618,-0.0430621633316
2021/03/16/15:16:43.600947,52867,1615904203,602450132,mocap,-2.79328833008,10.3858242188,1.93451586914,0.158010986676,0.254299605265,0.953155485823,-0.0431144193028
2021/03/16/15:16:43.612549,52868,1615904203,612450123,mocap,-2.79326879883,10.3858710937,1.93453112793,0.15793717861,0.254208740831,0.953185360983,-0.0432599846252
2021/03/16/15:16:43.620601,52869,1615904203,622450113,mocap,-2.79319433594,10.3859003906,1.9345177002,0.157932452637,0.254219920036,0.953184446451,-0.0432317254
2021/03/16/15:16:43.632360,52870,1615904203,632450104,mocap,-2.79314770508,10.3859277344,1.93448791504,0.158349629613,0.25433658796,0.953077205648,-0.0433834917731
2021/03/16/15:16:43.640687,52871,1615904203,642450094,mocap,-2.79311547852,10.3859990234,1.93453967285,0.158133060374,0.254233418722,0.953139375359,-0.0434121784881
2021/03/16/15:16:43.652339,52872,1615904203,652450085,mocap,-2.79306225586,10.3859902344,1.93451318359,0.158268740237,0.254103679383,0.953140821482,-0.0436451109449
2021/03/16/15:16:43.661096,52873,1615904203,662450075,mocap,-2.79302075195,10.3860244141,1.93450268555,0.158193217056,0.254084908564,0.953153234595,-0.0437569643848
2021/03/16/15:16:43.672147,52874,1615904203,672450066,mocap,-2.79300366211,10.3860625,1.93454577637,0.158328744815,0.254004138477,0.953144901881,-0.0439169786914
2021/03/16/15:16:43.680648,52875,1615904203,682450056,mocap,-2.79295507812,10.3860585938,1.93451831055,0.158364612832,0.254013369379,0.953130620408,-0.044043941772
2021/03/16/15:16:43.692235,52876,1615904203,692450047,mocap,-2.79291943359,10.3860732422,1.93455236816,0.15831329585,0.25404245099,0.95312609438,-0.0441586310966
2021/03/16/15:16:43.701006,52877,1615904203,702450037,mocap,-2.79288989258,10.3860673828,1.93450231934,0.158638328949,0.253962078958,0.953084749404,-0.0443464321898
2021/03/16/15:16:43.710865,52878,1615904203,712450027,mocap,-2.79285961914,10.3860673828,1.9345222168,0.158607021728,0.253868616352,0.953104847554,-0.0445610984538
2021/03/16/15:16:43.720961,52879,1615904203,722450256,mocap,-2.7928425293,10.3860810547,1.93451867676,0.158757375573,0.253866522093,0.953074821339,-0.0446795611467
2021/03/16/15:16:43.730764,52880,1615904203,732450247,mocap,-2.79283764648,10.3860830078,1.93456201172,0.158636840434,0.253838293856,0.953099563134,-0.0447402497283
2021/03/16/15:16:43.740872,52881,1615904203,742450237,mocap,-2.79281347656,10.3860800781,1.9345501709,0.158713149336,0.253863676698,0.953080426409,-0.0447333541434
2021/03/16/15:16:43.750990,52882,1615904203,752450228,mocap,-2.79281469727,10.3860878906,1.93455957031,0.158619922225,0.253719655792,0.953124421542,-0.0449432560068
2021/03/16/15:16:43.760948,52883,1615904203,762450218,mocap,-2.79282250977,10.3860791016,1.93455493164,0.158762905417,0.253802776626,0.953078558056,-0.0449415769843
2021/03/16/15:16:43.770991,52884,1615904203,772450209,mocap,-2.79283911133,10.3860927734,1.934546875,0.158680453815,0.253751252512,0.953098757961,-0.0450951305846
2021/03/16/15:16:43.782808,52885,1615904203,782450199,mocap,-2.79284521484,10.3861074219,1.93457019043,0.158710990356,0.25370021142,0.95309794497,-0.0452915385849
2021/03/16/15:16:43.790799,52886,1615904203,792450190,mocap,-2.79286816406,10.3860947266,1.9345736084,0.158763677602,0.253685449365,0.953088470447,-0.0453890258492
2021/03/16/15:16:43.801136,52887,1615904203,802450180,mocap,-2.79288427734,10.3860791016,1.93458935547,0.15853632237,0.253669376911,0.953129619837,-0.0454092986971
2021/03/16/15:16:43.810703,52888,1615904203,812450171,mocap,-2.79292211914,10.3860742188,1.93458227539,0.158567266849,0.253805287311,0.953084952654,-0.0454794370141
2021/03/16/15:16:43.820996,52889,1615904203,822450161,mocap,-2.79295385742,10.3860644531,1.93457470703,0.158456531691,0.253757069973,0.953113227521,-0.045541812456
2021/03/16/15:16:43.831784,52890,1615904203,832450151,mocap,-2.79298413086,10.3860654297,1.93461523438,0.158282814276,0.253753292573,0.953140422821,-0.0455976078723
2021/03/16/15:16:43.842681,52891,1615904203,842450142,mocap,-2.79302514648,10.3860195312,1.93459301758,0.158284665119,0.253566238091,0.953174230211,-0.0459239913383
2021/03/16/15:16:43.851185,52892,1615904203,852450132,mocap,-2.79307348633,10.3860146484,1.93459313965,0.158063258163,0.253575457336,0.953213882992,-0.0458125368457
2021/03/16/15:16:43.862648,52893,1615904203,862450123,mocap,-2.793109375,10.3860068359,1.93464562988,0.157997316555,0.253560191541,0.953227108035,-0.0458493282185
2021/03/16/15:16:43.870848,52894,1615904203,872450113,mocap,-2.79313305664,10.3859638672,1.93463061523,0.158000923487,0.253403506581,0.953259575833,-0.0460277562532
2021/03/16/15:16:43.881927,52895,1615904203,882450104,mocap,-2.79316674805,10.385921875,1.93462939453,0.157968670102,0.25331377693,0.953285735288,-0.046090582413
2021/03/16/15:16:43.891120,52896,1615904203,892450094,mocap,-2.79318530273,10.3858828125,1.9346361084,0.157852581367,0.253195843122,0.953329267657,-0.046235541462
2021/03/16/15:16:43.902344,52897,1615904203,902450085,mocap,-2.79321191406,10.385875,1.93465539551,0.157756788913,0.253185082605,0.95334900897,-0.0462144800217
2021/03/16/15:16:43.910918,52898,1615904203,912450075,mocap,-2.79322875977,10.385828125,1.93466015625,0.157815010425,0.253057696496,0.953367288468,-0.0463361619473
2021/03/16/15:16:43.921459,52899,1615904203,922450066,mocap,-2.79324194336,10.3857802734,1.93460827637,0.158019619935,0.25307411344,0.95331954534,-0.0465311020122
2021/03/16/15:16:43.931096,52900,1615904203,932450056,mocap,-2.79324609375,10.3857753906,1.93464807129,0.157798490129,0.253034789351,0.953363318432,-0.0465985431865
2021/03/16/15:16:43.940608,52901,1615904203,942450047,mocap,-2.79324902344,10.3857480469,1.9346270752,0.157849131457,0.253167348825,0.953317818133,-0.0466377488564
2021/03/16/15:16:43.951454,52902,1615904203,952450037,mocap,-2.79325463867,10.3857402344,1.93464172363,0.158154722542,0.253083747568,0.953280694158,-0.0468147511644
2021/03/16/15:16:43.960952,52903,1615904203,962450027,mocap,-2.79326879883,10.3857070312,1.93462304688,0.15798899885,0.253172501787,0.953287290608,-0.0467600391821
2021/03/16/15:16:43.972701,52904,1615904203,972450256,mocap,-2.79327636719,10.3856943359,1.93465307617,0.157890193509,0.25320399316,0.953292667775,-0.0468136180183
2021/03/16/15:16:43.980522,52905,1615904203,982450247,mocap,-2.79331933594,10.3856582031,1.9346439209,0.158021149883,0.253175638402,0.953268446837,-0.0470178240497
2021/03/16/15:16:43.992422,52906,1615904203,992450237,mocap,-2.79333666992,10.3856162109,1.93465527344,0.157769920527,0.253145938215,0.953321983744,-0.046936035717
2021/03/16/15:16:44.001013,52907,1615904204,2450228,mocap,-2.79338525391,10.3855566406,1.93466650391,0.157752393305,0.253110303317,0.953329713131,-0.0470300169036
2021/03/16/15:16:44.011335,52908,1615904204,12450218,mocap,-2.79342504883,10.3855185547,1.93467114258,0.157684555069,0.253114522257,0.953330807275,-0.0472122754213
2021/03/16/15:16:44.022408,52909,1615904204,22450209,mocap,-2.79348413086,10.3854619141,1.93468994141,0.157716405265,0.253047366496,0.953337309595,-0.0473344371185
2021/03/16/15:16:44.030599,52910,1615904204,32450199,mocap,-2.79352734375,10.3854023438,1.93468701172,0.157443467868,0.252976901983,0.953399048164,-0.0473760811107
2021/03/16/15:16:44.041350,52911,1615904204,42450190,mocap,-2.7935625,10.3853779297,1.9347097168,0.157473554667,0.252982768652,0.953380738016,-0.0476127994227
2021/03/16/15:16:44.050891,52912,1615904204,52450180,mocap,-2.79359326172,10.3853330078,1.93472558594,0.157503780104,0.252898134043,0.95338874826,-0.0478014950716
2021/03/16/15:16:44.060715,52913,1615904204,62450171,mocap,-2.79362329102,10.3853232422,1.9347388916,0.157376597749,0.252971861902,0.953385645764,-0.0478919960888
2021/03/16/15:16:44.070858,52914,1615904204,72450161,mocap,-2.79365332031,10.3852861328,1.9347532959,0.157403969381,0.25307430422,0.953349032416,-0.047989782901
2021/03/16/15:16:44.082017,52915,1615904204,82450151,mocap,-2.79367016602,10.3852636719,1.93472387695,0.157430914678,0.253361076671,0.953267829387,-0.0480012289725
2021/03/16/15:16:44.090568,52916,1615904204,92450142,mocap,-2.79368725586,10.3852314453,1.93474987793,0.157084584432,0.25342873508,0.953307736186,-0.0479860143025
2021/03/16/15:16:44.102047,52917,1615904204,102450132,mocap,-2.79370678711,10.3852236328,1.93479309082,0.157079875959,0.253667170345,0.953243060695,-0.0480266411978
2021/03/16/15:16:44.110824,52918,1615904204,112450123,mocap,-2.79372070312,10.3852021484,1.93480334473,0.157069482053,0.253961164669,0.953170618935,-0.0479445609241
2021/03/16/15:16:44.122200,52919,1615904204,122450113,mocap,-2.7937043457,10.3851425781,1.93479248047,0.15730214996,0.254215430978,0.953059749246,-0.0480381012625
2021/03/16/15:16:44.130687,52920,1615904204,132450104,mocap,-2.79371630859,10.3851230469,1.93485302734,0.156893381872,0.254386241313,0.953084186556,-0.0479856835833
2021/03/16/15:16:44.142157,52921,1615904204,142450094,mocap,-2.79366845703,10.3850283203,1.93485412598,0.157228888671,0.254726171241,0.952935567385,-0.0480359896314
2021/03/16/15:16:44.150569,52922,1615904204,152450085,mocap,-2.79363012695,10.3849453125,1.934890625,0.157045484903,0.255017032448,0.952897779552,-0.0478419527587
2021/03/16/15:16:44.161958,52923,1615904204,162450075,mocap,-2.79356347656,10.3848222656,1.93493530273,0.157130008331,0.255415816522,0.95278159975,-0.0477508461332
2021/03/16/15:16:44.170923,52924,1615904204,172450066,mocap,-2.79350170898,10.3847070313,1.93496459961,0.156875820651,0.255540292518,0.952797489492,-0.0476033404451
2021/03/16/15:16:44.180903,52925,1615904204,182450056,mocap,-2.7933996582,10.3845449219,1.93497106934,0.157046227223,0.255891856074,0.952681352204,-0.0474771379555
2021/03/16/15:16:44.190855,52926,1615904204,192450047,mocap,-2.79330786133,10.384359375,1.93499523926,0.157077545001,0.256145188459,0.952611839795,-0.0474020795944
2021/03/16/15:16:44.202013,52927,1615904204,202450037,mocap,-2.79318334961,10.3841689453,1.93503234863,0.157320657713,0.256447368348,0.95249141678,-0.047381967482
2021/03/16/15:16:44.210905,52928,1615904204,212450027,mocap,-2.7930703125,10.3839628906,1.93505712891,0.157470476647,0.256663590256,0.952415475812,-0.0472400006172
2021/03/16/15:16:44.222705,52929,1615904204,222450256,mocap,-2.79294213867,10.3836933594,1.93506872559,0.157315102221,0.256854987185,0.952394432178,-0.0471415241282
2021/03/16/15:16:44.231110,52930,1615904204,232450247,mocap,-2.79279394531,10.3833945312,1.93503967285,0.157536521534,0.257056223171,0.952302272792,-0.0471670847378
2021/03/16/15:16:44.242711,52931,1615904204,242450237,mocap,-2.79262866211,10.3830644531,1.93505688477,0.157438540442,0.25763488163,0.952170785495,-0.0469911833549
2021/03/16/15:16:44.250946,52932,1615904204,252450228,mocap,-2.79246191406,10.3827382813,1.93512805176,0.157556759101,0.257963046932,0.952071663133,-0.046802478401
2021/03/16/15:16:44.262837,52933,1615904204,262450218,mocap,-2.79224414062,10.3823574219,1.93513476562,0.157431457441,0.258382055271,0.951980544718,-0.0467664449651
2021/03/16/15:16:44.270941,52934,1615904204,272450209,mocap,-2.79203173828,10.3819892578,1.93513623047,0.157727284189,0.25876733851,0.951822367858,-0.0468589219003
2021/03/16/15:16:44.282662,52935,1615904204,282450199,mocap,-2.79179589844,10.3815615234,1.93519921875,0.157460822681,0.25921611014,0.951759759849,-0.0465452253232
2021/03/16/15:16:44.290840,52936,1615904204,292450190,mocap,-2.79151513672,10.3810927734,1.93519604492,0.157276634703,0.259417229676,0.951740987603,-0.0464312024876
2021/03/16/15:16:44.302813,52937,1615904204,302450180,mocap,-2.79120703125,10.3806083984,1.93520678711,0.157023871957,0.259706531517,0.951707348502,-0.0463587987167
2021/03/16/15:16:44.310777,52938,1615904204,312450171,mocap,-2.79088256836,10.3800556641,1.93521911621,0.156658448838,0.260112382096,0.951671093349,-0.0460631041748
2021/03/16/15:16:44.322540,52939,1615904204,322450161,mocap,-2.79051977539,10.3794794922,1.93523156738,0.156515416568,0.260410614617,0.951621808864,-0.0458821228483
2021/03/16/15:16:44.330681,52940,1615904204,332450151,mocap,-2.79010644531,10.378890625,1.93520007324,0.156362726836,0.260812550522,0.951558302884,-0.0454344847626
2021/03/16/15:16:44.342513,52941,1615904204,342450142,mocap,-2.7896796875,10.3782714844,1.93519140625,0.156652122065,0.261178299694,0.951420831705,-0.0452152315891
2021/03/16/15:16:44.350869,52942,1615904204,352450132,mocap,-2.78923901367,10.3775839844,1.93522717285,0.156777183315,0.261511812955,0.951313000496,-0.0451227305451
2021/03/16/15:16:44.362339,52943,1615904204,362450123,mocap,-2.78875927734,10.3768847656,1.93516809082,0.156999187232,0.261865268178,0.951175940346,-0.0451902890851
2021/03/16/15:16:44.370746,52944,1615904204,372450113,mocap,-2.78826196289,10.3761894531,1.9351628418,0.15699611623,0.262158801414,0.951107367613,-0.0449416725935
2021/03/16/15:16:44.382424,52945,1615904204,382450104,mocap,-2.78773339844,10.375421875,1.93508654785,0.157026242598,0.262475873618,0.951029420247,-0.0446341922439
2021/03/16/15:16:44.390686,52946,1615904204,392450094,mocap,-2.7871574707,10.3746318359,1.93504931641,0.156715516862,0.262780327222,0.95101238065,-0.0442967010376
2021/03/16/15:16:44.402363,52947,1615904204,402450085,mocap,-2.78659423828,10.3738222656,1.93502441406,0.156535430141,0.263107546543,0.95097281627,-0.0438381052348
2021/03/16/15:16:44.410839,52948,1615904204,412450075,mocap,-2.78602148437,10.3729775391,1.93494262695,0.156800693039,0.263157844805,0.950919053083,-0.0437543491298
2021/03/16/15:16:44.422386,52949,1615904204,422450066,mocap,-2.78538842773,10.3720869141,1.93485437012,0.157037641059,0.263168668665,0.95088670909,-0.0435420179624
2021/03/16/15:16:44.432019,52950,1615904204,432450056,mocap,-2.78476196289,10.3711484375,1.93481530762,0.156626819196,0.263383544476,0.950904142702,-0.0433411499157
2021/03/16/15:16:44.440979,52951,1615904204,442450047,mocap,-2.78406811523,10.3702041016,1.93478356934,0.156380448297,0.263346742531,0.950962309888,-0.0431778153196
2021/03/16/15:16:44.451226,52952,1615904204,452450037,mocap,-2.78332373047,10.3691816406,1.93465087891,0.15639622356,0.263808724309,0.950868389741,-0.0423612902948
2021/03/16/15:16:44.460742,52953,1615904204,462450027,mocap,-2.78263891602,10.3681708984,1.9345579834,0.15624232854,0.263549719681,0.950968750056,-0.0422883853522
2021/03/16/15:16:44.471960,52954,1615904204,472450256,mocap,-2.78189916992,10.3670839844,1.93444165039,0.156581927687,0.263458407568,0.950937042387,-0.0423144976178
2021/03/16/15:16:44.480892,52955,1615904204,482450247,mocap,-2.78116894531,10.3660029297,1.93436425781,0.156573813877,0.263316549933,0.950998121994,-0.0418521922258
2021/03/16/15:16:44.491995,52956,1615904204,492450237,mocap,-2.78032177734,10.3648916016,1.93422351074,0.156185982835,0.26308758788,0.951144192585,-0.0414195201056
2021/03/16/15:16:44.500609,52957,1615904204,502450228,mocap,-2.7795078125,10.3636875,1.9340703125,0.155675663903,0.262694206165,0.951354704407,-0.0410007614259
2021/03/16/15:16:44.512220,52958,1615904204,512450218,mocap,-2.77866381836,10.3624794922,1.93388378906,0.155819877351,0.262649577528,0.951355401414,-0.0407217146234
2021/03/16/15:16:44.520770,52959,1615904204,522450209,mocap,-2.77780053711,10.3612128906,1.93370874023,0.156440050863,0.26260106459,0.951273761909,-0.0405637011847
2021/03/16/15:16:44.531847,52960,1615904204,532450199,mocap,-2.77686669922,10.3599365234,1.93353405762,0.156120791804,0.261822293932,0.951564410165,-0.0400068867284
2021/03/16/15:16:44.540994,52961,1615904204,542450190,mocap,-2.77598144531,10.3586210937,1.93338305664,0.155435162086,0.26133260722,0.951829217071,-0.0395767200464
2021/03/16/15:16:44.550744,52962,1615904204,552450180,mocap,-2.77506396484,10.357234375,1.9331763916,0.155572529695,0.260890695143,0.951934720043,-0.039414659302
2021/03/16/15:16:44.561871,52963,1615904204,562450171,mocap,-2.77408398437,10.3558007813,1.93297558594,0.155999641603,0.260132535893,0.952085757026,-0.0390882525007
2021/03/16/15:16:44.572818,52964,1615904204,572450161,mocap,-2.77310595703,10.3543505859,1.93275305176,0.155263916146,0.259651946991,0.952373388078,-0.0381957699584
2021/03/16/15:16:44.580890,52965,1615904204,582450151,mocap,-2.77212841797,10.3528388672,1.93250439453,0.155246803135,0.258793614428,0.952612074431,-0.0381382600038
2021/03/16/15:16:44.592926,52966,1615904204,592450142,mocap,-2.77109423828,10.3512783203,1.93216687012,0.155173380746,0.257865583579,0.952884729775,-0.0379111973391
2021/03/16/15:16:44.600643,52967,1615904204,602450132,mocap,-2.77000610352,10.3497324219,1.93179614258,0.155011897708,0.256700850307,0.95324592136,-0.0373926343519
2021/03/16/15:16:44.612853,52968,1615904204,612450123,mocap,-2.76894482422,10.3481660156,1.93137243652,0.155123276102,0.255706791158,0.953500767412,-0.037243656237
2021/03/16/15:16:44.620651,52969,1615904204,622450113,mocap,-2.76785058594,10.3465195312,1.93075537109,0.155607731947,0.254865865106,0.953660876858,-0.0368856506662
2021/03/16/15:16:44.632575,52970,1615904204,632450104,mocap,-2.76662939453,10.3448798828,1.93002612305,0.155244960152,0.253845666022,0.954008732382,-0.0364516455797
2021/03/16/15:16:44.640854,52971,1615904204,642450094,mocap,-2.76554077148,10.3432695312,1.92928796387,0.155630446775,0.252978019559,0.954188995884,-0.03611992548
2021/03/16/15:16:44.651586,52972,1615904204,652450085,mocap,-2.76437475586,10.3416376953,1.9283807373,0.156098034111,0.252330458206,0.954301186551,-0.0356650600255
2021/03/16/15:16:44.660928,52973,1615904204,662450075,mocap,-2.76317675781,10.3399472656,1.92742175293,0.156162786652,0.251297738867,0.954582163592,-0.0351500695224
2021/03/16/15:16:44.672660,52974,1615904204,672450066,mocap,-2.7619621582,10.3382167969,1.9263548584,0.156604851079,0.250682853723,0.954685778078,-0.0347576911179
2021/03/16/15:16:44.680673,52975,1615904204,682450056,mocap,-2.76076831055,10.3365605469,1.92537731934,0.156507689729,0.249984656388,0.954907134806,-0.0341375943237
2021/03/16/15:16:44.692610,52976,1615904204,692450047,mocap,-2.75955834961,10.3347685547,1.92428637695,0.157362974175,0.249659338513,0.954879724533,-0.0333438685322
2021/03/16/15:16:44.700692,52977,1615904204,702450037,mocap,-2.75837304688,10.3329931641,1.92338989258,0.157336803993,0.248627281466,0.95517412729,-0.0327414846644
2021/03/16/15:16:44.712719,52978,1615904204,712450027,mocap,-2.75711010742,10.3310908203,1.92247106934,0.157499221286,0.247997874016,0.955338698026,-0.0319220342937
2021/03/16/15:16:44.720568,52979,1615904204,722450256,mocap,-2.75591064453,10.3292080078,1.92165319824,0.158395474412,0.247419872123,0.955344219623,-0.0318073910341
2021/03/16/15:16:44.732547,52980,1615904204,732450247,mocap,-2.75467822266,10.3271748047,1.92089343262,0.159121172684,0.24649104193,0.955486842036,-0.0311048366666
2021/03/16/15:16:44.740870,52981,1615904204,742450237,mocap,-2.75331933594,10.3249892578,1.91987792969,0.16113714201,0.244723519072,0.955588494983,-0.0315571859916
2021/03/16/15:16:44.752245,52982,1615904204,752450228,mocap,-2.75222143555,10.3229111328,1.91948669434,0.161141265982,0.244566746394,0.95565914743,-0.0305973481947
2021/03/16/15:16:44.761197,52983,1615904204,762450218,mocap,-2.75103808594,10.3208398438,1.91921264648,0.16070437991,0.24407486011,0.955888166723,-0.0296543618237
2021/03/16/15:16:44.772436,52984,1615904204,772450209,mocap,-2.74979882812,10.3184931641,1.91864624023,0.162737259964,0.242195707245,0.955999433189,-0.0303793863081
2021/03/16/15:16:44.780818,52985,1615904204,782450199,mocap,-2.74869384766,10.3161152344,1.91835632324,0.163393098578,0.240966431853,0.956210146179,-0.0300005266323
2021/03/16/15:16:44.792542,52986,1615904204,792450190,mocap,-2.74750244141,10.3136035156,1.9179666748,0.165952946503,0.238731842538,0.956305738769,-0.0307580688994
2021/03/16/15:16:44.800691,52987,1615904204,802450180,mocap,-2.7464831543,10.3111054688,1.91786022949,0.167245751822,0.237486529048,0.956383980609,-0.0309627602296
2021/03/16/15:16:44.812385,52988,1615904204,812450171,mocap,-2.74546948242,10.3085869141,1.91788342285,0.167945107317,0.236037911905,0.956615474459,-0.031102536921
2021/03/16/15:16:44.820561,52989,1615904204,822450161,mocap,-2.74456298828,10.3060488281,1.91804650879,0.167701300574,0.235164509418,0.956883929066,-0.0307746669028
2021/03/16/15:16:44.832016,52990,1615904204,832450151,mocap,-2.74375585938,10.3033935547,1.91806018066,0.16879973905,0.233030451653,0.957194341659,-0.0313439910192
2021/03/16/15:16:44.840789,52991,1615904204,842450142,mocap,-2.74301098633,10.3007285156,1.91820141602,0.169601012904,0.23171706631,0.957361600263,-0.0316458272742
2021/03/16/15:16:44.852004,52992,1615904204,852450132,mocap,-2.74229711914,10.2980058594,1.91825854492,0.170689009319,0.230740635785,0.957394643806,-0.031929999174
2021/03/16/15:16:44.860535,52993,1615904204,862450123,mocap,-2.74171899414,10.2952871094,1.9183894043,0.170566046513,0.22948765449,0.957714638681,-0.0320204058183
2021/03/16/15:16:44.872215,52994,1615904204,872450113,mocap,-2.74114697266,10.2925078125,1.91840625,0.170236437279,0.228679491572,0.957956652972,-0.0323156709394
2021/03/16/15:16:44.880849,52995,1615904204,882450104,mocap,-2.74067797852,10.2897861328,1.91856408691,0.169007539192,0.228177740827,0.958296908156,-0.0322243038393
2021/03/16/15:16:44.893240,52996,1615904204,892450094,mocap,-2.74024609375,10.2869384766,1.91835070801,0.169374277614,0.227282074741,0.958420426447,-0.0329468466101
2021/03/16/15:16:44.900766,52997,1615904204,902450085,mocap,-2.73990698242,10.2841552734,1.9182421875,0.169010620087,0.2273360718,0.958462474076,-0.0332176920914
2021/03/16/15:16:44.912246,52998,1615904204,912450075,mocap,-2.73965234375,10.2813759766,1.91818212891,0.168526712262,0.227551271187,0.9584858253,-0.0335273821979
2021/03/16/15:16:44.920872,52999,1615904204,922450066,mocap,-2.73944384766,10.2785507813,1.9180369873,0.1680278786,0.228184832403,0.958420947292,-0.0335796689213
2021/03/16/15:16:44.932112,53000,1615904204,932450056,mocap,-2.73928540039,10.2756630859,1.91782324219,0.167691341128,0.229100337831,0.958250343662,-0.0338958590339
2021/03/16/15:16:44.940609,53001,1615904204,942450047,mocap,-2.73917822266,10.2727177734,1.91753430176,0.167059798482,0.229861073736,0.95817052799,-0.0341196641547
2021/03/16/15:16:44.951993,53002,1615904204,952450037,mocap,-2.7391081543,10.2697226562,1.91725256348,0.166185524356,0.230830312509,0.958081879314,-0.034334530934
2021/03/16/15:16:44.960891,53003,1615904204,962450027,mocap,-2.73908618164,10.2666455078,1.91689331055,0.165640468865,0.231908353091,0.957894290338,-0.0349324838758
2021/03/16/15:16:44.972991,53004,1615904204,972450256,mocap,-2.73908056641,10.2635048828,1.91652819824,0.165067675028,0.233096003083,0.957688289012,-0.0353845195535
2021/03/16/15:16:44.980845,53005,1615904204,982450247,mocap,-2.73909082031,10.2602597656,1.91610388184,0.164685184465,0.234430663677,0.95740846479,-0.0359176980799
2021/03/16/15:16:44.992790,53006,1615904204,992450237,mocap,-2.73913598633,10.2569521484,1.91570935059,0.1635903365,0.235927989112,0.957218603363,-0.0361764894764
2021/03/16/15:16:45.000638,53007,1615904205,2450228,mocap,-2.73920825195,10.2535351563,1.91527160645,0.163024080885,0.23725974881,0.956966102095,-0.0366992831856
2021/03/16/15:16:45.012778,53008,1615904205,12450218,mocap,-2.73924316406,10.250015625,1.9148145752,0.162465608006,0.238452736757,0.956743742127,-0.0372373992363
2021/03/16/15:16:45.020857,53009,1615904205,22450209,mocap,-2.73935205078,10.246375,1.9142956543,0.161809314531,0.239974504077,0.956455586966,-0.0377186846269
2021/03/16/15:16:45.032838,53010,1615904205,32450199,mocap,-2.73939941406,10.2426357422,1.91385058594,0.161125533285,0.241238183293,0.956241133593,-0.0380210212915
2021/03/16/15:16:45.040722,53011,1615904205,42450190,mocap,-2.73951367188,10.2388183594,1.91343212891,0.160187602673,0.243297128435,0.955879982561,-0.0379458910051
2021/03/16/15:16:45.052284,53012,1615904205,52450180,mocap,-2.73957470703,10.2347900391,1.91283398437,0.160152129563,0.244106375092,0.955646119767,-0.038779767506
2021/03/16/15:16:45.060712,53013,1615904205,62450171,mocap,-2.73963500977,10.2307109375,1.9122800293,0.160188671471,0.245084862383,0.955366399278,-0.0393452491428
2021/03/16/15:16:45.072650,53014,1615904205,72450161,mocap,-2.73971606445,10.2265136719,1.91170654297,0.159814125988,0.246227192593,0.955111567374,-0.0399188627977
2021/03/16/15:16:45.080739,53015,1615904205,82450151,mocap,-2.73980297852,10.2221962891,1.9111697998,0.159497177915,0.247417178851,0.95484392536,-0.040230168756
2021/03/16/15:16:45.092626,53016,1615904205,92450142,mocap,-2.73987304688,10.2177412109,1.91054846191,0.159730195902,0.24849200972,0.954503703804,-0.0407512728643
2021/03/16/15:16:45.100900,53017,1615904205,102450132,mocap,-2.73995776367,10.2131845703,1.90990112305,0.160259717689,0.249644355677,0.954096783379,-0.0411563509336
2021/03/16/15:16:45.111657,53018,1615904205,112450123,mocap,-2.74003417969,10.2085029297,1.90923999023,0.160443861946,0.250573024305,0.953803954079,-0.0415805545974
2021/03/16/15:16:45.120710,53019,1615904205,122450113,mocap,-2.74015625,10.2037558594,1.90866052246,0.161305032873,0.251699273178,0.953340357543,-0.0420753267334
2021/03/16/15:16:45.132596,53020,1615904205,132450104,mocap,-2.74030712891,10.1989345703,1.9081217041,0.161558696501,0.252562938444,0.953052838517,-0.0424385310258
2021/03/16/15:16:45.140771,53021,1615904205,142450094,mocap,-2.74040283203,10.1939228516,1.90738012695,0.162534400715,0.253784018437,0.952529815197,-0.043164595022
2021/03/16/15:16:45.152160,53022,1615904205,152450085,mocap,-2.74053710937,10.1888701172,1.9067322998,0.162640689066,0.254833863962,0.952221395192,-0.0433834240641
2021/03/16/15:16:45.160690,53023,1615904205,162450075,mocap,-2.74077197266,10.183703125,1.90604064941,0.16350845179,0.255840646519,0.951773271253,-0.0440247796153
2021/03/16/15:16:45.171292,53024,1615904205,172450066,mocap,-2.74101806641,10.1783769531,1.90522607422,0.1643180951,0.256960641501,0.951310290658,-0.0444919129253
2021/03/16/15:16:45.180864,53025,1615904205,182450056,mocap,-2.74133422852,10.1729882812,1.90451452637,0.164963387753,0.257649922075,0.950985657246,-0.0450542232168
2021/03/16/15:16:45.192211,53026,1615904205,192450047,mocap,-2.74167211914,10.1675283203,1.90376208496,0.165432315289,0.258688207427,0.950609169953,-0.0453295047307
2021/03/16/15:16:45.201169,53027,1615904205,202450037,mocap,-2.74205493164,10.1619042969,1.90302026367,0.166167051387,0.259489903777,0.950227601619,-0.0460542559656
2021/03/16/15:16:45.211228,53028,1615904205,212450027,mocap,-2.74253491211,10.1562060547,1.90232507324,0.166776211633,0.260059213638,0.94993602669,-0.04665245967
2021/03/16/15:16:45.222542,53029,1615904205,222450256,mocap,-2.74307543945,10.1504121094,1.90160705566,0.167601139833,0.260771294733,0.949564882442,-0.0472728501818
2021/03/16/15:16:45.232162,53030,1615904205,232450247,mocap,-2.74361889648,10.1445058594,1.9009362793,0.167464011699,0.260957903093,0.949517489546,-0.047679302269
2021/03/16/15:16:45.240929,53031,1615904205,242450237,mocap,-2.74428076172,10.1385,1.90032775879,0.167977740818,0.261432815854,0.949258693592,-0.0484179620359
2021/03/16/15:16:45.251124,53032,1615904205,252450228,mocap,-2.74499951172,10.13240625,1.89977612305,0.168639148189,0.261698928861,0.949027666238,-0.0492034482604
2021/03/16/15:16:45.262133,53033,1615904205,262450218,mocap,-2.74571386719,10.1261640625,1.89922668457,0.168522029502,0.261933017642,0.948959189511,-0.0496777671267
2021/03/16/15:16:45.270755,53034,1615904205,272450209,mocap,-2.74660498047,10.1198896484,1.89889123535,0.16826494928,0.261748053462,0.949022932223,-0.0503024266084
2021/03/16/15:16:45.281392,53035,1615904205,282450199,mocap,-2.74743432617,10.1135839844,1.89850390625,0.167872386959,0.262796058568,0.948797642739,-0.0503996670615
2021/03/16/15:16:45.292118,53036,1615904205,292450190,mocap,-2.74837011719,10.1071201172,1.8981315918,0.167567629206,0.262383299661,0.948919005614,-0.0512719971595
2021/03/16/15:16:45.300817,53037,1615904205,302450180,mocap,-2.74932910156,10.1006054688,1.89793798828,0.167654871868,0.262332062749,0.948876904129,-0.0520226404786
2021/03/16/15:16:45.312108,53038,1615904205,312450171,mocap,-2.75034155273,10.0941054687,1.89800598145,0.167756740557,0.262872225611,0.948672266818,-0.0526952374215
2021/03/16/15:16:45.320753,53039,1615904205,322450161,mocap,-2.75142260742,10.0875527344,1.89833203125,0.16761959162,0.26337552327,0.948524338833,-0.0532784124559
2021/03/16/15:16:45.331020,53040,1615904205,332450151,mocap,-2.75250244141,10.0809521484,1.89900866699,0.167969122845,0.26401030877,0.948234094493,-0.054194566214
2021/03/16/15:16:45.341945,53041,1615904205,342450142,mocap,-2.75364550781,10.0742978516,1.89983349609,0.167645883776,0.264522762531,0.948103237481,-0.0549800396718
2021/03/16/15:16:45.350795,53042,1615904205,352450132,mocap,-2.75477661133,10.0676025391,1.90080114746,0.167215529263,0.265152460512,0.947969415091,-0.055561898411
2021/03/16/15:16:45.362118,53043,1615904205,362450123,mocap,-2.75593164063,10.0608076172,1.90177307129,0.167255150258,0.265335698827,0.947843387238,-0.0567061727412
2021/03/16/15:16:45.370880,53044,1615904205,372450113,mocap,-2.75700732422,10.0539677734,1.90274035645,0.167381216812,0.265435459392,0.947752098149,-0.0573890882736
2021/03/16/15:16:45.383067,53045,1615904205,382450104,mocap,-2.75815039063,10.0470888672,1.90381750488,0.16805601749,0.2654001646,0.947576043303,-0.0584771107604
2021/03/16/15:16:45.390889,53046,1615904205,392450094,mocap,-2.75932568359,10.040328125,1.90523791504,0.166862278409,0.266103379891,0.947579683763,-0.05864053987
2021/03/16/15:16:45.402873,53047,1615904205,402450085,mocap,-2.76045703125,10.0335107422,1.9066895752,0.168016841748,0.266779096208,0.947131023479,-0.0595153180223
2021/03/16/15:16:45.410876,53048,1615904205,412450075,mocap,-2.76159765625,10.0266835938,1.9082364502,0.166668227071,0.267027981433,0.947276455532,-0.0598755223931
2021/03/16/15:16:45.422604,53049,1615904205,422450066,mocap,-2.76263891602,10.0197822266,1.90971704102,0.167559793444,0.267342899867,0.946976497611,-0.0607206252255
2021/03/16/15:16:45.430993,53050,1615904205,432450056,mocap,-2.76367675781,10.0128574219,1.91116625977,0.167532535189,0.266788997886,0.947087214078,-0.0615002813447
2021/03/16/15:16:45.442885,53051,1615904205,442450047,mocap,-2.76470117188,10.0060810547,1.91285205078,0.167670984205,0.267519691893,0.946857033927,-0.0614933234463
2021/03/16/15:16:45.450827,53052,1615904205,452450037,mocap,-2.76556591797,9.99916894531,1.91411523438,0.168700543955,0.266821721683,0.946801006775,-0.0625632620954
2021/03/16/15:16:45.462738,53053,1615904205,462450027,mocap,-2.76648144531,9.99234375,1.91532885742,0.168714824515,0.266022478735,0.947001729171,-0.0628893528523
2021/03/16/15:16:45.470897,53054,1615904205,472450256,mocap,-2.76733447266,9.98552050781,1.9163840332,0.169056667679,0.265652754293,0.947025669813,-0.0631731166529
2021/03/16/15:16:45.482427,53055,1615904205,482450247,mocap,-2.76814794922,9.97878125,1.91728833008,0.170566588215,0.265734271962,0.946685810199,-0.0638616344878
2021/03/16/15:16:45.491210,53056,1615904205,492450237,mocap,-2.76896264648,9.972,1.91781921387,0.172240125532,0.264929237751,0.946571048258,-0.0644134268637
2021/03/16/15:16:45.502912,53057,1615904205,502450228,mocap,-2.76972045898,9.96532128906,1.91831958008,0.17253855068,0.264748795485,0.946554038601,-0.0646063879955
2021/03/16/15:16:45.510928,53058,1615904205,512450218,mocap,-2.77053466797,9.9587421875,1.91864990234,0.172502588339,0.264253924374,0.946691335044,-0.064716626005
2021/03/16/15:16:45.522585,53059,1615904205,522450209,mocap,-2.77133959961,9.95225,1.91896520996,0.174144265394,0.264860749538,0.946197906922,-0.0650543451657
2021/03/16/15:16:45.531041,53060,1615904205,532450199,mocap,-2.77205419922,9.94568359375,1.91890698242,0.173938134628,0.264677063356,0.946270378566,-0.0652988668149
2021/03/16/15:16:45.542702,53061,1615904205,542450190,mocap,-2.77294580078,9.93927832031,1.91893615723,0.175233999529,0.265442243504,0.945801025454,-0.0655277124363
2021/03/16/15:16:45.551083,53062,1615904205,552450180,mocap,-2.7736809082,9.93287402344,1.91877539063,0.17607278191,0.266196180569,0.945413426458,-0.0658134245357
2021/03/16/15:16:45.562381,53063,1615904205,562450171,mocap,-2.77448950195,9.92644335937,1.91850134277,0.176392373608,0.267106232328,0.94506713741,-0.0662428057584
2021/03/16/15:16:45.570716,53064,1615904205,572450161,mocap,-2.77535107422,9.92008007813,1.91825,0.177043117888,0.268141702036,0.944617118119,-0.0667401751801
2021/03/16/15:16:45.582577,53065,1615904205,582450151,mocap,-2.77612670898,9.9137265625,1.91800354004,0.177565938159,0.269330094202,0.944148789711,-0.067191495791
2021/03/16/15:16:45.590789,53066,1615904205,592450142,mocap,-2.77698950195,9.90726953125,1.91765270996,0.177049177689,0.270003949284,0.944018573945,-0.0676785901984
2021/03/16/15:16:45.602376,53067,1615904205,602450132,mocap,-2.7777902832,9.90081542969,1.91743725586,0.177234850749,0.270941293166,0.943705327511,-0.0678149199833
2021/03/16/15:16:45.610744,53068,1615904205,612450123,mocap,-2.77867407227,9.89437792969,1.91743981934,0.177913000199,0.272626341663,0.943042749379,-0.0684997607457
2021/03/16/15:16:45.622498,53069,1615904205,622450113,mocap,-2.77951489258,9.88773730469,1.91728198242,0.176909057763,0.272711645071,0.943163201764,-0.0690993107999
2021/03/16/15:16:45.631243,53070,1615904205,632450104,mocap,-2.78042382812,9.88114550781,1.91751342773,0.177455219582,0.274124572726,0.942635853055,-0.0693036886542
2021/03/16/15:16:45.642269,53071,1615904205,642450094,mocap,-2.78134155273,9.87444042969,1.91770617676,0.176708355346,0.27459416584,0.942598458556,-0.0698594663225
2021/03/16/15:16:45.650774,53072,1615904205,652450085,mocap,-2.78217553711,9.867625,1.91809619141,0.17594122022,0.274961429506,0.942600063127,-0.0703280073467
2021/03/16/15:16:45.662389,53073,1615904205,662450075,mocap,-2.78312475586,9.86072949219,1.91859082031,0.175447023781,0.2752061349,0.94257749612,-0.0709054610161
2021/03/16/15:16:45.670881,53074,1615904205,672450066,mocap,-2.78398291016,9.85370800781,1.91908569336,0.174022129761,0.274312806493,0.943066569314,-0.0713738514282
2021/03/16/15:16:45.682287,53075,1615904205,682450056,mocap,-2.7848515625,9.84669628906,1.91987866211,0.173482890685,0.274481002464,0.943062698122,-0.0720875819173
2021/03/16/15:16:45.690995,53076,1615904205,692450047,mocap,-2.78573583984,9.83955078125,1.92059228516,0.172489600441,0.273992765425,0.943328232972,-0.072850201689
2021/03/16/15:16:45.701962,53077,1615904205,702450037,mocap,-2.78657836914,9.83238574219,1.92140344238,0.171745139703,0.273238943892,0.943643538994,-0.0733551208781
2021/03/16/15:16:45.710935,53078,1615904205,712450027,mocap,-2.78739819336,9.82518457031,1.92222302246,0.170724351026,0.271954739487,0.944118818,-0.0743874102697
2021/03/16/15:16:45.721266,53079,1615904205,722450256,mocap,-2.78817456055,9.81787597656,1.92288452148,0.169420428836,0.271310990308,0.944484474153,-0.0750743224875
2021/03/16/15:16:45.731470,53080,1615904205,732450247,mocap,-2.78884594727,9.81050585938,1.92334741211,0.168289687171,0.271111051078,0.944702392925,-0.0755960732426
2021/03/16/15:16:45.742488,53081,1615904205,742450237,mocap,-2.78959741211,9.80318457031,1.92384265137,0.167476914487,0.270388421083,0.945015679411,-0.0760720710413
2021/03/16/15:16:45.750798,53082,1615904205,752450228,mocap,-2.79034985352,9.79590234375,1.92429040527,0.166997937246,0.269737463428,0.945205579969,-0.0770701012288
2021/03/16/15:16:45.762506,53083,1615904205,762450218,mocap,-2.79096337891,9.78859765625,1.92453552246,0.165126331343,0.270895800314,0.945182215958,-0.0773261512267
2021/03/16/15:16:45.771126,53084,1615904205,772450209,mocap,-2.79154907227,9.78118945313,1.92449938965,0.164441747914,0.270243077066,0.94543025174,-0.0780335446342
2021/03/16/15:16:45.782379,53085,1615904205,782450199,mocap,-2.79218164062,9.77384277344,1.92446716309,0.163887974144,0.270289746276,0.945468952694,-0.0785662228173
2021/03/16/15:16:45.791022,53086,1615904205,792450190,mocap,-2.79271435547,9.76645703125,1.92423999023,0.163301643566,0.270969151052,0.945344104711,-0.0789481784389
2021/03/16/15:16:45.800833,53087,1615904205,802450180,mocap,-2.79322070312,9.75910644531,1.92406750488,0.162835182583,0.270960866245,0.945354421332,-0.0798118365251
2021/03/16/15:16:45.812415,53088,1615904205,812450171,mocap,-2.79366040039,9.75164160156,1.92356860352,0.16242371477,0.271649716877,0.945172835507,-0.0804566919072
2021/03/16/15:16:45.820758,53089,1615904205,822450161,mocap,-2.79402294922,9.74415234375,1.92297998047,0.161940959091,0.272156190583,0.945051046739,-0.0811457991877
2021/03/16/15:16:45.832330,53090,1615904205,832450151,mocap,-2.79437890625,9.73658105469,1.92214489746,0.161409259671,0.273362679828,0.94477031071,-0.0814183619742
2021/03/16/15:16:45.840839,53091,1615904205,842450142,mocap,-2.79469677734,9.72894238281,1.92123449707,0.161417658035,0.273819311981,0.944582176255,-0.0820477226681
2021/03/16/15:16:45.852069,53092,1615904205,852450132,mocap,-2.794984375,9.721375,1.9203828125,0.161073397217,0.274195254399,0.944461044971,-0.0828592220155
2021/03/16/15:16:45.860850,53093,1615904205,862450123,mocap,-2.79520043945,9.71365722656,1.91925292969,0.160723005266,0.274960131448,0.944258646282,-0.0833106766031
2021/03/16/15:16:45.872125,53094,1615904205,872450113,mocap,-2.79548999023,9.70592480469,1.91808178711,0.160226340934,0.275842630173,0.944033230035,-0.0839024623541
2021/03/16/15:16:45.881252,53095,1615904205,882450104,mocap,-2.79569189453,9.69817675781,1.91676818848,0.160409010576,0.276810397497,0.943669949225,-0.0844510431455
2021/03/16/15:16:45.890832,53096,1615904205,892450094,mocap,-2.795859375,9.69035351563,1.91545825195,0.159706188389,0.277800640538,0.943530017907,-0.0840942980116
2021/03/16/15:16:45.902019,53097,1615904205,902450085,mocap,-2.79601586914,9.68248339844,1.91406213379,0.159413800411,0.278493146622,0.943342346922,-0.0844630980866
2021/03/16/15:16:45.911410,53098,1615904205,912450075,mocap,-2.79608374023,9.67454199219,1.91261791992,0.159148799071,0.279359797517,0.943116917067,-0.0846181313191
2021/03/16/15:16:45.921516,53099,1615904205,922450066,mocap,-2.79615380859,9.66659667969,1.91129125977,0.157875059463,0.280800467172,0.942934837142,-0.0842641246987
2021/03/16/15:16:45.930867,53100,1615904205,932450056,mocap,-2.79610009766,9.65840917969,1.90955993652,0.157764163881,0.281371990718,0.942794093381,-0.0841402625663
2021/03/16/15:16:45.941010,53101,1615904205,942450047,mocap,-2.79612207031,9.65039746094,1.90817932129,0.158212163077,0.281610553872,0.942629379668,-0.0843461184021
2021/03/16/15:16:45.952001,53102,1615904205,952450037,mocap,-2.7960456543,9.64230175781,1.90681115723,0.157709810035,0.282525054266,0.942466605617,-0.0840470804219
2021/03/16/15:16:45.960783,53103,1615904205,962450027,mocap,-2.79593139648,9.63403320312,1.90526855469,0.157493559695,0.282639236137,0.942467989062,-0.0840531351148
2021/03/16/15:16:45.971854,53104,1615904205,972450256,mocap,-2.79575708008,9.62576660156,1.90388830566,0.15740884601,0.283142717286,0.942328780607,-0.0840780148438
2021/03/16/15:16:45.982152,53105,1615904205,982450247,mocap,-2.79554907227,9.61746582031,1.90269677734,0.156754310624,0.283713178762,0.942287278151,-0.0838426624708
2021/03/16/15:16:45.990933,53106,1615904205,992450237,mocap,-2.79528759766,9.60905371094,1.90163049316,0.156364928109,0.28399892275,0.942288891159,-0.0835839752987
2021/03/16/15:16:46.003086,53107,1615904206,2450228,mocap,-2.79502758789,9.60069238281,1.90093432617,0.155557081736,0.284567088396,0.942292164608,-0.0831205479964
2021/03/16/15:16:46.010949,53108,1615904206,12450218,mocap,-2.79469018555,9.59213183594,1.90012353516,0.155644996614,0.283830401282,0.942514621826,-0.0829525663848
2021/03/16/15:16:46.021751,53109,1615904206,22450209,mocap,-2.79433789063,9.58358105469,1.8995859375,0.155094781825,0.284073598894,0.94257360711,-0.0824790391295
2021/03/16/15:16:46.030885,53110,1615904206,32450199,mocap,-2.79390551758,9.57497070313,1.89903283691,0.154868958209,0.283439788547,0.942834403985,-0.0821022618896
2021/03/16/15:16:46.042676,53111,1615904206,42450190,mocap,-2.79344848633,9.56638183594,1.89867919922,0.154489120414,0.283247086437,0.943005157691,-0.0815197696461
2021/03/16/15:16:46.050677,53112,1615904206,52450180,mocap,-2.79299121094,9.55787109375,1.89859729004,0.153329359465,0.283627737038,0.943167704506,-0.0804989866725
2021/03/16/15:16:46.062913,53113,1615904206,62450171,mocap,-2.79244018555,9.54921289063,1.89848681641,0.152943900905,0.28402375779,0.943175359118,-0.0797427278232
2021/03/16/15:16:46.070878,53114,1615904206,72450161,mocap,-2.79189257813,9.54068945312,1.89881481934,0.152768073452,0.283673283962,0.943365693318,-0.0790731650687
2021/03/16/15:16:46.081764,53115,1615904206,82450151,mocap,-2.79129418945,9.53212304688,1.89939794922,0.152366773974,0.283796184453,0.943471882116,-0.0781339573683
2021/03/16/15:16:46.092673,53116,1615904206,92450142,mocap,-2.79068847656,9.52355273438,1.9002121582,0.151993418716,0.284242865169,0.94349071623,-0.0770018122442
2021/03/16/15:16:46.100842,53117,1615904206,102450132,mocap,-2.79008227539,9.51497070312,1.9012767334,0.151834323733,0.284222472797,0.943604913195,-0.0759848334101
2021/03/16/15:16:46.111842,53118,1615904206,112450123,mocap,-2.78941455078,9.50633984375,1.90239013672,0.15168940221,0.284315345226,0.94367461535,-0.0750555080954
2021/03/16/15:16:46.120980,53119,1615904206,122450113,mocap,-2.7886796875,9.49770117188,1.90364562988,0.151149995379,0.284253083688,0.943872087363,-0.0738874226562
2021/03/16/15:16:46.132465,53120,1615904206,132450104,mocap,-2.78797436523,9.48909082031,1.90509301758,0.150713303438,0.284426628954,0.943994170301,-0.0725395551969
2021/03/16/15:16:46.141439,53121,1615904206,142450094,mocap,-2.78727905273,9.48047851563,1.90661303711,0.150259898724,0.284199305596,0.944213022874,-0.0715157377142
2021/03/16/15:16:46.152379,53122,1615904206,152450085,mocap,-2.78662060547,9.47190527344,1.90826928711,0.150053865595,0.284118731965,0.944356127171,-0.0703696114746
2021/03/16/15:16:46.160646,53123,1615904206,162450075,mocap,-2.78592285156,9.4633203125,1.90992346191,0.150272787701,0.283686477702,0.94452520957,-0.0693699660077
2021/03/16/15:16:46.172318,53124,1615904206,172450066,mocap,-2.78523364258,9.45463574219,1.91145288086,0.150537698163,0.282861779987,0.944812752903,-0.0682383880885
2021/03/16/15:16:46.180628,53125,1615904206,182450056,mocap,-2.78453369141,9.44599414063,1.91295715332,0.150823004885,0.281996034205,0.945109030209,-0.0670788839767
2021/03/16/15:16:46.192245,53126,1615904206,192450047,mocap,-2.78386645508,9.43731933594,1.91421606445,0.150938222353,0.280759370109,0.945545443688,-0.0658456831794
2021/03/16/15:16:46.201207,53127,1615904206,202450037,mocap,-2.7832956543,9.42874023438,1.91535266113,0.151419469855,0.279683938101,0.945865540264,-0.0647102747922
2021/03/16/15:16:46.212166,53128,1615904206,212450027,mocap,-2.782703125,9.42014550781,1.91623083496,0.151868053533,0.278466097952,0.946228111989,-0.0636009371519
2021/03/16/15:16:46.221011,53129,1615904206,222450256,mocap,-2.78214599609,9.41158496094,1.91691760254,0.152938494136,0.277006156086,0.946554140927,-0.0625512811957
2021/03/16/15:16:46.232273,53130,1615904206,232450247,mocap,-2.78168432617,9.40320019531,1.91769702148,0.15249496279,0.276885909358,0.946783096272,-0.0606733258575
2021/03/16/15:16:46.241248,53131,1615904206,242450237,mocap,-2.78121826172,9.394828125,1.91826245117,0.152750839117,0.276316355058,0.947018172201,-0.0589324640298
2021/03/16/15:16:46.251448,53132,1615904206,252450228,mocap,-2.7807734375,9.38645800781,1.91871948242,0.152925200395,0.276014405808,0.947187306421,-0.0571501574384
2021/03/16/15:16:46.262105,53133,1615904206,262450218,mocap,-2.78038305664,9.37813867187,1.91913989258,0.153082378916,0.275814841119,0.947330543417,-0.0552882908255
2021/03/16/15:16:46.270776,53134,1615904206,272450209,mocap,-2.78006347656,9.36982910156,1.91949938965,0.153149070379,0.275572600512,0.947498348003,-0.0534039661376
2021/03/16/15:16:46.281149,53135,1615904206,282450199,mocap,-2.77979321289,9.36153613281,1.91989135742,0.153378017644,0.27540493009,0.947627684626,-0.0512745391058
2021/03/16/15:16:46.291183,53136,1615904206,292450190,mocap,-2.77955834961,9.35322363281,1.92018835449,0.153659829914,0.275020207062,0.947792190022,-0.0494216744314
2021/03/16/15:16:46.301148,53137,1615904206,302450180,mocap,-2.77933813477,9.34495507813,1.92055163574,0.153382705554,0.274709539122,0.948035314841,-0.047301873672
2021/03/16/15:16:46.311933,53138,1615904206,312450171,mocap,-2.77916259766,9.33665332031,1.92084179688,0.153721161267,0.274531017291,0.948122694695,-0.0454519647961
2021/03/16/15:16:46.320852,53139,1615904206,322450161,mocap,-2.77900756836,9.32835546875,1.9211776123,0.153859823747,0.274197944768,0.948285377847,-0.0435602889045
2021/03/16/15:16:46.330887,53140,1615904206,332450151,mocap,-2.7788828125,9.3200859375,1.92155651855,0.1542418306,0.273778005166,0.948427993375,-0.0417061693561
2021/03/16/15:16:46.342048,53141,1615904206,342450142,mocap,-2.77876538086,9.31177636719,1.92193908691,0.15381839504,0.273248022473,0.9487323064,-0.0397799227404
2021/03/16/15:16:46.351333,53142,1615904206,352450132,mocap,-2.77867553711,9.30343164062,1.92231164551,0.153888105873,0.272294092856,0.949058252274,-0.0382467056244
2021/03/16/15:16:46.360853,53143,1615904206,362450123,mocap,-2.77859936523,9.29514550781,1.92280944824,0.154284538917,0.271506225561,0.949282090699,-0.0366628376086
2021/03/16/15:16:46.370895,53144,1615904206,372450113,mocap,-2.77855883789,9.28674414063,1.92316467285,0.154167497646,0.270481075478,0.949648912706,-0.0352038649463
2021/03/16/15:16:46.382864,53145,1615904206,382450104,mocap,-2.77851245117,9.27829296875,1.92344616699,0.154777838705,0.269117703452,0.949970089291,-0.0342973287423
2021/03/16/15:16:46.391111,53146,1615904206,392450094,mocap,-2.77850268555,9.26987402344,1.92382519531,0.154841542354,0.267753716479,0.950380030964,-0.0333143676592
2021/03/16/15:16:46.402928,53147,1615904206,402450085,mocap,-2.77850610352,9.26136425781,1.92417443848,0.154755079669,0.266321023118,0.95083730559,-0.0321310685671
2021/03/16/15:16:46.410868,53148,1615904206,412450075,mocap,-2.77853198242,9.25289257812,1.92449414063,0.154400206082,0.264676451838,0.951383633707,-0.0312430761983
2021/03/16/15:16:46.422805,53149,1615904206,422450066,mocap,-2.77860449219,9.24435742187,1.92478637695,0.153961261917,0.26333328401,0.95186257008,-0.0301523606725
2021/03/16/15:16:46.430941,53150,1615904206,432450056,mocap,-2.77860253906,9.23586132813,1.9250098877,0.153786404217,0.261797161119,0.952341148241,-0.0292973643014
2021/03/16/15:16:46.442601,53151,1615904206,442450047,mocap,-2.77865087891,9.2273515625,1.92514489746,0.153599561159,0.260154794176,0.952841904294,-0.0286176829707
2021/03/16/15:16:46.450748,53152,1615904206,452450037,mocap,-2.77870019531,9.21883203125,1.92507873535,0.153466608346,0.258618717947,0.953296372375,-0.0281139858964
2021/03/16/15:16:46.462788,53153,1615904206,462450027,mocap,-2.7787956543,9.21036816406,1.92503662109,0.153506997409,0.257396820128,0.953631766629,-0.0277295037998
2021/03/16/15:16:46.470963,53154,1615904206,472450256,mocap,-2.77883300781,9.20187207031,1.92481176758,0.153827505455,0.256346778734,0.953869232034,-0.0275120517856
2021/03/16/15:16:46.482828,53155,1615904206,482450247,mocap,-2.77889331055,9.19366503906,1.92449804687,0.153639836392,0.255744030719,0.954048006864,-0.0279674986553
2021/03/16/15:16:46.490907,53156,1615904206,492450237,mocap,-2.77896484375,9.18526074219,1.92414746094,0.153414119552,0.255139705142,0.954257472096,-0.0275773176015
2021/03/16/15:16:46.502618,53157,1615904206,502450228,mocap,-2.77899609375,9.17677832031,1.92363757324,0.153390739302,0.254798383758,0.954359255987,-0.0273397880859
2021/03/16/15:16:46.510986,53158,1615904206,512450218,mocap,-2.77913183594,9.16837792969,1.92305126953,0.153469495871,0.254577955298,0.954409304666,-0.0272042453574
2021/03/16/15:16:46.522450,53159,1615904206,522450209,mocap,-2.77928686523,9.1599453125,1.9223717041,0.153620237624,0.254670287162,0.954359552649,-0.02723463053
2021/03/16/15:16:46.531019,53160,1615904206,532450199,mocap,-2.77948388672,9.15141503906,1.92161083984,0.15381310421,0.254432363474,0.954391006093,-0.0272672126929
2021/03/16/15:16:46.542733,53161,1615904206,542450190,mocap,-2.77963232422,9.1429296875,1.92077905273,0.152995842077,0.254365981613,0.954541685641,-0.0272099634061
2021/03/16/15:16:46.550915,53162,1615904206,552450180,mocap,-2.77988085937,9.13439746094,1.91984008789,0.153271152594,0.25438525791,0.954483119921,-0.027532996655
2021/03/16/15:16:46.562382,53163,1615904206,562450171,mocap,-2.78022265625,9.12580175781,1.91878723145,0.153352402851,0.254380205859,0.954458640367,-0.0279724006082
2021/03/16/15:16:46.572691,53164,1615904206,572450161,mocap,-2.78048413086,9.11721679688,1.91766821289,0.153047568949,0.254420473718,0.95449528921,-0.0280250815731
2021/03/16/15:16:46.580818,53165,1615904206,582450151,mocap,-2.78080078125,9.10857226562,1.91640710449,0.152360634302,0.25417737151,0.954668756916,-0.0280652775119
2021/03/16/15:16:46.592587,53166,1615904206,592450142,mocap,-2.78127099609,9.09991113281,1.91498071289,0.153005606865,0.254390428894,0.954482081738,-0.0289612880516
2021/03/16/15:16:46.600671,53167,1615904206,602450132,mocap,-2.78167407227,9.09128125,1.91353869629,0.152125034886,0.254649795803,0.954556804583,-0.0288576435766
2021/03/16/15:16:46.612165,53168,1615904206,612450123,mocap,-2.78210864258,9.08261621094,1.91197436523,0.151855180668,0.254711817566,0.954572274517,-0.029217630455
2021/03/16/15:16:46.621149,53169,1615904206,622450113,mocap,-2.78264208984,9.07390136719,1.91038171387,0.151692821308,0.25488787946,0.954522694911,-0.030131232686
2021/03/16/15:16:46.630966,53170,1615904206,632450104,mocap,-2.78314282227,9.06522070313,1.90880407715,0.151101503889,0.255257829002,0.95451993174,-0.0300579918637
2021/03/16/15:16:46.642296,53171,1615904206,642450094,mocap,-2.78381005859,9.05648730469,1.90730993652,0.150886989193,0.255554608454,0.954448344092,-0.0308758807357
2021/03/16/15:16:46.651119,53172,1615904206,652450085,mocap,-2.78433911133,9.04763769531,1.90590393066,0.150664575238,0.255775072542,0.95440557316,-0.0314532417124
2021/03/16/15:16:46.662594,53173,1615904206,662450075,mocap,-2.78499511719,9.03880957031,1.90461730957,0.149987606212,0.255699847589,0.954521984606,-0.031766131547
2021/03/16/15:16:46.671332,53174,1615904206,672450066,mocap,-2.78567431641,9.02990625,1.90345861816,0.150526365323,0.255816974097,0.954372035786,-0.0327642570662
2021/03/16/15:16:46.680756,53175,1615904206,682450056,mocap,-2.78629882813,9.02093847656,1.90241845703,0.149837020445,0.255715012848,0.954493696829,-0.0331737120777
2021/03/16/15:16:46.692087,53176,1615904206,692450047,mocap,-2.78705175781,9.01197070312,1.90152868652,0.150778456476,0.255539476505,0.954353541325,-0.0342746551033
2021/03/16/15:16:46.700861,53177,1615904206,702450037,mocap,-2.78768164062,9.00293847656,1.90074414063,0.150085784957,0.255688570819,0.954407954144,-0.0346852686645
2021/03/16/15:16:46.711921,53178,1615904206,712450027,mocap,-2.78848144531,8.99397949219,1.90015893555,0.150820781249,0.255681958393,0.954250570041,-0.0358564554719
2021/03/16/15:16:46.720659,53179,1615904206,722450256,mocap,-2.78918505859,8.98488574219,1.89964562988,0.151342272251,0.255926220482,0.954088052832,-0.0362389643372
2021/03/16/15:16:46.732224,53180,1615904206,732450247,mocap,-2.78991674805,8.97587304687,1.89934912109,0.151654036018,0.255859387481,0.954027522483,-0.0369934249653
2021/03/16/15:16:46.740886,53181,1615904206,742450237,mocap,-2.79075585937,8.9668203125,1.89924707031,0.151703330207,0.25578381559,0.954000805442,-0.0379895096046
2021/03/16/15:16:46.752039,53182,1615904206,752450228,mocap,-2.79151342773,8.9576875,1.89929516602,0.151755020868,0.255843239458,0.953973376937,-0.0380714510319
2021/03/16/15:16:46.760842,53183,1615904206,762450218,mocap,-2.79239111328,8.94857226562,1.89972949219,0.151983720133,0.256178736627,0.953813530855,-0.0388991500517
2021/03/16/15:16:46.770843,53184,1615904206,772450209,mocap,-2.79324682617,8.9395625,1.90068005371,0.152099676963,0.256372996269,0.953718125947,-0.039500694831
2021/03/16/15:16:46.782921,53185,1615904206,782450199,mocap,-2.79413989258,8.93040820312,1.9016673584,0.152173678002,0.256681157207,0.953594373602,-0.0401960737039
2021/03/16/15:16:46.790758,53186,1615904206,792450190,mocap,-2.79498217773,8.92131738281,1.90282397461,0.152859917296,0.256378309605,0.953515887231,-0.0413698368599
2021/03/16/15:16:46.802675,53187,1615904206,802450180,mocap,-2.79577099609,8.91220703125,1.90405615234,0.153135469864,0.256339226171,0.953428657813,-0.0425855533034
2021/03/16/15:16:46.810684,53188,1615904206,812450171,mocap,-2.79659179688,8.9031484375,1.9053470459,0.154052955826,0.256434937755,0.953211506842,-0.0435502881274
2021/03/16/15:16:46.822725,53189,1615904206,822450161,mocap,-2.79736523437,8.89419433594,1.90672241211,0.154419701853,0.256554499431,0.953076423908,-0.0444935973845
2021/03/16/15:16:46.831115,53190,1615904206,832450151,mocap,-2.79811279297,8.88531738281,1.90817163086,0.155055099198,0.256836911198,0.952832137907,-0.0458653591127
2021/03/16/15:16:46.842632,53191,1615904206,842450142,mocap,-2.7988840332,8.87639257812,1.90956079102,0.15612246797,0.256813214095,0.952593068697,-0.0473201597178
2021/03/16/15:16:46.850748,53192,1615904206,852450132,mocap,-2.79964941406,8.86756347656,1.91087158203,0.156780853581,0.256881427422,0.952423470707,-0.048179189466
2021/03/16/15:16:46.862670,53193,1615904206,862450123,mocap,-2.80035717773,8.85871875,1.91198034668,0.156478860572,0.256853531411,0.95242158542,-0.0493330254676
2021/03/16/15:16:46.870974,53194,1615904206,872450113,mocap,-2.80106616211,8.84992089844,1.9130345459,0.156617662139,0.256689847604,0.952377902037,-0.0505722361107
2021/03/16/15:16:46.882724,53195,1615904206,882450104,mocap,-2.80181713867,8.84126269531,1.91407434082,0.15662773961,0.25637443022,0.952413285418,-0.0514668933507
2021/03/16/15:16:46.891013,53196,1615904206,892450094,mocap,-2.80260131836,8.83265429688,1.91492443848,0.156576307655,0.25638267931,0.95239342301,-0.0519475610511
2021/03/16/15:16:46.902393,53197,1615904206,902450085,mocap,-2.80327368164,8.82409765625,1.91567102051,0.156380131595,0.256356855526,0.952382408152,-0.052859971758
2021/03/16/15:16:46.910905,53198,1615904206,912450075,mocap,-2.8039831543,8.81568847656,1.91638024902,0.156101606519,0.256523045259,0.952347657318,-0.0534990843514
2021/03/16/15:16:46.922485,53199,1615904206,922450066,mocap,-2.80467871094,8.807375,1.91695080566,0.155213962069,0.257362007602,0.952257050408,-0.0536650114471
2021/03/16/15:16:46.930803,53200,1615904206,932450056,mocap,-2.80532006836,8.79908789062,1.91754345703,0.154906834172,0.25830784862,0.952028730644,-0.0540575729273
2021/03/16/15:16:46.941186,53201,1615904206,942450047,mocap,-2.80595507812,8.79089941406,1.918125,0.153810613075,0.259133020236,0.951970659923,-0.0542608556541
2021/03/16/15:16:46.950759,53202,1615904206,952450037,mocap,-2.80648901367,8.78276367187,1.91878063965,0.15275443622,0.259767953045,0.951949888215,-0.0545719598944
2021/03/16/15:16:46.961297,53203,1615904206,962450027,mocap,-2.80701245117,8.77458300781,1.9194609375,0.152575250509,0.260918519708,0.951630491574,-0.0551518020966
2021/03/16/15:16:46.970957,53204,1615904206,972450256,mocap,-2.80746044922,8.76641796875,1.92015380859,0.152168272093,0.261292139577,0.951551396911,-0.0558675035703
2021/03/16/15:16:46.982191,53205,1615904206,982450247,mocap,-2.8078605957,8.75826171875,1.92094274902,0.151673261802,0.261795069516,0.95145748793,-0.0564554154368
2021/03/16/15:16:46.990913,53206,1615904206,992450237,mocap,-2.80812817383,8.75003515625,1.92173522949,0.151027086166,0.262073169762,0.951450690856,-0.0570092106224
2021/03/16/15:16:47.002324,53207,1615904207,2450228,mocap,-2.80840844727,8.74181933594,1.92261535645,0.150877268474,0.262101735011,0.951404417778,-0.0580376546
2021/03/16/15:16:47.010697,53208,1615904207,12450218,mocap,-2.80862451172,8.73360546875,1.92353222656,0.150502497198,0.261982732647,0.951435929761,-0.05902312509
2021/03/16/15:16:47.022292,53209,1615904207,22450209,mocap,-2.80872119141,8.72536035156,1.92448474121,0.149931835627,0.26160827432,0.951558882295,-0.0601435203137
2021/03/16/15:16:47.030761,53210,1615904207,32450199,mocap,-2.80883496094,8.71712597656,1.92548071289,0.149664124215,0.261237928278,0.951649438241,-0.0609814772527
2021/03/16/15:16:47.042354,53211,1615904207,42450190,mocap,-2.80879858398,8.70894433594,1.92631530762,0.148757302988,0.259616798974,0.952151027578,-0.0622801069547
2021/03/16/15:16:47.050631,53212,1615904207,52450180,mocap,-2.80877490234,8.70066894531,1.92712963867,0.148533714521,0.259096792369,0.952249273194,-0.0634658710331
2021/03/16/15:16:47.061191,53213,1615904207,62450171,mocap,-2.8087331543,8.69247363281,1.92789160156,0.148266865322,0.258397385898,0.952404406449,-0.0646031914382
2021/03/16/15:16:47.072057,53214,1615904207,72450161,mocap,-2.80859643555,8.68433789063,1.92856481934,0.148060450088,0.257877727757,0.952485698733,-0.0659407139225
2021/03/16/15:16:47.080574,53215,1615904207,82450151,mocap,-2.80840258789,8.67621386719,1.92913439941,0.148104653872,0.257316858134,0.952549510505,-0.0671004518039
2021/03/16/15:16:47.092103,53216,1615904207,92450142,mocap,-2.80820605469,8.66810253906,1.92960473633,0.148144113618,0.2566726299,0.95264622905,-0.0681003261492
2021/03/16/15:16:47.102031,53217,1615904207,102450132,mocap,-2.80793457031,8.66005371094,1.9299230957,0.148405280993,0.256420242669,0.952609610746,-0.0689889330653
2021/03/16/15:16:47.111057,53218,1615904207,112450123,mocap,-2.80763085938,8.65204296875,1.93010839844,0.14857470001,0.256122842803,0.952584089725,-0.0700727653513
2021/03/16/15:16:47.122134,53219,1615904207,122450113,mocap,-2.8072565918,8.64411914062,1.93030627441,0.149499729389,0.256226205227,0.952332119953,-0.0711443117415
2021/03/16/15:16:47.130794,53220,1615904207,132450104,mocap,-2.80688037109,8.63608398438,1.9300579834,0.149369882527,0.256538560919,0.952191458488,-0.0721667660143
2021/03/16/15:16:47.140883,53221,1615904207,142450094,mocap,-2.80650512695,8.62805273438,1.92980236816,0.15040442561,0.257062090841,0.951814798441,-0.0731175180889
2021/03/16/15:16:47.151825,53222,1615904207,152450085,mocap,-2.80604248047,8.62022070312,1.92956445313,0.150710789292,0.257386351131,0.951610276161,-0.0740027385726
2021/03/16/15:16:47.162034,53223,1615904207,162450075,mocap,-2.80558203125,8.6122109375,1.92910864258,0.151686308453,0.258345183735,0.951127531048,-0.0748695601046
2021/03/16/15:16:47.170709,53224,1615904207,172450066,mocap,-2.80508642578,8.60418847656,1.92851123047,0.152036614093,0.258829931641,0.950907895784,-0.0752735548708
2021/03/16/15:16:47.180843,53225,1615904207,182450056,mocap,-2.80454980469,8.59621679687,1.92786169434,0.152786586244,0.2597256478,0.950481987077,-0.0760449630594
2021/03/16/15:16:47.192796,53226,1615904207,192450047,mocap,-2.8039777832,8.58823828125,1.92714709473,0.153163835339,0.260437017758,0.950184076131,-0.076574303867
2021/03/16/15:16:47.200816,53227,1615904207,202450037,mocap,-2.8034206543,8.58011816406,1.92632104492,0.153716927562,0.261070579764,0.949912128024,-0.0766825451833
2021/03/16/15:16:47.212629,53228,1615904207,212450027,mocap,-2.80284741211,8.57206738281,1.9253861084,0.154694967456,0.261885674927,0.949489774591,-0.077165629144
