time,.header.seq,.header.stamp.secs,.header.stamp.nsecs,.header.frame_id,.pose.position.x,.pose.position.y,.pose.position.z,.pose.orientation.x,.pose.orientation.y,.pose.orientation.z,.pose.orientation.w
2021/03/16/13:29:16.666116,570887,1615897756,668171167,mocap,-2.80253515625,10.3555722656,1.93196459961,0.158826336527,0.172834439112,0.971986754699,0.0120080993871
2021/03/16/13:29:16.678315,570888,1615897756,678171158,mocap,-2.80255761719,10.3555371094,1.93194958496,0.158873946151,0.172832827302,0.971978920719,0.0120356056264
2021/03/16/13:29:16.686737,570889,1615897756,688171148,mocap,-2.80264990234,10.3556416016,1.93224645996,0.157159253729,0.172299623661,0.972348857856,0.0123086407362
2021/03/16/13:29:16.698679,570890,1615897756,698171139,mocap,-2.80263842773,10.3554453125,1.9319230957,0.158951404398,0.172844484681,0.971964532708,0.0120074253239
2021/03/16/13:29:16.706236,570891,1615897756,708171129,mocap,-2.80268017578,10.3553916016,1.9318770752,0.159096733815,0.172930011212,0.971924449055,0.0120957552904
2021/03/16/13:29:16.718195,570892,1615897756,718171120,mocap,-2.80271118164,10.3553505859,1.93186706543,0.15920281948,0.17284512125,0.971922632258,0.0120598788818
2021/03/16/13:29:16.726555,570893,1615897756,728171110,mocap,-2.80278466797,10.3552988281,1.93187512207,0.159151915065,0.172901375468,0.971920593149,0.0120887267562
2021/03/16/13:29:16.737028,570894,1615897756,738171101,mocap,-2.80283666992,10.35521875,1.93185021973,0.159210832807,0.172762854114,0.971936936567,0.0119788924187
2021/03/16/13:29:16.747083,570895,1615897756,748171091,mocap,-2.80290795898,10.355171875,1.93181994629,0.159370534556,0.172701385995,0.971920654476,0.0120620651874
2021/03/16/13:29:16.756908,570896,1615897756,758171082,mocap,-2.80296606445,10.3551259766,1.93183007812,0.159356423727,0.172701732977,0.971922325626,0.0121092112734
2021/03/16/13:29:16.766421,570897,1615897756,768171072,mocap,-2.80302758789,10.3550898437,1.93182702637,0.159417528541,0.172724818274,0.97190755348,0.012161479605
2021/03/16/13:29:16.776886,570898,1615897756,778171062,mocap,-2.80309106445,10.3550566406,1.93184069824,0.159185429255,0.172710851675,0.97194732354,0.0122214115166
2021/03/16/13:29:16.786382,570899,1615897756,788171053,mocap,-2.80315405273,10.3550410156,1.93183862305,0.159327655622,0.172828852542,0.971903329541,0.0121984872202
2021/03/16/13:29:16.797982,570900,1615897756,798171043,mocap,-2.80325,10.3550537109,1.93189953613,0.15947997692,0.172926549561,0.971861526114,0.0121537903446
2021/03/16/13:29:16.806211,570901,1615897756,808171034,mocap,-2.80329956055,10.3550556641,1.93189404297,0.159449612828,0.173042550504,0.971845626081,0.0121727307203
2021/03/16/13:29:16.817025,570902,1615897756,818171024,mocap,-2.80337133789,10.3550371094,1.93187438965,0.159314353039,0.173300519545,0.971820939882,0.012244655734
2021/03/16/13:29:16.826274,570903,1615897756,828171015,mocap,-2.80347192383,10.3551826172,1.93220690918,0.157334878161,0.172820718246,0.972224687486,0.0125656834289
2021/03/16/13:29:16.836778,570904,1615897756,838171005,mocap,-2.80355493164,10.3552236328,1.93225952148,0.157494367169,0.173128780037,0.972144516988,0.0125296500371
2021/03/16/13:29:16.846503,570905,1615897756,848170996,mocap,-2.80357495117,10.3551005859,1.93195471191,0.159565388492,0.174000597858,0.971657749868,0.0119957579458
2021/03/16/13:29:16.856669,570906,1615897756,858170986,mocap,-2.80365136719,10.3551113281,1.93195800781,0.159594052508,0.174289362692,0.971601113061,0.0120095767993
2021/03/16/13:29:16.866218,570907,1615897756,868170977,mocap,-2.80372070313,10.35515625,1.93201306152,0.159528869237,0.174625597294,0.971552088042,0.0119575647062
2021/03/16/13:29:16.877546,570908,1615897756,878171206,mocap,-2.80383007812,10.3551826172,1.93203112793,0.159424661749,0.174791255382,0.971537862424,0.0120821352916
2021/03/16/13:29:16.886840,570909,1615897756,888171196,mocap,-2.8039765625,10.3553095703,1.93238122559,0.157350097278,0.174387586146,0.971944234289,0.0124221058365
2021/03/16/13:29:16.897922,570910,1615897756,898171186,mocap,-2.80408398438,10.3553388672,1.93243371582,0.157274890818,0.174611739883,0.971917082191,0.0123504019263
2021/03/16/13:29:16.906196,570911,1615897756,908171177,mocap,-2.80414160156,10.3552158203,1.93215942383,0.159196997408,0.175364379952,0.971473365234,0.011964803384
2021/03/16/13:29:16.917275,570912,1615897756,918171167,mocap,-2.80424121094,10.3552197266,1.93221264648,0.159091173178,0.175472490299,0.971471225479,0.0119601140284
2021/03/16/13:29:16.926593,570913,1615897756,928171158,mocap,-2.80434008789,10.3552226562,1.93225231934,0.159052291155,0.175671617716,0.971443998804,0.0117643923743
2021/03/16/13:29:16.936532,570914,1615897756,938171148,mocap,-2.80444482422,10.3552480469,1.93228991699,0.159194054982,0.175812392533,0.97139645383,0.0116693668135
2021/03/16/13:29:16.946419,570915,1615897756,948171139,mocap,-2.8045246582,10.3552773438,1.93233251953,0.159041531999,0.175914111303,0.971403655904,0.0116173051368
2021/03/16/13:29:16.956513,570916,1615897756,958171129,mocap,-2.80462255859,10.3553193359,1.93234765625,0.159119385067,0.176157435388,0.971349412772,0.0113978630543
2021/03/16/13:29:16.966345,570917,1615897756,968171120,mocap,-2.80474755859,10.3554648437,1.93271179199,0.156788466289,0.175676668174,0.971810321557,0.0118229043028
2021/03/16/13:29:16.976383,570918,1615897756,978171110,mocap,-2.80479858398,10.3553681641,1.9324128418,0.158825497801,0.176608284124,0.971316751913,0.01130187675
2021/03/16/13:29:16.986288,570919,1615897756,988171101,mocap,-2.80489379883,10.3554306641,1.9324588623,0.158937977342,0.176941356904,0.971240073587,0.0110997486928
2021/03/16/13:29:16.998630,570920,1615897756,998171091,mocap,-2.80498779297,10.3554501953,1.93246765137,0.158930503653,0.177182406571,0.971198878348,0.0109647633178
2021/03/16/13:29:17.006318,570921,1615897757,8171082,mocap,-2.80508569336,10.3554609375,1.93249511719,0.158856539047,0.177414103099,0.971170945909,0.0107623057017
2021/03/16/13:29:17.018384,570922,1615897757,18171072,mocap,-2.80511889648,10.3555507813,1.93240979004,0.158546267605,0.17828167314,0.971058555941,0.0111361547601
2021/03/16/13:29:17.026129,570923,1615897757,28171062,mocap,-2.80523779297,10.3555478516,1.93259631348,0.158723318794,0.178042133361,0.971080023745,0.0105588823788
2021/03/16/13:29:17.038102,570924,1615897757,38171053,mocap,-2.80527905273,10.3555673828,1.93248413086,0.158444963323,0.17893902406,0.970957847348,0.0108109040063
2021/03/16/13:29:17.046372,570925,1615897757,48171043,mocap,-2.80535571289,10.355578125,1.93251977539,0.158509512509,0.179169549876,0.970908068508,0.0105134432938
2021/03/16/13:29:17.058179,570926,1615897757,58171034,mocap,-2.80545336914,10.3555556641,1.93265917969,0.158772228036,0.178958182541,0.970910355305,0.00992096882414
2021/03/16/13:29:17.066543,570927,1615897757,68171024,mocap,-2.80548730469,10.3555322266,1.93255505371,0.158535970555,0.179667657948,0.970817044978,0.0100075367439
2021/03/16/13:29:17.078138,570928,1615897757,78171015,mocap,-2.8055715332,10.3555224609,1.9326282959,0.158475946634,0.179933283858,0.970780429026,0.00973360117931
2021/03/16/13:29:17.086189,570929,1615897757,88171005,mocap,-2.80564746094,10.3554677734,1.93265270996,0.158486568713,0.180164200368,0.970737648548,0.00955505083285
2021/03/16/13:29:17.098290,570930,1615897757,98170996,mocap,-2.80569384766,10.3554042969,1.93261047363,0.158484626881,0.180209240239,0.970732759449,0.00922862514162
2021/03/16/13:29:17.106659,570931,1615897757,108170986,mocap,-2.80580664063,10.3553583984,1.93266723633,0.158461226941,0.180443826263,0.97069518088,0.00899640294266
2021/03/16/13:29:17.117996,570932,1615897757,118170977,mocap,-2.80587768555,10.3552832031,1.9327208252,0.158465059576,0.180438810352,0.970698174324,0.008700975472
2021/03/16/13:29:17.126289,570933,1615897757,128171206,mocap,-2.80594360352,10.3551630859,1.93276367188,0.158543425389,0.180228660156,0.970728161986,0.00827335647915
2021/03/16/13:29:17.138087,570934,1615897757,138171196,mocap,-2.8060324707,10.3550703125,1.9327902832,0.158508864298,0.180178947198,0.970745738148,0.00795030424024
2021/03/16/13:29:17.146408,570935,1615897757,148171186,mocap,-2.80613891602,10.35496875,1.93284643555,0.158696458521,0.180230862401,0.970706916664,0.00776887982982
2021/03/16/13:29:17.157949,570936,1615897757,158171177,mocap,-2.80618945313,10.3548115234,1.93278210449,0.158376647943,0.180138053445,0.970777052092,0.00768394782883
2021/03/16/13:29:17.166278,570937,1615897757,168171167,mocap,-2.80627661133,10.3547099609,1.93278271484,0.158614517557,0.180224829098,0.970723909889,0.00745313907657
2021/03/16/13:29:17.177982,570938,1615897757,178171158,mocap,-2.80636230469,10.3545751953,1.93279907227,0.158431583334,0.180105465251,0.970776683699,0.00735483811649
2021/03/16/13:29:17.186432,570939,1615897757,188171148,mocap,-2.80643725586,10.3544248047,1.93276867676,0.158444947441,0.180135251663,0.970769899094,0.0072319670524
2021/03/16/13:29:17.197901,570940,1615897757,198171139,mocap,-2.80652148438,10.3542910156,1.93271557617,0.158053857413,0.180403916896,0.970781066037,0.0075849558276
2021/03/16/13:29:17.206235,570941,1615897757,208171129,mocap,-2.80660107422,10.3541523438,1.93273718262,0.158211499974,0.180539735857,0.970730855995,0.00749196461249
2021/03/16/13:29:17.217697,570942,1615897757,218171120,mocap,-2.80667578125,10.3539902344,1.93271899414,0.158210508984,0.180530781677,0.970732698048,0.00749067343219
2021/03/16/13:29:17.226470,570943,1615897757,228171110,mocap,-2.80677075195,10.3538154297,1.93279199219,0.158340349421,0.180216808681,0.970771948295,0.00721558889312
2021/03/16/13:29:17.237768,570944,1615897757,238171101,mocap,-2.80685595703,10.3536650391,1.93273742676,0.158200815367,0.180613793231,0.970718897916,0.00748135846426
2021/03/16/13:29:17.246229,570945,1615897757,248171091,mocap,-2.8069362793,10.3535009766,1.93275671387,0.158131659615,0.180545553005,0.970743734942,0.00736837147722
2021/03/16/13:29:17.257482,570946,1615897757,258171082,mocap,-2.80699926758,10.3533154297,1.93274560547,0.158105319518,0.180547005263,0.970747687624,0.00737655766381
2021/03/16/13:29:17.266273,570947,1615897757,268171072,mocap,-2.80709643555,10.3531171875,1.93281945801,0.158295264649,0.180127801465,0.970796814663,0.00708077820663
2021/03/16/13:29:17.277472,570948,1615897757,278171062,mocap,-2.80716381836,10.3529257813,1.93284716797,0.158347539852,0.18014431764,0.970784281786,0.00720797591203
2021/03/16/13:29:17.286748,570949,1615897757,288171053,mocap,-2.80717919922,10.3527275391,1.93273571777,0.157838560293,0.180441824698,0.970809546917,0.00752048918057
2021/03/16/13:29:17.297480,570950,1615897757,298171043,mocap,-2.80730297852,10.3525078125,1.93286071777,0.15816470311,0.180136398976,0.970815747979,0.00718325853145
2021/03/16/13:29:17.306631,570951,1615897757,308171034,mocap,-2.80730151367,10.3522822266,1.93270861816,0.157881744569,0.180502848075,0.970791618873,0.00746360469054
2021/03/16/13:29:17.316667,570952,1615897757,318171024,mocap,-2.80740332031,10.3520888672,1.93282775879,0.157752468274,0.180104700465,0.970888031938,0.00727170838503
2021/03/16/13:29:17.327276,570953,1615897757,328171015,mocap,-2.8074597168,10.351890625,1.93285742188,0.157783635978,0.18017112125,0.970870113017,0.00734288678618
2021/03/16/13:29:17.336298,570954,1615897757,338171005,mocap,-2.8075222168,10.3516464844,1.93285681152,0.157843965304,0.180333299578,0.970830444644,0.00730980396098
2021/03/16/13:29:17.347264,570955,1615897757,348170996,mocap,-2.80754003906,10.3514169922,1.93273010254,0.157435228014,0.180777497658,0.970810736481,0.00775624164869
2021/03/16/13:29:17.356430,570956,1615897757,358170986,mocap,-2.80759326172,10.3512011719,1.93280712891,0.157431544517,0.180892722105,0.970788917358,0.00787494510632
2021/03/16/13:29:17.368426,570957,1615897757,368170977,mocap,-2.80762353516,10.3509541016,1.93278466797,0.157394178751,0.180957370972,0.970781894919,0.00800165010601
2021/03/16/13:29:17.376673,570958,1615897757,378171206,mocap,-2.80768481445,10.3506835938,1.93287243652,0.157846186415,0.180572814817,0.970782562628,0.00769801532613
2021/03/16/13:29:17.387280,570959,1615897757,388171196,mocap,-2.80770214844,10.3503984375,1.93282885742,0.157833492267,0.180539682597,0.970789454591,0.00786408959046
2021/03/16/13:29:17.397498,570960,1615897757,398171186,mocap,-2.80774316406,10.3501552734,1.93289611816,0.157894305722,0.180526390072,0.970781158135,0.00797112186679
2021/03/16/13:29:17.406082,570961,1615897757,408171177,mocap,-2.80772485352,10.3498466797,1.93276037598,0.157444229817,0.180944179271,0.970771840847,0.00851806789407
2021/03/16/13:29:17.417463,570962,1615897757,418171167,mocap,-2.807734375,10.3495693359,1.93277331543,0.157592318248,0.180976725952,0.970740772339,0.00862784091355
2021/03/16/13:29:17.427127,570963,1615897757,428171158,mocap,-2.80771142578,10.34921875,1.93271655273,0.157554717839,0.181099476945,0.970722328779,0.00881205842407
2021/03/16/13:29:17.436461,570964,1615897757,438171148,mocap,-2.80770751953,10.3488837891,1.93267724609,0.157511203967,0.181206982868,0.970707208329,0.00904309807271
2021/03/16/13:29:17.448246,570965,1615897757,448171139,mocap,-2.80770068359,10.3485449219,1.93263049316,0.157641456325,0.181278493101,0.970671048776,0.00921886500919
2021/03/16/13:29:17.456318,570966,1615897757,458171129,mocap,-2.80766943359,10.3481992188,1.93259838867,0.157952390353,0.181480218375,0.970581384773,0.00936725342503
2021/03/16/13:29:17.467935,570967,1615897757,468171120,mocap,-2.80762817383,10.3478447266,1.93259887695,0.157713021419,0.181578945358,0.970599025003,0.00965536647473
2021/03/16/13:29:17.476469,570968,1615897757,478171110,mocap,-2.80759692383,10.3474892578,1.93260620117,0.15766490138,0.181620921027,0.970597497424,0.00980459325037
2021/03/16/13:29:17.487901,570969,1615897757,488171101,mocap,-2.80754223633,10.3470869141,1.93255981445,0.157576954601,0.181949065534,0.970548037876,0.0100274755783
2021/03/16/13:29:17.496307,570970,1615897757,498171091,mocap,-2.80752783203,10.3466953125,1.93255285645,0.157600926803,0.182017933741,0.970530227829,0.0101239239669
2021/03/16/13:29:17.508250,570971,1615897757,508171082,mocap,-2.80753100586,10.3462675781,1.93266894531,0.157895370704,0.181558656936,0.970571612654,0.00981070038011
2021/03/16/13:29:17.516188,570972,1615897757,518171072,mocap,-2.8074934082,10.3458134766,1.93265148926,0.158083914679,0.181588190002,0.97053389734,0.00995823025302
2021/03/16/13:29:17.527863,570973,1615897757,528171062,mocap,-2.8074206543,10.3453916016,1.9325390625,0.15779495161,0.182157810241,0.970467989898,0.0105436783766
2021/03/16/13:29:17.536372,570974,1615897757,538171053,mocap,-2.80734887695,10.3449365234,1.93251318359,0.157662178491,0.182233601352,0.970473955147,0.0106696597769
2021/03/16/13:29:17.547835,570975,1615897757,548171043,mocap,-2.80728955078,10.3444492188,1.93249279785,0.157487879987,0.182360133558,0.970477655579,0.0107459672309
2021/03/16/13:29:17.556274,570976,1615897757,558171034,mocap,-2.80721972656,10.3439345703,1.93241894531,0.15745269215,0.182526948188,0.970449756123,0.0109469234735
2021/03/16/13:29:17.567571,570977,1615897757,568171024,mocap,-2.8071418457,10.3434169922,1.93238183594,0.15740446357,0.182442580885,0.97047062321,0.0111940109035
2021/03/16/13:29:17.576491,570978,1615897757,578171015,mocap,-2.80706616211,10.3428984375,1.93237744141,0.157591858273,0.18242585848,0.970441264824,0.0113739420603
2021/03/16/13:29:17.587868,570979,1615897757,588171005,mocap,-2.80690527344,10.3423525391,1.93228601074,0.157309435135,0.182496029127,0.970473363998,0.0114187763085
2021/03/16/13:29:17.596361,570980,1615897757,598170996,mocap,-2.80682055664,10.3417900391,1.93230908203,0.157485413099,0.182844448214,0.970379266884,0.0114167855041
2021/03/16/13:29:17.607605,570981,1615897757,608170986,mocap,-2.80664404297,10.3412509766,1.9322019043,0.15746037141,0.183038059259,0.970346120353,0.0114765314108
2021/03/16/13:29:17.616570,570982,1615897757,618170977,mocap,-2.80652294922,10.3407333984,1.93230627441,0.157976419184,0.182871778599,0.97029938927,0.0109751016261
2021/03/16/13:29:17.627748,570983,1615897757,628171206,mocap,-2.80632373047,10.3402070312,1.93209606934,0.157732534386,0.183854815333,0.970146887155,0.0115269334055
2021/03/16/13:29:17.636205,570984,1615897757,638171196,mocap,-2.80613452148,10.3396787109,1.93203894043,0.157805987219,0.184554888969,0.970000413718,0.0116602371919
2021/03/16/13:29:17.647886,570985,1615897757,648171186,mocap,-2.80595336914,10.3391308594,1.93199108887,0.157780471293,0.185235303717,0.969873953045,0.0117361530134
2021/03/16/13:29:17.656188,570986,1615897757,658171177,mocap,-2.80578759766,10.3385976563,1.93194812012,0.157904909015,0.185793485529,0.969745631957,0.0118415075123
2021/03/16/13:29:17.666393,570987,1615897757,668171167,mocap,-2.80560180664,10.3380097656,1.93188183594,0.157786772852,0.186304505765,0.969666693339,0.0118516947684
2021/03/16/13:29:17.677562,570988,1615897757,678171158,mocap,-2.80542651367,10.3374023438,1.93183337402,0.157884488647,0.186721101486,0.969571588124,0.011774901895
2021/03/16/13:29:17.686600,570989,1615897757,688171148,mocap,-2.80522045898,10.3367871094,1.93180419922,0.157923927539,0.187083849767,0.96949839909,0.0115111468179
2021/03/16/13:29:17.697673,570990,1615897757,698171139,mocap,-2.80502880859,10.3361181641,1.93178759766,0.157821483045,0.187616710232,0.969411793127,0.0115383180201
2021/03/16/13:29:17.707247,570991,1615897757,708171129,mocap,-2.80479833984,10.3354072266,1.93173217773,0.15779478527,0.188018071978,0.969338876419,0.0114958432068
2021/03/16/13:29:17.718719,570992,1615897757,718171120,mocap,-2.80454003906,10.3346884766,1.93168493652,0.157699123875,0.188160226315,0.969328991851,0.0113142508352
2021/03/16/13:29:17.726568,570993,1615897757,728171110,mocap,-2.80432592773,10.3339560547,1.9316237793,0.157738965424,0.188551296622,0.969247682463,0.0112134725017
2021/03/16/13:29:17.736814,570994,1615897757,738171101,mocap,-2.80406347656,10.3331728516,1.93161413574,0.157707145857,0.188745647134,0.969218033356,0.0109514299822
2021/03/16/13:29:17.746299,570995,1615897757,748171091,mocap,-2.80376367188,10.3323457031,1.93156652832,0.157601742997,0.189025475027,0.969180519055,0.0109630430461
2021/03/16/13:29:17.756475,570996,1615897757,758171082,mocap,-2.80349267578,10.3315048828,1.93154772949,0.157647376707,0.189250040763,0.969132025057,0.0107170025431
2021/03/16/13:29:17.766335,570997,1615897757,768171072,mocap,-2.80320996094,10.3306708984,1.93148962402,0.157570575439,0.189376083174,0.969121523342,0.0105684438394
2021/03/16/13:29:17.778619,570998,1615897757,778171062,mocap,-2.80288891602,10.3297714844,1.93137695313,0.157384263354,0.189394742401,0.969147523719,0.0106258416259
2021/03/16/13:29:17.786444,570999,1615897757,788171053,mocap,-2.8025378418,10.3287871094,1.93126147461,0.157235975312,0.189622462279,0.969126382129,0.0106875519237
2021/03/16/13:29:17.798455,571000,1615897757,798171043,mocap,-2.80217089844,10.3278476563,1.93119042969,0.157335919264,0.189928284951,0.969051983126,0.010531180563
2021/03/16/13:29:17.806307,571001,1615897757,808171034,mocap,-2.80180395508,10.3269716797,1.93116320801,0.157296698715,0.190074869355,0.969030724121,0.0104284350012
2021/03/16/13:29:17.818386,571002,1615897757,818171024,mocap,-2.80145947266,10.3259033203,1.93108117676,0.157117100136,0.190095480548,0.969053428568,0.0106478784154
2021/03/16/13:29:17.826581,571003,1615897757,828171015,mocap,-2.8010534668,10.3248935547,1.93098718262,0.157071758852,0.190355180965,0.969011794372,0.0104649185326
2021/03/16/13:29:17.838320,571004,1615897757,838171005,mocap,-2.80062475586,10.3238779297,1.9308729248,0.157342456603,0.19058185822,0.968925775455,0.0102348263272
2021/03/16/13:29:17.846588,571005,1615897757,848170996,mocap,-2.80015258789,10.3227617187,1.93078747559,0.156975153943,0.190800829385,0.968939616504,0.0104820092567
2021/03/16/13:29:17.858207,571006,1615897757,858170986,mocap,-2.79971264648,10.3216376953,1.93071606445,0.156996972999,0.190899633911,0.968915909742,0.0105473111304
2021/03/16/13:29:17.866287,571007,1615897757,868170977,mocap,-2.79920776367,10.3204121094,1.93051745605,0.156885449101,0.191004446065,0.968912072622,0.010660649105
2021/03/16/13:29:17.878239,571008,1615897757,878171206,mocap,-2.79868725586,10.3192138672,1.93038952637,0.157155561943,0.19094943568,0.968878276085,0.0107392974617
2021/03/16/13:29:17.886624,571009,1615897757,888171196,mocap,-2.79819116211,10.3179716797,1.93035314941,0.157037957315,0.190912175352,0.968903344846,0.0108595643722
2021/03/16/13:29:17.898474,571010,1615897757,898171186,mocap,-2.79768701172,10.3166503906,1.93020495605,0.156865220934,0.190709216738,0.968968336051,0.0111203972106
2021/03/16/13:29:17.906617,571011,1615897757,908171177,mocap,-2.79709521484,10.3152880859,1.93002526855,0.156736599546,0.190718218021,0.968987804881,0.0110829213697
2021/03/16/13:29:17.918075,571012,1615897757,918171167,mocap,-2.79649951172,10.3139394531,1.92998413086,0.156377157408,0.190510617262,0.969084112941,0.0113082346984
2021/03/16/13:29:17.926307,571013,1615897757,928171158,mocap,-2.79590209961,10.3125361328,1.92984228516,0.156450657719,0.190227308911,0.969126351377,0.0114404077328
2021/03/16/13:29:17.937926,571014,1615897757,938171148,mocap,-2.79524145508,10.3110273438,1.9296505127,0.156443682516,0.189947072195,0.96918065743,0.0115904302486
2021/03/16/13:29:17.946738,571015,1615897757,948171139,mocap,-2.79458764648,10.3095410156,1.9295847168,0.15647063637,0.189762545886,0.969209884881,0.0118028298411
2021/03/16/13:29:17.958053,571016,1615897757,958171129,mocap,-2.79395727539,10.3080878906,1.92943310547,0.156360127014,0.189494682528,0.969275862496,0.012148039691
2021/03/16/13:29:17.966540,571017,1615897757,968171120,mocap,-2.79325854492,10.3064863281,1.92925036621,0.156590214853,0.189418276801,0.969251118534,0.0123486706585
2021/03/16/13:29:17.978001,571018,1615897757,978171110,mocap,-2.79253540039,10.3048994141,1.92915893555,0.15630871873,0.189381220417,0.969299929409,0.0126483395989
2021/03/16/13:29:17.986432,571019,1615897757,988171101,mocap,-2.79176660156,10.3033027344,1.92898986816,0.156356523554,0.188974492436,0.969366961568,0.0129982619561
2021/03/16/13:29:17.997931,571020,1615897757,998171091,mocap,-2.79098608398,10.3016855469,1.9288527832,0.156514666581,0.188940572333,0.969343664941,0.0133219832342
2021/03/16/13:29:18.006757,571021,1615897758,8171082,mocap,-2.79021655273,10.2999257812,1.92853027344,0.156297297896,0.188689503253,0.969424289948,0.0135639170902
2021/03/16/13:29:18.017627,571022,1615897758,18171072,mocap,-2.78943383789,10.298234375,1.92830822754,0.156300400118,0.188366060664,0.969481222997,0.0139490404289
2021/03/16/13:29:18.026529,571023,1615897758,28171062,mocap,-2.78857836914,10.2965234375,1.9281036377,0.15629066649,0.188302824196,0.969486779323,0.0145142238382
2021/03/16/13:29:18.037522,571024,1615897758,38171053,mocap,-2.78769165039,10.2947734375,1.92773498535,0.156259683637,0.188080637614,0.969530767707,0.0147875186783
2021/03/16/13:29:18.046571,571025,1615897758,48171043,mocap,-2.78685717773,10.2929072266,1.92734863281,0.156765153422,0.187966302112,0.969465376148,0.0151738625493
2021/03/16/13:29:18.056618,571026,1615897758,58171034,mocap,-2.78596801758,10.2910625,1.92689367676,0.157001849114,0.187801134935,0.969454048028,0.0154920821378
2021/03/16/13:29:18.067928,571027,1615897758,68171024,mocap,-2.78503759766,10.2891962891,1.92641918945,0.156810173052,0.187475210442,0.969534986613,0.016295313951
2021/03/16/13:29:18.076513,571028,1615897758,78171015,mocap,-2.78413525391,10.2872832031,1.92587780762,0.157403782898,0.18748308547,0.969433420365,0.0165226376894
2021/03/16/13:29:18.086324,571029,1615897758,88171005,mocap,-2.78320532227,10.2853037109,1.92520776367,0.157941273649,0.187309001817,0.969373194916,0.0168966882397
2021/03/16/13:29:18.097492,571030,1615897758,98170996,mocap,-2.78224902344,10.2832958984,1.92440930176,0.158260254209,0.187101128045,0.969357300184,0.0171254938132
2021/03/16/13:29:18.106830,571031,1615897758,108170986,mocap,-2.78130395508,10.2813095703,1.92355029297,0.158918139396,0.186980313827,0.969261887885,0.0177420256158
2021/03/16/13:29:18.117248,571032,1615897758,118170977,mocap,-2.78033227539,10.2792207031,1.92254833984,0.159302916613,0.186744616443,0.969236328738,0.0181648308035
2021/03/16/13:29:18.126386,571033,1615897758,128171206,mocap,-2.77939990234,10.2771367188,1.92151623535,0.159716944822,0.186721695086,0.969164098404,0.018613396476
2021/03/16/13:29:18.138288,571034,1615897758,138171196,mocap,-2.77850610352,10.2750712891,1.92042553711,0.160294397574,0.186407044873,0.969121546406,0.0190140046992
2021/03/16/13:29:18.146396,571035,1615897758,148171186,mocap,-2.77759716797,10.2729492188,1.91925805664,0.160754773492,0.186244964757,0.969067152468,0.0194823458161
2021/03/16/13:29:18.158083,571036,1615897758,158171177,mocap,-2.77669482422,10.2707666016,1.91816333008,0.160794865983,0.186232870368,0.969051552569,0.0200355127062
2021/03/16/13:29:18.168149,571037,1615897758,168171167,mocap,-2.77586181641,10.2685371094,1.91700939941,0.161212794746,0.186094645992,0.968998984673,0.0204983472479
2021/03/16/13:29:18.176353,571038,1615897758,178171158,mocap,-2.77507861328,10.266328125,1.91604370117,0.160913200037,0.18575131949,0.969099058823,0.0212226243561
2021/03/16/13:29:18.188267,571039,1615897758,188171148,mocap,-2.77430249023,10.2639941406,1.91510229492,0.161389336717,0.18537273166,0.969082982764,0.0216472795753
2021/03/16/13:29:18.196346,571040,1615897758,198171139,mocap,-2.77355078125,10.2615537109,1.91419921875,0.161751340829,0.184992580285,0.969087395826,0.021996698191
2021/03/16/13:29:18.207431,571041,1615897758,208171129,mocap,-2.77279370117,10.2591777344,1.91353601074,0.160207900666,0.18357976339,0.969600319688,0.0225191332593
2021/03/16/13:29:18.216252,571042,1615897758,218171120,mocap,-2.77203710937,10.2565732422,1.91243664551,0.162313676363,0.183234542245,0.969320659836,0.0222895988932
2021/03/16/13:29:18.227000,571043,1615897758,228171110,mocap,-2.77134155273,10.254140625,1.91201672363,0.160591611401,0.181915056892,0.96984420785,0.0227919478714
2021/03/16/13:29:18.237251,571044,1615897758,238171101,mocap,-2.77064941406,10.2515244141,1.91134130859,0.161410276503,0.180956876747,0.969887834336,0.0227799598773
2021/03/16/13:29:18.247339,571045,1615897758,248171091,mocap,-2.76995874023,10.2487421875,1.91051318359,0.163553863682,0.180607475228,0.969598022117,0.0225996257382
2021/03/16/13:29:18.256229,571046,1615897758,258171082,mocap,-2.76940698242,10.2461816406,1.91047717285,0.162201525607,0.178876499258,0.97013593563,0.0230244316307
2021/03/16/13:29:18.268218,571047,1615897758,268171072,mocap,-2.76882470703,10.2433984375,1.91010803223,0.162987821138,0.177753484013,0.970211265185,0.0229950108188
2021/03/16/13:29:18.276545,571048,1615897758,278171062,mocap,-2.76832958984,10.2405585938,1.90995007324,0.16329075797,0.17630682871,0.970424834796,0.0229710155917
2021/03/16/13:29:18.286603,571049,1615897758,288171053,mocap,-2.76780517578,10.2375878906,1.90957165527,0.16575386216,0.175562952059,0.97014952134,0.0226542818483
2021/03/16/13:29:18.297897,571050,1615897758,298171043,mocap,-2.76719140625,10.2346835938,1.90943395996,0.162327964847,0.174627088862,0.970839208816,0.0250250234177
2021/03/16/13:29:18.306705,571051,1615897758,308171034,mocap,-2.76676513672,10.2317783203,1.90945739746,0.16275569762,0.173170461913,0.971042589051,0.0244716527353
2021/03/16/13:29:18.317748,571052,1615897758,318171024,mocap,-2.76651269531,10.2289121094,1.9096796875,0.162833344386,0.171762047524,0.971273757259,0.0247061039413
2021/03/16/13:29:18.326556,571053,1615897758,328171015,mocap,-2.7665546875,10.2261621094,1.91023461914,0.164978475065,0.169973448914,0.971262473244,0.0232454872827
2021/03/16/13:29:18.337841,571054,1615897758,338171005,mocap,-2.76616088867,10.2231738281,1.91003845215,0.163106364436,0.16997082111,0.971520814415,0.0255644431708
2021/03/16/13:29:18.347161,571055,1615897758,348170996,mocap,-2.76611791992,10.2202607422,1.91016027832,0.163331960668,0.16986099097,0.971493458753,0.025891826017
2021/03/16/13:29:18.356592,571056,1615897758,358170986,mocap,-2.76616625977,10.217453125,1.91034643555,0.16320704159,0.169670538814,0.971531458911,0.0264952758141
2021/03/16/13:29:18.367865,571057,1615897758,368170977,mocap,-2.76622851562,10.2146884766,1.91050036621,0.162329219515,0.169677762158,0.97165612427,0.0272591044463
2021/03/16/13:29:18.378026,571058,1615897758,378171206,mocap,-2.76638696289,10.2119169922,1.91068322754,0.161947741825,0.169956784344,0.971654184285,0.0278524691935
2021/03/16/13:29:18.386712,571059,1615897758,388171196,mocap,-2.76660791016,10.2091201172,1.91078503418,0.161432631785,0.170714319655,0.971585331462,0.0286017473097
2021/03/16/13:29:18.397857,571060,1615897758,398171186,mocap,-2.76688110352,10.2062675781,1.91074328613,0.161018546324,0.171428306556,0.97151224045,0.0291432809298
2021/03/16/13:29:18.406794,571061,1615897758,408171177,mocap,-2.76717211914,10.2033701172,1.91070117187,0.160615227854,0.172288937935,0.971406493768,0.0298108471819
2021/03/16/13:29:18.416401,571062,1615897758,418171167,mocap,-2.7676081543,10.2003603516,1.91058520508,0.159167743521,0.173265843516,0.971426105477,0.0312393321666
2021/03/16/13:29:18.428203,571063,1615897758,428171158,mocap,-2.76803320312,10.1973632813,1.91049121094,0.158286106369,0.17437286235,0.971346375312,0.0320286052379
2021/03/16/13:29:18.436449,571064,1615897758,438171148,mocap,-2.76848266602,10.1942441406,1.91024951172,0.157590978577,0.175771675885,0.971190600733,0.0325302365784
2021/03/16/13:29:18.447558,571065,1615897758,448171139,mocap,-2.76895043945,10.1910927734,1.90998266602,0.156841118095,0.176731636181,0.971119490119,0.0330714117438
2021/03/16/13:29:18.457186,571066,1615897758,458171129,mocap,-2.76964428711,10.1878125,1.90980322266,0.159225199539,0.177518901571,0.970636185117,0.031619213877
2021/03/16/13:29:18.466813,571067,1615897758,468171120,mocap,-2.76992333984,10.1844873047,1.90934216309,0.154329347062,0.179310914753,0.971001446819,0.0344418563722
2021/03/16/13:29:18.476740,571068,1615897758,478171110,mocap,-2.77073608398,10.1811132812,1.90926464844,0.155851674042,0.179665788659,0.970742092463,0.033019009684
2021/03/16/13:29:18.486673,571069,1615897758,488171101,mocap,-2.77126953125,10.1775703125,1.90883959961,0.154825868617,0.181074924064,0.97062674362,0.0335342714012
2021/03/16/13:29:18.497729,571070,1615897758,498171091,mocap,-2.77180151367,10.1738828125,1.90835974121,0.154023698997,0.182433916027,0.970476734311,0.0341974128739
2021/03/16/13:29:18.506389,571071,1615897758,508171082,mocap,-2.77236450195,10.1699638672,1.90754650879,0.155125696131,0.184277840699,0.969948227548,0.0343238297064
2021/03/16/13:29:18.517547,571072,1615897758,518171072,mocap,-2.77302685547,10.1661279297,1.90731945801,0.152396394124,0.184659322602,0.970285375649,0.0349652252205
2021/03/16/13:29:18.526441,571073,1615897758,528171062,mocap,-2.77351586914,10.1618789062,1.90632116699,0.154149648726,0.186451595913,0.969664365189,0.0349957593874
2021/03/16/13:29:18.537382,571074,1615897758,538171053,mocap,-2.77423242187,10.1577988281,1.90616015625,0.151064670378,0.186927048241,0.97001893245,0.0360695698092
2021/03/16/13:29:18.546190,571075,1615897758,548171043,mocap,-2.77488427734,10.153296875,1.90526135254,0.152787990814,0.188398591179,0.96947596636,0.0357513044076
2021/03/16/13:29:18.558274,571076,1615897758,558171034,mocap,-2.77532348633,10.1487832031,1.90460351563,0.14770036161,0.189504065165,0.969940085207,0.0385880268498
2021/03/16/13:29:18.566493,571077,1615897758,568171024,mocap,-2.77626293945,10.14415625,1.90421020508,0.150414769888,0.189588103519,0.969577735629,0.0367527765847
2021/03/16/13:29:18.578449,571078,1615897758,578171015,mocap,-2.77696704102,10.1394501953,1.90377441406,0.149169356117,0.189818359261,0.969718402932,0.036928662641
2021/03/16/13:29:18.586743,571079,1615897758,588171005,mocap,-2.77760424805,10.1344169922,1.90287573242,0.149980215178,0.190815891342,0.969391971577,0.0370735663135
2021/03/16/13:29:18.597200,571080,1615897758,598170996,mocap,-2.7783605957,10.1293837891,1.90238647461,0.148220566526,0.191102354239,0.9695748002,0.0378848716197
2021/03/16/13:29:18.606680,571081,1615897758,608170986,mocap,-2.77908374023,10.1240712891,1.90148376465,0.149398168775,0.191810511638,0.969270328021,0.0374691453336
2021/03/16/13:29:18.616316,571082,1615897758,618170977,mocap,-2.77988232422,10.1187617187,1.90098071289,0.149113455782,0.192143365509,0.969239111451,0.0377048361647
2021/03/16/13:29:18.628140,571083,1615897758,628171206,mocap,-2.78069775391,10.1132978516,1.90037695313,0.148794446497,0.192477822487,0.969217310758,0.0378192277726
2021/03/16/13:29:18.636554,571084,1615897758,638171196,mocap,-2.78156811523,10.1076445312,1.89975244141,0.14902500361,0.192550672725,0.969173400398,0.0376657911133
2021/03/16/13:29:18.648339,571085,1615897758,648171186,mocap,-2.78249804687,10.1019951172,1.89935595703,0.148071400982,0.192223786071,0.969384777615,0.0376569148284
2021/03/16/13:29:18.656249,571086,1615897758,658171177,mocap,-2.7833737793,10.0960869141,1.89860766602,0.148796764004,0.192459482104,0.969232208464,0.0375205440249
2021/03/16/13:29:18.667989,571087,1615897758,668171167,mocap,-2.78437280273,10.0902138672,1.89822375488,0.147725289694,0.192081175824,0.969470571361,0.0375349631362
2021/03/16/13:29:18.676348,571088,1615897758,678171158,mocap,-2.78539355469,10.0840712891,1.89761254883,0.148343233452,0.19240359885,0.96932788502,0.0371294364911
2021/03/16/13:29:18.688566,571089,1615897758,688171148,mocap,-2.78643994141,10.0779511719,1.89718933105,0.148271256126,0.192634275212,0.969298907097,0.0369769016457
2021/03/16/13:29:18.697049,571090,1615897758,698171139,mocap,-2.78751049805,10.0717880859,1.89681860352,0.147825594721,0.192420544855,0.969412423352,0.0368984821395
2021/03/16/13:29:18.708227,571091,1615897758,708171129,mocap,-2.78865527344,10.0655117188,1.89665380859,0.147156670823,0.192165852954,0.969571718759,0.0367134885753
2021/03/16/13:29:18.716358,571092,1615897758,718171120,mocap,-2.78977905273,10.059078125,1.89627941895,0.14759754059,0.192754884217,0.969394384924,0.0365381475365
2021/03/16/13:29:18.728056,571093,1615897758,728171110,mocap,-2.79089111328,10.0526123047,1.89600256348,0.147786983847,0.19267281157,0.969397689817,0.0361153000835
2021/03/16/13:29:18.736628,571094,1615897758,738171101,mocap,-2.79211376953,10.0460527344,1.89595996094,0.147444750582,0.19272158168,0.969448276323,0.0358954305006
2021/03/16/13:29:18.748111,571095,1615897758,748171091,mocap,-2.79332495117,10.0394980469,1.89604394531,0.146908542562,0.192511020817,0.969580079354,0.0356631300872
2021/03/16/13:29:18.756433,571096,1615897758,758171082,mocap,-2.79453051758,10.032765625,1.89586425781,0.147583633317,0.193220402524,0.969345893939,0.0354046886937
2021/03/16/13:29:18.767871,571097,1615897758,768171072,mocap,-2.79581030273,10.0260927734,1.89608581543,0.147069822009,0.193023322298,0.969479363196,0.0349602972512
2021/03/16/13:29:18.776301,571098,1615897758,778171062,mocap,-2.79707641602,10.0192832031,1.89607739258,0.147657282929,0.193769999577,0.9692500193,0.0347119093578
2021/03/16/13:29:18.788116,571099,1615897758,788171053,mocap,-2.79840332031,10.0125126953,1.8964876709,0.147246343656,0.194059413588,0.969263494437,0.0344636638306
2021/03/16/13:29:18.796356,571100,1615897758,798171043,mocap,-2.79978320313,10.0056796875,1.89694091797,0.14708010033,0.194957458845,0.96911304347,0.0343356867334
2021/03/16/13:29:18.807772,571101,1615897758,808171034,mocap,-2.80106591797,9.99873730469,1.89742553711,0.14755901892,0.19627893418,0.968785754436,0.0339864607536
2021/03/16/13:29:18.816624,571102,1615897758,818171024,mocap,-2.80243920898,9.99174023437,1.89818139648,0.147878758587,0.197339670924,0.968528237648,0.0337930236547
2021/03/16/13:29:18.827796,571103,1615897758,828171015,mocap,-2.80378955078,9.98466796875,1.89908752441,0.148100449498,0.198176436569,0.968339009934,0.0333454419056
2021/03/16/13:29:18.836521,571104,1615897758,838171005,mocap,-2.8051315918,9.97748535156,1.90004882813,0.14840788373,0.198628774598,0.968216780073,0.0328326499491
2021/03/16/13:29:18.847795,571105,1615897758,848170996,mocap,-2.80641748047,9.97024804687,1.90107299805,0.149006968007,0.199091071745,0.968057269405,0.0320122931738
2021/03/16/13:29:18.856459,571106,1615897758,858170986,mocap,-2.80778295898,9.96292871094,1.90226098633,0.149480378762,0.199284703635,0.967963291488,0.031437039096
2021/03/16/13:29:18.867603,571107,1615897758,868170977,mocap,-2.80912182617,9.95559179687,1.90362792969,0.149777873115,0.19942307426,0.967920371102,0.0304498584173
2021/03/16/13:29:18.876197,571108,1615897758,878171206,mocap,-2.81046630859,9.94819140625,1.90507714844,0.150062211863,0.199711921347,0.967833531551,0.0299120180659
2021/03/16/13:29:18.887456,571109,1615897758,888171196,mocap,-2.81181616211,9.94079199219,1.90676342773,0.149482459424,0.19905930788,0.968081751424,0.0291224287164
2021/03/16/13:29:18.896454,571110,1615897758,898171186,mocap,-2.81305371094,9.93324414062,1.90815356445,0.150996432463,0.198686142884,0.967958780935,0.0279230781572
2021/03/16/13:29:18.906417,571111,1615897758,908171177,mocap,-2.81430688477,9.92574414062,1.9097019043,0.151315880668,0.198129259101,0.968054213919,0.0268206387805
2021/03/16/13:29:18.917394,571112,1615897758,918171167,mocap,-2.81542919922,9.91841601563,1.91124353027,0.150600448302,0.196894060108,0.968458708684,0.0252975399492
2021/03/16/13:29:18.926630,571113,1615897758,928171158,mocap,-2.81657421875,9.9109453125,1.91239709473,0.152477758075,0.196149386099,0.968351705258,0.0238943196415
2021/03/16/13:29:18.938392,571114,1615897758,938171148,mocap,-2.81759155273,9.90358691406,1.91340515137,0.153537013993,0.195419124564,0.968360514946,0.0227081618948
2021/03/16/13:29:18.946309,571115,1615897758,948171139,mocap,-2.81863745117,9.89643066406,1.9144432373,0.153366043173,0.194493789908,0.968597746236,0.0216664465756
2021/03/16/13:29:18.958250,571116,1615897758,958171129,mocap,-2.81956323242,9.88930078125,1.91515161133,0.154010363031,0.194474812416,0.968520898801,0.0206789686161
2021/03/16/13:29:18.966278,571117,1615897758,968171120,mocap,-2.82042822266,9.88220996094,1.9155333252,0.155574191356,0.195023750118,0.96818459839,0.0195191670769
2021/03/16/13:29:18.978318,571118,1615897758,978171110,mocap,-2.82134399414,9.87528515625,1.91612207031,0.154967401525,0.195272226206,0.968241034906,0.019056854244
2021/03/16/13:29:18.986508,571119,1615897758,988171101,mocap,-2.8221328125,9.86830175781,1.91628771973,0.156667099301,0.196078056667,0.967820898715,0.018208136201
2021/03/16/13:29:18.998106,571120,1615897758,998171091,mocap,-2.82295825195,9.8614453125,1.91661535645,0.15595819893,0.196389089575,0.967878572699,0.0178727270087
2021/03/16/13:29:19.006262,571121,1615897759,8171082,mocap,-2.82365600586,9.85450195313,1.91664257813,0.156886500959,0.197597241608,0.967494735851,0.0172016576448
2021/03/16/13:29:19.018183,571122,1615897759,18171072,mocap,-2.82433837891,9.84767871094,1.91685852051,0.156429150788,0.198144769789,0.967461975666,0.0169084523804
2021/03/16/13:29:19.026335,571123,1615897759,28171062,mocap,-2.82494995117,9.84075390625,1.91674719238,0.157525017785,0.199633069396,0.966991035154,0.0161507114583
2021/03/16/13:29:19.037209,571124,1615897759,38171053,mocap,-2.82549755859,9.83377636719,1.91680102539,0.157351008708,0.200549399869,0.966837487187,0.0156802526447
2021/03/16/13:29:19.046374,571125,1615897759,48171043,mocap,-2.82602563477,9.82676855469,1.91685974121,0.157461150937,0.201729966089,0.966583783334,0.0150597984273
2021/03/16/13:29:19.058031,571126,1615897759,58171034,mocap,-2.82648364258,9.81973925781,1.91701940918,0.157412184353,0.202680727098,0.966404328464,0.0143040040976
2021/03/16/13:29:19.066298,571127,1615897759,68171024,mocap,-2.82685864258,9.81259863281,1.91718908691,0.157557773647,0.203266206026,0.966269123646,0.0135048912503
2021/03/16/13:29:19.078156,571128,1615897759,78171015,mocap,-2.82718164063,9.80533007812,1.91743896484,0.157431481873,0.203643127272,0.966220606903,0.0127489384482
2021/03/16/13:29:19.086445,571129,1615897759,88171005,mocap,-2.82746362305,9.79798925781,1.91777441406,0.157519417865,0.203974721433,0.96614786578,0.0118429636584
2021/03/16/13:29:19.098284,571130,1615897759,98170996,mocap,-2.82773388672,9.79055761719,1.91826635742,0.157587320223,0.204278620462,0.966083132139,0.0109485218545
2021/03/16/13:29:19.106076,571131,1615897759,108170986,mocap,-2.82788378906,9.78297753906,1.9187755127,0.157186822193,0.204275646528,0.966159055299,0.0100224195259
2021/03/16/13:29:19.117906,571132,1615897759,118170977,mocap,-2.8280168457,9.77534960938,1.91937072754,0.157195756959,0.204132247215,0.966195568782,0.009254285068
2021/03/16/13:29:19.126409,571133,1615897759,128171206,mocap,-2.82811547852,9.76762890625,1.91993066406,0.156850546817,0.20370037193,0.966352657414,0.0081609635166
2021/03/16/13:29:19.137953,571134,1615897759,138171196,mocap,-2.82820239258,9.75982128906,1.92055175781,0.15650072114,0.20338612056,0.966483433323,0.00716837830659
2021/03/16/13:29:19.146307,571135,1615897759,148171186,mocap,-2.82822973633,9.75192285156,1.92105322266,0.156182395565,0.20274511646,0.966676824033,0.00611402349811
2021/03/16/13:29:19.157984,571136,1615897759,158171177,mocap,-2.82823706055,9.74391308594,1.92151586914,0.155731781135,0.202178417088,0.966874845809,0.00495351665094
2021/03/16/13:29:19.166229,571137,1615897759,168171167,mocap,-2.82816601562,9.73589355469,1.9219083252,0.155305678124,0.201673412023,0.967053889781,0.0038413836767
2021/03/16/13:29:19.178001,571138,1615897759,178171158,mocap,-2.8279753418,9.72781445312,1.92217590332,0.155311077003,0.201172283232,0.967160975165,0.00279573479919
2021/03/16/13:29:19.186644,571139,1615897759,188171148,mocap,-2.82783544922,9.71960546875,1.92233496094,0.154778912628,0.200696895036,0.967347714492,0.00162702202318
2021/03/16/13:29:19.197830,571140,1615897759,198171139,mocap,-2.82762744141,9.71130761719,1.92234741211,0.154380343899,0.200158117315,0.967524314558,0.000353851330879
2021/03/16/13:29:19.206197,571141,1615897759,208171129,mocap,-2.82737475586,9.70299414062,1.92227233887,0.154308942583,0.199501370337,0.967671101199,-0.000770431866136
2021/03/16/13:29:19.217662,571142,1615897759,218171120,mocap,-2.82704125977,9.69464257813,1.92212158203,0.154163205976,0.198944600721,0.967806764523,-0.00219560216218
2021/03/16/13:29:19.226451,571143,1615897759,228171110,mocap,-2.82666455078,9.68619433594,1.92183129883,0.153957353703,0.198391993209,0.967949020825,-0.00352860050303
2021/03/16/13:29:19.237354,571144,1615897759,238171101,mocap,-2.82621435547,9.67771386719,1.92139587402,0.154130990386,0.198172379161,0.967961967574,-0.0045793669849
2021/03/16/13:29:19.246535,571145,1615897759,248171091,mocap,-2.8256730957,9.66914648438,1.92076782227,0.153397099355,0.198734266595,0.967958927182,-0.00543461423213
2021/03/16/13:29:19.257514,571146,1615897759,258171082,mocap,-2.82513696289,9.66060644531,1.92019995117,0.153624099626,0.198697092044,0.96792336543,-0.00659247793633
2021/03/16/13:29:19.266214,571147,1615897759,268171072,mocap,-2.82456201172,9.65201757812,1.91945532227,0.154151055691,0.199015507092,0.967765115188,-0.00780770349911
2021/03/16/13:29:19.277721,571148,1615897759,278171062,mocap,-2.82391186523,9.64334667969,1.91860827637,0.154450996841,0.199449926314,0.967616841324,-0.00907028875091
2021/03/16/13:29:19.286282,571149,1615897759,288171053,mocap,-2.82326147461,9.63471386719,1.91767810059,0.155035833448,0.200007569035,0.967396282531,-0.0102615641253
2021/03/16/13:29:19.297622,571150,1615897759,298171043,mocap,-2.82257470703,9.62601367188,1.91663635254,0.155442385202,0.20072849336,0.967169787995,-0.01132903794
2021/03/16/13:29:19.306647,571151,1615897759,308171034,mocap,-2.82189648437,9.61715234375,1.91544189453,0.155803737301,0.201306214223,0.966979339027,-0.0123270178321
2021/03/16/13:29:19.318609,571152,1615897759,318171024,mocap,-2.82118212891,9.6083203125,1.91418469238,0.156215805039,0.201935805597,0.966768553348,-0.013308616327
2021/03/16/13:29:19.326407,571153,1615897759,328171015,mocap,-2.82042480469,9.59946582031,1.91290551758,0.156619192977,0.202757363801,0.966517490902,-0.0142765225906
2021/03/16/13:29:19.338362,571154,1615897759,338171005,mocap,-2.81968115234,9.59049316406,1.91148205566,0.156862228748,0.203501103566,0.966310899143,-0.014993127768
2021/03/16/13:29:19.346253,571155,1615897759,348170996,mocap,-2.81888256836,9.58145996094,1.90999658203,0.157155726158,0.204198663108,0.966104648806,-0.0157094063087
2021/03/16/13:29:19.358297,571156,1615897759,358170986,mocap,-2.8181003418,9.57246679688,1.90850402832,0.15762860088,0.205049878529,0.965837738836,-0.016286239838
2021/03/16/13:29:19.366419,571157,1615897759,368170977,mocap,-2.81727587891,9.56340039063,1.90696594238,0.158307016722,0.205809129109,0.965554188166,-0.0169288399932
2021/03/16/13:29:19.378184,571158,1615897759,378171206,mocap,-2.81641625977,9.55419628906,1.90533337402,0.158588660321,0.206581852095,0.96533340508,-0.0174639814607
2021/03/16/13:29:19.386521,571159,1615897759,388171196,mocap,-2.81555444336,9.54500683594,1.90376855469,0.159070238469,0.207157050379,0.965125648924,-0.0177505567906
2021/03/16/13:29:19.398084,571160,1615897759,398171186,mocap,-2.81466235352,9.53573535156,1.90220788574,0.159576884016,0.207849295161,0.964885648984,-0.0181541860508
2021/03/16/13:29:19.406246,571161,1615897759,408171177,mocap,-2.81375708008,9.52634667969,1.9007689209,0.16001666745,0.208328108328,0.964710064171,-0.0181258370098
2021/03/16/13:29:19.418110,571162,1615897759,418171167,mocap,-2.81284814453,9.5168984375,1.8994486084,0.160425779817,0.208839749997,0.964530222064,-0.0181925986972
2021/03/16/13:29:19.426310,571163,1615897759,428171158,mocap,-2.81190917969,9.50738671875,1.89831774902,0.160845724812,0.209051263138,0.964417853933,-0.0180118555628
2021/03/16/13:29:19.438209,571164,1615897759,438171148,mocap,-2.81093701172,9.49775097656,1.89728234863,0.161239758875,0.209541883214,0.964249215369,-0.0178156324578
2021/03/16/13:29:19.446120,571165,1615897759,448171139,mocap,-2.80996899414,9.48811035156,1.89638500977,0.161924011554,0.209544661528,0.964141567024,-0.0173981146665
2021/03/16/13:29:19.457923,571166,1615897759,458171129,mocap,-2.80898193359,9.47839160156,1.89568847656,0.162122082099,0.209715578892,0.964081258298,-0.0168265478025
2021/03/16/13:29:19.466163,571167,1615897759,468171120,mocap,-2.80799023438,9.46862792969,1.89507653809,0.162303484778,0.20996917618,0.964007675615,-0.0161157364289
2021/03/16/13:29:19.478144,571168,1615897759,478171110,mocap,-2.80698217773,9.45888671875,1.89473815918,0.162292968813,0.209893702561,0.964036580731,-0.0154629377172
2021/03/16/13:29:19.486380,571169,1615897759,488171101,mocap,-2.8059921875,9.4490078125,1.89455578613,0.162605371272,0.210254347273,0.963921480669,-0.0144216690742
2021/03/16/13:29:19.498103,571170,1615897759,498171091,mocap,-2.80500488281,9.43921289063,1.89497692871,0.162372660801,0.210656556964,0.963890461897,-0.0131953791532
2021/03/16/13:29:19.506454,571171,1615897759,508171082,mocap,-2.80404736328,9.42940136719,1.89566003418,0.162421867013,0.211171932652,0.96378303632,-0.0121577151088
2021/03/16/13:29:19.518133,571172,1615897759,518171072,mocap,-2.80306787109,9.41941699219,1.89655126953,0.16286520104,0.211226337759,0.963711796596,-0.0108602025436
2021/03/16/13:29:19.526259,571173,1615897759,528171062,mocap,-2.80203100586,9.40946289063,1.89758093262,0.162990274473,0.211198176384,0.963710018434,-0.00961676283112
2021/03/16/13:29:19.537997,571174,1615897759,538171053,mocap,-2.80098193359,9.39953515625,1.89877172852,0.162640069926,0.211158707564,0.96379160174,-0.00812044989364
2021/03/16/13:29:19.546310,571175,1615897759,548171043,mocap,-2.79998925781,9.38959863281,1.90019934082,0.162789048362,0.211362117181,0.963733451246,-0.00660398914315
2021/03/16/13:29:19.557571,571176,1615897759,558171034,mocap,-2.79911523437,9.37981445313,1.90198059082,0.162178029174,0.211039556817,0.963915946369,-0.00516234703047
2021/03/16/13:29:19.566378,571177,1615897759,568171024,mocap,-2.79813818359,9.36988671875,1.90347741699,0.162998337773,0.211333233843,0.963719527694,-0.00380334594675
2021/03/16/13:29:19.577885,571178,1615897759,578171015,mocap,-2.79723852539,9.36011132813,1.90527111816,0.16254415051,0.210445984385,0.963995116304,-0.002303487346
2021/03/16/13:29:19.586115,571179,1615897759,588171005,mocap,-2.7963125,9.35024023438,1.90685852051,0.163218368581,0.209749096107,0.964034973197,-0.00128078678613
2021/03/16/13:29:19.597768,571180,1615897759,598170996,mocap,-2.7954765625,9.34041015625,1.9083984375,0.163764700369,0.208498088267,0.964214490412,-0.000311342195167
2021/03/16/13:29:19.606648,571181,1615897759,608170986,mocap,-2.79465234375,9.33066699219,1.9098137207,0.164937917885,0.207491165525,0.964231675327,0.000415681528302
2021/03/16/13:29:19.617604,571182,1615897759,618170977,mocap,-2.79386865234,9.32095507812,1.91105517578,0.165283895472,0.206199310584,0.964448616261,0.00139191522302
2021/03/16/13:29:19.626616,571183,1615897759,628171206,mocap,-2.79319921875,9.311421875,1.91227294922,0.165949679278,0.205484454041,0.964484707828,0.0024668533482
2021/03/16/13:29:19.636348,571184,1615897759,638171196,mocap,-2.79259008789,9.30194335938,1.91336547852,0.167265030291,0.204912037291,0.964376714931,0.00332023741875
2021/03/16/13:29:19.646519,571185,1615897759,648171186,mocap,-2.79202539063,9.29253125,1.91443505859,0.167569917769,0.204646212266,0.964376112319,0.00435507131271
2021/03/16/13:29:19.656616,571186,1615897759,658171177,mocap,-2.79158520508,9.28327246094,1.91548974609,0.168424899791,0.204381069496,0.964278491847,0.00533081693018
2021/03/16/13:29:19.667174,571187,1615897759,668171167,mocap,-2.79119677734,9.27404394531,1.91647644043,0.168727123437,0.204051507202,0.964285832076,0.00685354252275
2021/03/16/13:29:19.676356,571188,1615897759,678171158,mocap,-2.79078955078,9.26472851563,1.91710827637,0.167939521668,0.204579572257,0.964292299157,0.00915786468711
2021/03/16/13:29:19.686663,571189,1615897759,688171148,mocap,-2.79065625,9.25553808594,1.9182364502,0.169740699914,0.203527847418,0.964196447468,0.00947215826319
2021/03/16/13:29:19.698280,571190,1615897759,698171139,mocap,-2.79044921875,9.24633203125,1.91888830566,0.168703179419,0.203817046401,0.964287949142,0.0121076335538
2021/03/16/13:29:19.706390,571191,1615897759,708171129,mocap,-2.79041064453,9.23716210937,1.91992480469,0.170358932709,0.202784358996,0.964206423287,0.0127398467617
2021/03/16/13:29:19.718605,571192,1615897759,718171120,mocap,-2.79033056641,9.2279609375,1.92048583984,0.169642750444,0.202951471468,0.964258016177,0.0154438994518
2021/03/16/13:29:19.726762,571193,1615897759,728171110,mocap,-2.79040380859,9.21884179687,1.9212767334,0.16978651853,0.202326269578,0.964333688997,0.0172380231307
2021/03/16/13:29:19.738509,571194,1615897759,738171101,mocap,-2.79050708008,9.20968457031,1.92196740723,0.169830597699,0.2015592611,0.964453359537,0.0190041732616
2021/03/16/13:29:19.746468,571195,1615897759,748171091,mocap,-2.79069116211,9.20047167969,1.92262133789,0.169923235236,0.20066230514,0.96458609998,0.020842014474
2021/03/16/13:29:19.758205,571196,1615897759,758171082,mocap,-2.79091870117,9.19130273438,1.92316577148,0.170569567254,0.199090284673,0.964763221006,0.0223831873817
2021/03/16/13:29:19.766455,571197,1615897759,768171072,mocap,-2.79116699219,9.18212207031,1.92369909668,0.170213305597,0.197908191678,0.965027810892,0.0241060916418
2021/03/16/13:29:19.778368,571198,1615897759,778171062,mocap,-2.79144677734,9.17294921875,1.92412731934,0.170138359653,0.196702600865,0.965245028305,0.0257502630193
2021/03/16/13:29:19.786445,571199,1615897759,788171053,mocap,-2.79178833008,9.16377832031,1.92455554199,0.17007081705,0.195617166638,0.965433990389,0.027332294544
2021/03/16/13:29:19.798374,571200,1615897759,798171043,mocap,-2.79218896484,9.15457519531,1.92488122559,0.169905370678,0.194151892914,0.965716843419,0.028778219593
2021/03/16/13:29:19.806253,571201,1615897759,808171034,mocap,-2.79263183594,9.14541601563,1.92520410156,0.169742195709,0.192817461763,0.965974153276,0.0300492699665
2021/03/16/13:29:19.818361,571202,1615897759,818171024,mocap,-2.79307519531,9.13623632812,1.92543371582,0.169373470239,0.191466232933,0.966270048925,0.0312329742342
2021/03/16/13:29:19.826196,571203,1615897759,828171015,mocap,-2.79362597656,9.12697167969,1.92559326172,0.16880550673,0.190144077951,0.966585872243,0.0325835876391
2021/03/16/13:29:19.838203,571204,1615897759,838171005,mocap,-2.79416235352,9.11779492187,1.92572766113,0.168394400418,0.189252406679,0.966790948715,0.0337953686595
2021/03/16/13:29:19.846580,571205,1615897759,848170996,mocap,-2.79473022461,9.1085859375,1.92573254395,0.16766613609,0.188015067318,0.967127733741,0.0346749336952
2021/03/16/13:29:19.856505,571206,1615897759,858170986,mocap,-2.79540039062,9.09937597656,1.92568640137,0.167078140382,0.187172352733,0.967349817155,0.0358573480121
2021/03/16/13:29:19.867945,571207,1615897759,868170977,mocap,-2.7960559082,9.09015039063,1.92551879883,0.166351624318,0.186200955906,0.967638547179,0.0364963000559
2021/03/16/13:29:19.876427,571208,1615897759,878171206,mocap,-2.79678735352,9.08091308594,1.92527648926,0.16537340984,0.185509468893,0.967901065544,0.0374887084033
2021/03/16/13:29:19.887804,571209,1615897759,888171196,mocap,-2.79751538086,9.07166992187,1.92488378906,0.164863083915,0.18472168795,0.968117184223,0.0380417605029
2021/03/16/13:29:19.896467,571210,1615897759,898171186,mocap,-2.79829541016,9.06239648438,1.92442797852,0.164283422954,0.184316122715,0.968263819428,0.0387774788573
2021/03/16/13:29:19.907980,571211,1615897759,908171177,mocap,-2.79905566406,9.05319628906,1.92388330078,0.16342602043,0.183991433851,0.968444422241,0.0394270073591
2021/03/16/13:29:19.916331,571212,1615897759,918171167,mocap,-2.79985668945,9.04388378906,1.92321105957,0.162358630092,0.183918939738,0.968615130296,0.0399778301669
2021/03/16/13:29:19.927923,571213,1615897759,928171158,mocap,-2.80066186523,9.03467285156,1.92243078613,0.161594036439,0.18379030201,0.968745485418,0.0405051370287
2021/03/16/13:29:19.936171,571214,1615897759,938171148,mocap,-2.80148754883,9.02537890625,1.92154223633,0.160782178587,0.183888654075,0.968850261361,0.0407827838168
2021/03/16/13:29:19.947980,571215,1615897759,948171139,mocap,-2.80233300781,9.01607324219,1.92052807617,0.159936769843,0.184230588662,0.968907481899,0.0412019548488
2021/03/16/13:29:19.956250,571216,1615897759,958171129,mocap,-2.80314550781,9.0067109375,1.91932165527,0.159285672943,0.184647926763,0.968920654217,0.0415449121976
2021/03/16/13:29:19.967816,571217,1615897759,968171120,mocap,-2.80400463867,8.99736035156,1.91815649414,0.15847212409,0.185411046019,0.968900768792,0.0417206738989
2021/03/16/13:29:19.976375,571218,1615897759,978171110,mocap,-2.80485595703,8.98792578125,1.9167512207,0.15810698464,0.185977003047,0.968837626401,0.0420522246483
2021/03/16/13:29:19.987699,571219,1615897759,988171101,mocap,-2.80571704102,8.97849902344,1.91529943848,0.15730636911,0.1864916775,0.968866479701,0.0421105909397
2021/03/16/13:29:19.996504,571220,1615897759,998171091,mocap,-2.80661083984,8.96897753906,1.91376611328,0.156896336836,0.187218050625,0.968781439979,0.042372895881
2021/03/16/13:29:20.007593,571221,1615897760,8171082,mocap,-2.80754907227,8.95945703125,1.91202429199,0.156061471274,0.187575856128,0.96884238664,0.0424799972098
2021/03/16/13:29:20.016326,571222,1615897760,18171072,mocap,-2.8084375,8.94994042969,1.91035632324,0.155563464358,0.188773102357,0.968681832961,0.0426640984008
2021/03/16/13:29:20.028154,571223,1615897760,28171062,mocap,-2.80938500977,8.94040234375,1.90866333008,0.155010632949,0.189506615853,0.96861872245,0.042856830283
2021/03/16/13:29:20.036514,571224,1615897760,38171053,mocap,-2.8103269043,8.93070800781,1.90688427734,0.154701252353,0.190289635678,0.968526314475,0.042592843185
2021/03/16/13:29:20.047592,571225,1615897760,48171043,mocap,-2.81129077148,8.92102734375,1.90536218262,0.154268473151,0.191093540989,0.968434090019,0.0426604167675
2021/03/16/13:29:20.056179,571226,1615897760,58171034,mocap,-2.81227734375,8.91126367188,1.90380529785,0.153950618729,0.191491511407,0.968431381928,0.0420817884226
2021/03/16/13:29:20.067648,571227,1615897760,68171024,mocap,-2.81324951172,8.90138378906,1.90252099609,0.153673317455,0.191862541924,0.968408439781,0.0419329854916
2021/03/16/13:29:20.076222,571228,1615897760,78171015,mocap,-2.814265625,8.89139746094,1.90128417969,0.153541218452,0.191947991212,0.968450846166,0.0410367539613
2021/03/16/13:29:20.088866,571229,1615897760,88171005,mocap,-2.81524584961,8.88144433594,1.90033947754,0.15327107337,0.192019758845,0.968502389889,0.0404907356778
2021/03/16/13:29:20.096390,571230,1615897760,98170996,mocap,-2.81630126953,8.8713828125,1.89941589355,0.153429342327,0.192115579422,0.96849173518,0.0396837233372
2021/03/16/13:29:20.106539,571231,1615897760,108170986,mocap,-2.81723193359,8.86133496094,1.8986953125,0.153670608151,0.192263090563,0.968460470434,0.0387886922483
2021/03/16/13:29:20.118379,571232,1615897760,118170977,mocap,-2.81826367188,8.85129101562,1.89805761719,0.154006554987,0.192265565394,0.968454669728,0.037569841276
2021/03/16/13:29:20.126364,571233,1615897760,128171206,mocap,-2.81925488281,8.8412734375,1.89770690918,0.15417352767,0.192517501198,0.968422642126,0.0364021036517
2021/03/16/13:29:20.138538,571234,1615897760,138171196,mocap,-2.82027807617,8.83123144531,1.89767456055,0.154865533089,0.193373277384,0.968171339102,0.0356047092039
2021/03/16/13:29:20.146396,571235,1615897760,148171186,mocap,-2.82131762695,8.82124707031,1.89816003418,0.155228370334,0.194580648752,0.967913920564,0.0344261536771
2021/03/16/13:29:20.158304,571236,1615897760,158171177,mocap,-2.82240625,8.81115039063,1.89895849609,0.155570179123,0.195322795407,0.967747792848,0.0333336703516
2021/03/16/13:29:20.166509,571237,1615897760,168171167,mocap,-2.82349658203,8.80101953125,1.8998894043,0.15610760642,0.195750559975,0.967616979922,0.0320860593629
2021/03/16/13:29:20.176277,571238,1615897760,178171158,mocap,-2.82451855469,8.79076464844,1.90085668945,0.156840087793,0.195743367198,0.967548509744,0.0305875262037
2021/03/16/13:29:20.188236,571239,1615897760,188171148,mocap,-2.82557226562,8.78059472656,1.90217431641,0.157179120173,0.195976302976,0.967487812717,0.029246066241
2021/03/16/13:29:20.196639,571240,1615897760,198171139,mocap,-2.82665917969,8.77041894531,1.90366357422,0.158027702865,0.195981883413,0.967389705271,0.0278479287062
2021/03/16/13:29:20.208433,571241,1615897760,208171129,mocap,-2.82772729492,8.7603046875,1.90527160645,0.158298659879,0.195817995193,0.967419626054,0.0263838977789
2021/03/16/13:29:20.216344,571242,1615897760,218171120,mocap,-2.82884106445,8.75015722656,1.90692492676,0.158686676504,0.195083128311,0.967536443029,0.0251861664128
2021/03/16/13:29:20.228147,571243,1615897760,228171110,mocap,-2.82984008789,8.74004785156,1.90853930664,0.15865492607,0.194338633835,0.967727767837,0.0237502735653
2021/03/16/13:29:20.236258,571244,1615897760,238171101,mocap,-2.83082592773,8.73,1.91000842285,0.158947145628,0.193231322954,0.967931986581,0.0224752409763
2021/03/16/13:29:20.248111,571245,1615897760,248171091,mocap,-2.83184912109,8.72004785156,1.91153149414,0.15905873348,0.191817323412,0.968222789973,0.0212382993726
2021/03/16/13:29:20.256503,571246,1615897760,258171082,mocap,-2.83281616211,8.71015332031,1.9128560791,0.15924115977,0.190555274329,0.968465817208,0.0201222844592
2021/03/16/13:29:20.267813,571247,1615897760,268171072,mocap,-2.83370996094,8.70047070312,1.91405407715,0.15861037254,0.189283552137,0.968840156482,0.0190588764698
2021/03/16/13:29:20.276716,571248,1615897760,278171062,mocap,-2.83461694336,8.69092480469,1.91514746094,0.15827973026,0.188730323495,0.969011463751,0.0185791965373
2021/03/16/13:29:20.287990,571249,1615897760,288171053,mocap,-2.83545800781,8.68155761719,1.91617749023,0.157469852953,0.188397392828,0.969220093525,0.0179467198639
