time,.header.seq,.header.stamp.secs,.header.stamp.nsecs,.header.frame_id,.pose.position.x,.pose.position.y,.pose.position.z,.pose.orientation.x,.pose.orientation.y,.pose.orientation.z,.pose.orientation.w
2021/03/16/13:53:45.156190,687439,1615899225,158171177,mocap,-2.82076342773,10.4024072266,1.93280993652,0.145243347774,0.231338787488,0.961934835916,0.00825272082866
2021/03/16/13:53:45.166181,687440,1615899225,168171167,mocap,-2.82070239258,10.4023662109,1.93278112793,0.145267213985,0.231390012366,0.961919329479,0.00820366390364
2021/03/16/13:53:45.175922,687441,1615899225,178171158,mocap,-2.82064208984,10.4023378906,1.93279797363,0.145256654638,0.231367258301,0.961926114544,0.0082372804856
2021/03/16/13:53:45.187974,687442,1615899225,188171148,mocap,-2.82057226563,10.4023125,1.93279467773,0.14547125531,0.23131634556,0.961906828103,0.00813074950266
2021/03/16/13:53:45.195779,687443,1615899225,198171139,mocap,-2.82049487305,10.4022949219,1.93277099609,0.145593677524,0.231358548516,0.961878308247,0.00811339197295
2021/03/16/13:53:45.207285,687444,1615899225,208171129,mocap,-2.82043945313,10.4022626953,1.93277648926,0.145642992314,0.23145080372,0.961848555915,0.0081242386444
2021/03/16/13:53:45.215787,687445,1615899225,218171120,mocap,-2.8203737793,10.4022402344,1.93275085449,0.145816971195,0.231470856598,0.961817276631,0.00813520057285
2021/03/16/13:53:45.227480,687446,1615899225,228171110,mocap,-2.82031958008,10.4022304688,1.93272424316,0.145796356085,0.231528027941,0.961806354205,0.00816936763505
2021/03/16/13:53:45.235995,687447,1615899225,238171101,mocap,-2.82027148438,10.4022255859,1.93272045898,0.145664499935,0.23154068962,0.961821622328,0.00836230632998
2021/03/16/13:53:45.247325,687448,1615899225,248171091,mocap,-2.82021484375,10.4021982422,1.93273486328,0.145587919966,0.231623570327,0.961813279502,0.00836004332859
2021/03/16/13:53:45.255630,687449,1615899225,258171082,mocap,-2.82014282227,10.4021962891,1.93271203613,0.145857525864,0.231736107768,0.961745031387,0.00839411304305
2021/03/16/13:53:45.267200,687450,1615899225,268171072,mocap,-2.82006445313,10.4021748047,1.9326986084,0.145599844956,0.231735935855,0.961783168814,0.0085007621536
2021/03/16/13:53:45.275574,687451,1615899225,278171062,mocap,-2.8199987793,10.4021611328,1.9326932373,0.145765866834,0.231786721646,0.961746239908,0.00844918510263
2021/03/16/13:53:45.287093,687452,1615899225,288171053,mocap,-2.81993261719,10.4021494141,1.93268395996,0.145772225125,0.231893951798,0.961718652696,0.00853751065186
2021/03/16/13:53:45.295647,687453,1615899225,298171043,mocap,-2.8198449707,10.4021171875,1.93264685059,0.145858920937,0.232015228958,0.961675608556,0.00860986220816
2021/03/16/13:53:45.306987,687454,1615899225,308171034,mocap,-2.8197409668,10.40209375,1.93264038086,0.145887285436,0.232014557024,0.961670750862,0.00868965304379
2021/03/16/13:53:45.315486,687455,1615899225,318171024,mocap,-2.81965307617,10.4020576172,1.93259924316,0.146172385612,0.232118756843,0.961601694577,0.00875765063479
2021/03/16/13:53:45.326955,687456,1615899225,328171015,mocap,-2.81953881836,10.4020087891,1.93257250977,0.146233734438,0.232203900368,0.961570058588,0.00894820529048
2021/03/16/13:53:45.335677,687457,1615899225,338171005,mocap,-2.81944189453,10.4019833984,1.93257373047,0.146224959033,0.232376562871,0.961527999628,0.00912720686817
2021/03/16/13:53:45.346977,687458,1615899225,348170996,mocap,-2.81932714844,10.4019345703,1.93256872559,0.146297361862,0.2324412609,0.961500351912,0.00923145098617
2021/03/16/13:53:45.355557,687459,1615899225,358170986,mocap,-2.81922265625,10.4018759766,1.93253479004,0.146523259953,0.232327468284,0.96149342436,0.00923436040087
2021/03/16/13:53:45.366777,687460,1615899225,368170977,mocap,-2.81912426758,10.4018066406,1.93254785156,0.1470572635,0.232517992206,0.961365604406,0.00925898638037
2021/03/16/13:53:45.376021,687461,1615899225,378171206,mocap,-2.81899291992,10.4017714844,1.93255151367,0.147061151372,0.23258327425,0.961347585494,0.0094267722529
2021/03/16/13:53:45.386952,687462,1615899225,388171196,mocap,-2.81887915039,10.4016601562,1.93251086426,0.147208765661,0.232571652319,0.961326396372,0.00956859472395
2021/03/16/13:53:45.395637,687463,1615899225,398171186,mocap,-2.81873828125,10.4016035156,1.93251489258,0.147521768659,0.232539164551,0.961286403924,0.00955602405572
2021/03/16/13:53:45.405782,687464,1615899225,408171177,mocap,-2.81863549805,10.401515625,1.93251513672,0.147829962638,0.232588088574,0.961226140844,0.00966320592572
2021/03/16/13:53:45.416853,687465,1615899225,418171167,mocap,-2.81851733398,10.4014169922,1.93249291992,0.148079910036,0.232519697042,0.961203468546,0.00973843935193
2021/03/16/13:53:45.425703,687466,1615899225,428171158,mocap,-2.81838476562,10.4013066406,1.9324777832,0.148157066862,0.232446042185,0.96120844487,0.00983150487123
2021/03/16/13:53:45.435887,687467,1615899225,438171148,mocap,-2.81824194336,10.40121875,1.93247180176,0.148477784375,0.232345463947,0.961183648256,0.00979432571503
2021/03/16/13:53:45.446903,687468,1615899225,448171139,mocap,-2.81813647461,10.4010986328,1.93245458984,0.148645239,0.232228778875,0.961185454346,0.00984428090678
2021/03/16/13:53:45.455539,687469,1615899225,458171129,mocap,-2.81799951172,10.4009716797,1.9324251709,0.148951229174,0.232220883854,0.96114042512,0.00980100153687
2021/03/16/13:53:45.467569,687470,1615899225,468171120,mocap,-2.81789550781,10.4008574219,1.93242663574,0.149126457071,0.232205009452,0.961115905824,0.00991704238485
2021/03/16/13:53:45.475907,687471,1615899225,478171110,mocap,-2.81777954102,10.4007480469,1.9323807373,0.149397672027,0.232170152389,0.961081873895,0.00994916144242
2021/03/16/13:53:45.487765,687472,1615899225,488171101,mocap,-2.81766650391,10.4006298828,1.93240771484,0.149404456941,0.232223611994,0.961067501051,0.00998782997512
2021/03/16/13:53:45.495824,687473,1615899225,498171091,mocap,-2.81756494141,10.4005136719,1.93242541504,0.149668689805,0.232153801869,0.961044104021,0.00990586757944
2021/03/16/13:53:45.506650,687474,1615899225,508171082,mocap,-2.81747900391,10.400375,1.93237524414,0.149885539731,0.2321727673,0.961006162098,0.00986300721031
2021/03/16/13:53:45.515557,687475,1615899225,518171072,mocap,-2.81738671875,10.4002675781,1.93237194824,0.149917627513,0.232100339893,0.961018744965,0.00985419688005
2021/03/16/13:53:45.527663,687476,1615899225,528171062,mocap,-2.81731640625,10.4001669922,1.93240356445,0.149821184982,0.232039268088,0.96104762369,0.0099422441122
2021/03/16/13:53:45.535667,687477,1615899225,538171053,mocap,-2.81726098633,10.4000449219,1.93240441895,0.149891067468,0.232038242284,0.96103623511,0.0100137813099
2021/03/16/13:53:45.547828,687478,1615899225,548171043,mocap,-2.81719628906,10.3999091797,1.93238525391,0.14975526892,0.232087868731,0.961044414124,0.0101104503132
2021/03/16/13:53:45.556107,687479,1615899225,558171034,mocap,-2.8171640625,10.3997949219,1.93238671875,0.149800519943,0.232025715566,0.961052476781,0.0100997048055
2021/03/16/13:53:45.565668,687480,1615899225,568171024,mocap,-2.81712060547,10.3996582031,1.93240710449,0.14974880099,0.231962377625,0.961074927823,0.0101853338022
2021/03/16/13:53:45.577664,687481,1615899225,578171015,mocap,-2.81707836914,10.3995068359,1.93236486816,0.149832847945,0.231855689979,0.961089323812,0.0100182312603
2021/03/16/13:53:45.587530,687482,1615899225,588171005,mocap,-2.81700854492,10.3993808594,1.93235925293,0.149638744892,0.231825693866,0.961126037648,0.0100909347297
2021/03/16/13:53:45.596045,687483,1615899225,598170996,mocap,-2.8169753418,10.3992753906,1.93238452148,0.149666958022,0.231632909685,0.96116827698,0.0100765141929
2021/03/16/13:53:45.606627,687484,1615899225,608170986,mocap,-2.81692236328,10.3991542969,1.93239074707,0.149576627654,0.231469483345,0.961221482408,0.0100986121078
2021/03/16/13:53:45.616468,687485,1615899225,618170977,mocap,-2.81688989258,10.3990185547,1.93235510254,0.149585247389,0.231453826379,0.961222575321,0.0102240510545
2021/03/16/13:53:45.625791,687486,1615899225,628171206,mocap,-2.81682739258,10.3988662109,1.93232971191,0.149442870517,0.231236926988,0.961295937159,0.0103164577053
2021/03/16/13:53:45.636288,687487,1615899225,638171196,mocap,-2.81679321289,10.3987773437,1.93235424805,0.149461309885,0.231136658032,0.961317018447,0.0103324462517
2021/03/16/13:53:45.645862,687488,1615899225,648171186,mocap,-2.81673095703,10.3986660156,1.93233630371,0.149653949074,0.230991486661,0.961322722716,0.0102593127723
2021/03/16/13:53:45.657377,687489,1615899225,658171177,mocap,-2.81669042969,10.3985605469,1.93237060547,0.149400373044,0.230810308949,0.96140286567,0.0105200165955
2021/03/16/13:53:45.666068,687490,1615899225,668171167,mocap,-2.81661352539,10.3984794922,1.9323425293,0.149404620782,0.230672710103,0.961435274355,0.0105156012758
2021/03/16/13:53:45.675738,687491,1615899225,678171158,mocap,-2.81655541992,10.3984130859,1.93238537598,0.149416386829,0.230562097507,0.961459692516,0.0105419276611
2021/03/16/13:53:45.685477,687492,1615899225,688171148,mocap,-2.81647851563,10.3983496094,1.93237841797,0.149588449979,0.230533034396,0.961440024747,0.0105307207014
2021/03/16/13:53:45.697156,687493,1615899225,698171139,mocap,-2.81639550781,10.3982832031,1.93235375977,0.149612469471,0.230562658182,0.961428594319,0.0105845372691
2021/03/16/13:53:45.705568,687494,1615899225,708171129,mocap,-2.81634863281,10.3982607422,1.93238525391,0.149893186481,0.230538345909,0.961391566546,0.01050521027
2021/03/16/13:53:45.716077,687495,1615899225,718171120,mocap,-2.81627368164,10.3982304688,1.93238037109,0.149974884445,0.230655753921,0.961350484043,0.0105220720156
2021/03/16/13:53:45.725855,687496,1615899225,728171110,mocap,-2.81619116211,10.3981943359,1.93238708496,0.14997938282,0.230685503509,0.961342067377,0.0105747355922
2021/03/16/13:53:45.736027,687497,1615899225,738171101,mocap,-2.81611303711,10.3981738281,1.93236108398,0.150202179613,0.23094168685,0.961246665594,0.0104927888455
2021/03/16/13:53:45.745520,687498,1615899225,748171091,mocap,-2.81606152344,10.3981875,1.93238586426,0.150323622254,0.230985346174,0.961218707489,0.0103530679784
2021/03/16/13:53:45.755757,687499,1615899225,758171082,mocap,-2.81599487305,10.3981679688,1.93237158203,0.150296105347,0.231020749274,0.961214049018,0.0103944650939
2021/03/16/13:53:45.766152,687500,1615899225,768171072,mocap,-2.8159387207,10.3981494141,1.93235510254,0.150233642918,0.231168428363,0.961187834038,0.0104385838954
2021/03/16/13:53:45.776775,687501,1615899225,778171062,mocap,-2.81590673828,10.3981386719,1.9323572998,0.150478284924,0.231280052613,0.961122681057,0.0104407285293
2021/03/16/13:53:45.785823,687502,1615899225,788171053,mocap,-2.81587915039,10.3981308594,1.93237451172,0.150538820297,0.231438136292,0.961075462734,0.0104112360704
2021/03/16/13:53:45.795738,687503,1615899225,798171043,mocap,-2.8158527832,10.3981318359,1.93237695312,0.150367143068,0.231413638251,0.96110882046,0.0103576063891
2021/03/16/13:53:45.806636,687504,1615899225,808171034,mocap,-2.81581958008,10.3981064453,1.93237133789,0.150516512933,0.231582197914,0.961045639032,0.0102835389107
2021/03/16/13:53:45.815531,687505,1615899225,818171024,mocap,-2.81579882813,10.3980976563,1.93237133789,0.150498586475,0.231604862788,0.961043080678,0.0102741556013
2021/03/16/13:53:45.826892,687506,1615899225,828171015,mocap,-2.81577685547,10.3980810547,1.93233728027,0.150508273413,0.231724663892,0.961012759789,0.0102672773702
2021/03/16/13:53:45.835861,687507,1615899225,838171005,mocap,-2.8157800293,10.3980556641,1.93234777832,0.150728246814,0.231911422213,0.960933855872,0.0102082752052
2021/03/16/13:53:45.845738,687508,1615899225,848170996,mocap,-2.81576171875,10.3980107422,1.93235119629,0.1507215945,0.231914341314,0.960935189469,0.0101142831863
2021/03/16/13:53:45.855610,687509,1615899225,858170986,mocap,-2.81577197266,10.3979912109,1.9323572998,0.150592491902,0.231847567612,0.960971056345,0.010160648632
2021/03/16/13:53:45.865778,687510,1615899225,868170977,mocap,-2.81576489258,10.3979677734,1.93235266113,0.150757992861,0.232023958146,0.960903438492,0.010074324192
2021/03/16/13:53:45.875657,687511,1615899225,878171206,mocap,-2.81578930664,10.3979277344,1.93236315918,0.150661575666,0.231993373951,0.960925195197,0.0101455159734
2021/03/16/13:53:45.886160,687512,1615899225,888171196,mocap,-2.81581347656,10.3978779297,1.9323416748,0.150666551171,0.23201940899,0.960918682193,0.0100934437065
2021/03/16/13:53:45.897739,687513,1615899225,898171186,mocap,-2.81583081055,10.3978583984,1.93236462402,0.150568984975,0.232010232941,0.960936166406,0.0100958526199
2021/03/16/13:53:45.905400,687514,1615899225,908171177,mocap,-2.81583544922,10.3978066406,1.93238366699,0.150468224067,0.231949833066,0.960965559325,0.0101873080633
2021/03/16/13:53:45.915568,687515,1615899225,918171167,mocap,-2.8158581543,10.3977617188,1.93237902832,0.150312298228,0.231994066856,0.960978848258,0.0102278700782
2021/03/16/13:53:45.926595,687516,1615899225,928171158,mocap,-2.81588989258,10.3977216797,1.93239746094,0.150272664784,0.231967555131,0.960992578928,0.0101213924432
2021/03/16/13:53:45.936508,687517,1615899225,938171148,mocap,-2.81590136719,10.3976582031,1.93238232422,0.150370757883,0.232150500644,0.960931770184,0.0102423468396
2021/03/16/13:53:45.945444,687518,1615899225,948171139,mocap,-2.81594213867,10.3976464844,1.93243054199,0.150261954979,0.231936060546,0.961001324279,0.0101715102799
2021/03/16/13:53:45.957705,687519,1615899225,958171129,mocap,-2.81596044922,10.3975791016,1.93241015625,0.150156981214,0.231963821435,0.961011837201,0.0100956381595
2021/03/16/13:53:45.965859,687520,1615899225,968171120,mocap,-2.81594970703,10.3975302734,1.93239050293,0.150107200049,0.231966792131,0.961018737212,0.0101104161514
2021/03/16/13:53:45.977430,687521,1615899225,978171110,mocap,-2.81600170898,10.3975166016,1.93243383789,0.149911091005,0.231935286878,0.961057019748,0.0101039645385
2021/03/16/13:53:45.985834,687522,1615899225,988171101,mocap,-2.81601293945,10.3974775391,1.93244421387,0.149910505444,0.232012457935,0.961038607419,0.0100924564861
2021/03/16/13:53:45.997487,687523,1615899225,998171091,mocap,-2.81602978516,10.3974238281,1.93239929199,0.149957845641,0.232112584882,0.96100723975,0.0100729394863
2021/03/16/13:53:46.005998,687524,1615899226,8171082,mocap,-2.81603637695,10.3973955078,1.93240673828,0.149867001551,0.232160998156,0.961010046291,0.0100417212647
2021/03/16/13:53:46.017425,687525,1615899226,18171072,mocap,-2.81605297852,10.3974013672,1.93241162109,0.14994756456,0.232140458674,0.961002673288,0.0100198410572
2021/03/16/13:53:46.025532,687526,1615899226,28171062,mocap,-2.81607324219,10.397359375,1.93243505859,0.149787248957,0.232292659542,0.960990888772,0.0100205958004
2021/03/16/13:53:46.037289,687527,1615899226,38171053,mocap,-2.81607836914,10.3973212891,1.93241320801,0.149862306967,0.232394327799,0.96095493735,0.00998786018648
2021/03/16/13:53:46.045676,687528,1615899226,48171043,mocap,-2.81606567383,10.3973046875,1.93240039063,0.15006633556,0.232573166426,0.960879618755,0.0100084669429
2021/03/16/13:53:46.057237,687529,1615899226,58171034,mocap,-2.81605126953,10.3972939453,1.93239904785,0.1500551648,0.232714968437,0.960847129294,0.00999843802539
2021/03/16/13:53:46.065583,687530,1615899226,68171024,mocap,-2.81604150391,10.3972753906,1.93243505859,0.149920238115,0.232681784207,0.960876028684,0.0100182103386
2021/03/16/13:53:46.077113,687531,1615899226,78171015,mocap,-2.81603857422,10.3972421875,1.9324251709,0.150105007001,0.232834266185,0.960810459082,0.00999725031309
2021/03/16/13:53:46.085548,687532,1615899226,88171005,mocap,-2.81605029297,10.3972050781,1.93241699219,0.150137879937,0.232952959737,0.960775710652,0.0100783621518
2021/03/16/13:53:46.096117,687533,1615899226,98170996,mocap,-2.81606005859,10.3971708984,1.93241943359,0.149915316808,0.232922215576,0.960817120153,0.0101535993112
2021/03/16/13:53:46.105561,687534,1615899226,108170986,mocap,-2.81606787109,10.3971328125,1.93243347168,0.149827616216,0.232988871853,0.960813925326,0.0102216260025
2021/03/16/13:53:46.117179,687535,1615899226,118170977,mocap,-2.81607592773,10.3970703125,1.93241430664,0.149634586357,0.233111132734,0.960813715956,0.0102804088891
2021/03/16/13:53:46.127047,687536,1615899226,128171206,mocap,-2.81612475586,10.3970283203,1.93242370605,0.149903829642,0.23319404218,0.960752376309,0.0102097013461
2021/03/16/13:53:46.135621,687537,1615899226,138171196,mocap,-2.81613549805,10.3969628906,1.93243835449,0.149772890458,0.233231684939,0.960762853181,0.0102863098028
2021/03/16/13:53:46.146055,687538,1615899226,148171186,mocap,-2.81613671875,10.3969052734,1.93245031738,0.149472321166,0.233187700747,0.960820167635,0.0103020463531
2021/03/16/13:53:46.157000,687539,1615899226,158171177,mocap,-2.81615698242,10.3968740234,1.93250134277,0.149334838428,0.233173208582,0.96084569477,0.0102420925275
2021/03/16/13:53:46.165674,687540,1615899226,168171167,mocap,-2.81615551758,10.3968066406,1.93248193359,0.149418565331,0.233309006153,0.960801184685,0.0101036839858
2021/03/16/13:53:46.176023,687541,1615899226,178171158,mocap,-2.81615063477,10.3967226563,1.9324744873,0.149386548391,0.23326283489,0.960817732752,0.0100689310906
2021/03/16/13:53:46.185669,687542,1615899226,188171148,mocap,-2.81613647461,10.3966357422,1.93246435547,0.149142998808,0.233253693469,0.96085724069,0.0101215609241
2021/03/16/13:53:46.195955,687543,1615899226,198171139,mocap,-2.81614575195,10.3965527344,1.93248754883,0.149203326677,0.233259739265,0.960846997473,0.0100648374714
2021/03/16/13:53:46.207019,687544,1615899226,208171129,mocap,-2.81612768555,10.3964775391,1.93247692871,0.149199958475,0.233244197722,0.960851510395,0.0100443871086
2021/03/16/13:53:46.215847,687545,1615899226,218171120,mocap,-2.81611303711,10.3963701172,1.9324720459,0.149153357491,0.233110302359,0.960891513189,0.0100177329296
2021/03/16/13:53:46.225720,687546,1615899226,228171110,mocap,-2.81609619141,10.3962744141,1.93247106934,0.149112099376,0.233028928716,0.960917495891,0.010033576967
2021/03/16/13:53:46.236793,687547,1615899226,238171101,mocap,-2.81606787109,10.3961669922,1.93246582031,0.149159141432,0.232984404781,0.960920736895,0.0100570384265
2021/03/16/13:53:46.245901,687548,1615899226,248171091,mocap,-2.81604467773,10.3961015625,1.93248425293,0.149164198778,0.232963421406,0.960925319253,0.0100306923711
2021/03/16/13:53:46.255886,687549,1615899226,258171082,mocap,-2.81599121094,10.3959990234,1.9324642334,0.149333987374,0.233004986136,0.960888938917,0.0100236129488
2021/03/16/13:53:46.265602,687550,1615899226,268171072,mocap,-2.81594702148,10.3959023438,1.93248486328,0.149351430425,0.232990632362,0.960889008702,0.0100914437912
2021/03/16/13:53:46.277845,687551,1615899226,278171062,mocap,-2.81590234375,10.3957900391,1.93244641113,0.14944999137,0.233041155906,0.960862474692,0.00999097208749
2021/03/16/13:53:46.285642,687552,1615899226,288171053,mocap,-2.81584765625,10.3956865234,1.93246643066,0.14968088181,0.233225227243,0.960781053663,0.010069417266
2021/03/16/13:53:46.298136,687553,1615899226,298171043,mocap,-2.81579882813,10.3955732422,1.93247229004,0.149391836493,0.233134082039,0.960847160311,0.0101644023282
2021/03/16/13:53:46.305525,687554,1615899226,308171034,mocap,-2.81572412109,10.3954570313,1.93245483398,0.149573688997,0.233378617365,0.960758634528,0.0102465083896
2021/03/16/13:53:46.317039,687555,1615899226,318171024,mocap,-2.81569287109,10.3953017578,1.93248864746,0.149658216923,0.23346136249,0.960725729953,0.0102121889227
2021/03/16/13:53:46.327641,687556,1615899226,328171015,mocap,-2.81565283203,10.3951689453,1.93254467773,0.149676011801,0.233555200219,0.960700463314,0.0101823007775
2021/03/16/13:53:46.335586,687557,1615899226,338171005,mocap,-2.81556884766,10.39496875,1.93248730469,0.149826800335,0.233803027799,0.960615421997,0.0102995099724
2021/03/16/13:53:46.347780,687558,1615899226,348170996,mocap,-2.8155246582,10.3947871094,1.93257116699,0.149765611252,0.233905885265,0.960599413378,0.0103474286516
2021/03/16/13:53:46.355543,687559,1615899226,358170986,mocap,-2.81543041992,10.3945810547,1.93258972168,0.149717760476,0.234151501522,0.96054553745,0.0104850577246
2021/03/16/13:53:46.366489,687560,1615899226,368170977,mocap,-2.81535009766,10.3943945313,1.93263684082,0.149668008976,0.234303463718,0.960515573185,0.0105454849338
2021/03/16/13:53:46.377422,687561,1615899226,378171206,mocap,-2.81525292969,10.3941533203,1.93264526367,0.14964200536,0.23458815332,0.96044847404,0.0106959404073
2021/03/16/13:53:46.385638,687562,1615899226,388171196,mocap,-2.81516015625,10.3938994141,1.93270532227,0.14938645123,0.234817804484,0.960430383619,0.0108523943169
2021/03/16/13:53:46.396272,687563,1615899226,398171186,mocap,-2.81503930664,10.3936240234,1.93273205566,0.149395709019,0.234893157721,0.9604097173,0.0109229543965
2021/03/16/13:53:46.405630,687564,1615899226,408171177,mocap,-2.81492822266,10.3933330078,1.93279333496,0.149485927104,0.235132847637,0.960335729165,0.0110360780609
2021/03/16/13:53:46.417701,687565,1615899226,418171167,mocap,-2.81477392578,10.3930009766,1.93279101563,0.149572315346,0.2352224278,0.960299070459,0.0111452264975
2021/03/16/13:53:46.426046,687566,1615899226,428171158,mocap,-2.81459863281,10.3926855469,1.93281274414,0.149578826434,0.235525548934,0.960222800349,0.0112282324402
2021/03/16/13:53:46.437570,687567,1615899226,438171148,mocap,-2.81440893555,10.3923085938,1.93283911133,0.149635513847,0.236068156089,0.960077567791,0.0114939774038
2021/03/16/13:53:46.445533,687568,1615899226,448171139,mocap,-2.81418725586,10.3919316406,1.9328614502,0.149589853037,0.236522332902,0.959972168089,0.0115541171656
2021/03/16/13:53:46.457321,687569,1615899226,458171129,mocap,-2.81395654297,10.3915361328,1.93291638184,0.149591461346,0.236962263423,0.959861587242,0.011704995599
2021/03/16/13:53:46.465476,687570,1615899226,468171120,mocap,-2.81367138672,10.3910957031,1.93293518066,0.149768921791,0.237506888715,0.959696759558,0.011911637511
2021/03/16/13:53:46.477128,687571,1615899226,478171110,mocap,-2.81336499023,10.3906005859,1.93293078613,0.149915044029,0.238007360402,0.959546283877,0.0122020860618
2021/03/16/13:53:46.485666,687572,1615899226,488171101,mocap,-2.81304052734,10.3900703125,1.93291113281,0.149849579175,0.23858499517,0.959407021799,0.0126677581101
2021/03/16/13:53:46.496412,687573,1615899226,498171091,mocap,-2.81268115234,10.389453125,1.93287744141,0.150144535185,0.239186393374,0.959208763271,0.0128466143871
2021/03/16/13:53:46.505615,687574,1615899226,508171082,mocap,-2.81232495117,10.3888447266,1.93290185547,0.150354593462,0.239616398271,0.959066570046,0.0129923221742
2021/03/16/13:53:46.517163,687575,1615899226,518171072,mocap,-2.81193408203,10.3881962891,1.93287768555,0.150726882526,0.239854758676,0.958947765638,0.0130493859005
2021/03/16/13:53:46.525856,687576,1615899226,528171062,mocap,-2.81152636719,10.3875195312,1.93288366699,0.151228740658,0.240381931508,0.958736900516,0.0130364317893
2021/03/16/13:53:46.536148,687577,1615899226,538171053,mocap,-2.81109545898,10.3867158203,1.93285498047,0.151509384795,0.241044962104,0.958523765938,0.0132072034586
2021/03/16/13:53:46.547239,687578,1615899226,548171043,mocap,-2.81070263672,10.3859121094,1.93279833984,0.151767904091,0.241512235598,0.958360597319,0.0135390172046
2021/03/16/13:53:46.555676,687579,1615899226,558171034,mocap,-2.81019458008,10.3851064453,1.93274389648,0.151846145809,0.241935700492,0.958234832028,0.0139949067497
2021/03/16/13:53:46.566146,687580,1615899226,568171024,mocap,-2.80970874023,10.3841972656,1.93271948242,0.151672618424,0.242453422722,0.958124439478,0.0144679443979
2021/03/16/13:53:46.576668,687581,1615899226,578171015,mocap,-2.80925415039,10.3832197266,1.93267224121,0.1520796622,0.242640886761,0.958007314762,0.0148041672779
2021/03/16/13:53:46.585549,687582,1615899226,588171005,mocap,-2.8087434082,10.3822714844,1.93262866211,0.152466274747,0.242919119499,0.957870963585,0.01508485148
2021/03/16/13:53:46.595647,687583,1615899226,598170996,mocap,-2.8082121582,10.3812001953,1.93253137207,0.1527479981,0.243562669755,0.957655551242,0.0155283312544
2021/03/16/13:53:46.606674,687584,1615899226,608170986,mocap,-2.80767456055,10.3801123047,1.93245751953,0.153174011989,0.243489711227,0.957607959669,0.0154103438128
2021/03/16/13:53:46.615540,687585,1615899226,618170977,mocap,-2.80712719727,10.3790234375,1.9324161377,0.153143908405,0.243631462105,0.957570651886,0.0157827912046
2021/03/16/13:53:46.626995,687586,1615899226,628171206,mocap,-2.80655078125,10.3778212891,1.93233227539,0.15329149406,0.244059754193,0.957425756303,0.016506645455
2021/03/16/13:53:46.635658,687587,1615899226,638171196,mocap,-2.80592163086,10.3766787109,1.93228210449,0.153418583608,0.244067822339,0.957398441484,0.0167889465033
2021/03/16/13:53:46.647477,687588,1615899226,648171186,mocap,-2.80533666992,10.3754824219,1.93223986816,0.153835949298,0.244470186054,0.957223242361,0.0171024160317
2021/03/16/13:53:46.655871,687589,1615899226,658171177,mocap,-2.80473583984,10.3742841797,1.93217944336,0.15443301316,0.244619256886,0.957080940981,0.0175480791182
2021/03/16/13:53:46.665652,687590,1615899226,668171167,mocap,-2.80414038086,10.3730644531,1.93213244629,0.15482767885,0.244710184545,0.956989622184,0.0177817177274
2021/03/16/13:53:46.677617,687591,1615899226,678171158,mocap,-2.80356933594,10.3718066406,1.93208459473,0.154742629204,0.244726198888,0.956990354015,0.0182555934699
2021/03/16/13:53:46.685509,687592,1615899226,688171148,mocap,-2.80294970703,10.3705878906,1.93206408691,0.154626754466,0.244553120862,0.957042756303,0.0188014397446
2021/03/16/13:53:46.697773,687593,1615899226,698171139,mocap,-2.80240332031,10.3694736328,1.93225244141,0.153655381838,0.245461415051,0.956947953628,0.0197311525253
2021/03/16/13:53:46.705973,687594,1615899226,708171129,mocap,-2.80176538086,10.3681142578,1.93202624512,0.154375968743,0.244271374499,0.957142126706,0.0194550502726
2021/03/16/13:53:46.716674,687595,1615899226,718171120,mocap,-2.80119311523,10.3668261719,1.93196948242,0.154555609229,0.243966034959,0.957188472679,0.0195798461268
2021/03/16/13:53:46.726575,687596,1615899226,728171110,mocap,-2.8005715332,10.3655683594,1.9319276123,0.154653231211,0.243921131571,0.957176493308,0.0199503311525
2021/03/16/13:53:46.735929,687597,1615899226,738171101,mocap,-2.79997875977,10.3643408203,1.93192370605,0.154755448383,0.243685975959,0.957209527674,0.020440613661
2021/03/16/13:53:46.747478,687598,1615899226,748171091,mocap,-2.79933837891,10.3630791016,1.93186535645,0.154488523163,0.243217791127,0.957365016735,0.0207511631446
2021/03/16/13:53:46.755771,687599,1615899226,758171082,mocap,-2.79869604492,10.3618896484,1.93186157227,0.154162747168,0.242863236506,0.957504529121,0.0208893896984
2021/03/16/13:53:46.766908,687600,1615899226,768171072,mocap,-2.79806445312,10.3606679688,1.93171386719,0.154181904477,0.242508796396,0.95758875743,0.0210048520765
2021/03/16/13:53:46.775851,687601,1615899226,778171062,mocap,-2.7974375,10.3595048828,1.93173132324,0.153958040444,0.242272540476,0.957679505628,0.0212343144519
2021/03/16/13:53:46.787446,687602,1615899226,788171053,mocap,-2.79679956055,10.3583095703,1.93158483887,0.153906767405,0.242234272492,0.957686452988,0.0217238852804
2021/03/16/13:53:46.795664,687603,1615899226,798171043,mocap,-2.79612402344,10.3571630859,1.93145861816,0.1538260662,0.242214929093,0.957700121947,0.0219076594638
2021/03/16/13:53:46.807552,687604,1615899226,808171034,mocap,-2.79550756836,10.3560439453,1.9314230957,0.153711483707,0.242166069891,0.957724962077,0.022164554343
2021/03/16/13:53:46.815788,687605,1615899226,818171024,mocap,-2.79486206055,10.3548613281,1.93127075195,0.153338561058,0.242161594448,0.957783212883,0.022279296976
2021/03/16/13:53:46.825504,687606,1615899226,828171015,mocap,-2.79423291016,10.3538964844,1.93137023926,0.151960129706,0.243131403,0.957737634729,0.0231054346021
2021/03/16/13:53:46.836009,687607,1615899226,838171005,mocap,-2.79349487305,10.3526054687,1.93098999023,0.152613453271,0.242392238114,0.957823522731,0.0230050200958
2021/03/16/13:53:46.847561,687608,1615899226,848170996,mocap,-2.79283691406,10.3514335938,1.93085705566,0.15219807963,0.242247507692,0.95791825431,0.0233346163433
2021/03/16/13:53:46.857006,687609,1615899226,858170986,mocap,-2.79212524414,10.3503144531,1.93070153809,0.152274440818,0.24212451271,0.957932114405,0.0235433987885
2021/03/16/13:53:46.865785,687610,1615899226,868170977,mocap,-2.79144482422,10.3490654297,1.93043237305,0.151979988547,0.242359057367,0.957910110827,0.0239245824407
2021/03/16/13:53:46.877257,687611,1615899226,878171206,mocap,-2.79072363281,10.3478828125,1.93017236328,0.151615476839,0.24211271174,0.958021795733,0.0242574540986
2021/03/16/13:53:46.885612,687612,1615899226,888171196,mocap,-2.7900234375,10.3465996094,1.92988635254,0.151212510905,0.241737425,0.958167137717,0.0247696688415
2021/03/16/13:53:46.897533,687613,1615899226,898171186,mocap,-2.78927319336,10.3453535156,1.92950939941,0.150779010805,0.241857842898,0.958189345337,0.0253700572136
2021/03/16/13:53:46.905520,687614,1615899226,908171177,mocap,-2.78853491211,10.3441279297,1.92904211426,0.150656634534,0.241690380345,0.958230952136,0.0261109275983
2021/03/16/13:53:46.917397,687615,1615899226,918171167,mocap,-2.78778637695,10.3428320312,1.92847595215,0.15024762147,0.241535356911,0.958319260487,0.0266556608124
2021/03/16/13:53:46.927023,687616,1615899226,928171158,mocap,-2.78700585937,10.3415576172,1.927796875,0.149955393101,0.241575110556,0.958331404387,0.0274913274786
2021/03/16/13:53:46.935791,687617,1615899226,938171148,mocap,-2.78620410156,10.3402558594,1.92699584961,0.150004808554,0.241436636329,0.95833746073,0.0282174753239
2021/03/16/13:53:46.946090,687618,1615899226,948171139,mocap,-2.78530834961,10.3388203125,1.92584265137,0.148323703126,0.241195152571,0.958628788613,0.0292545730658
2021/03/16/13:53:46.957304,687619,1615899226,958171129,mocap,-2.78458569336,10.3376005859,1.9252677002,0.149128347536,0.24147212672,0.958419874506,0.0297201655482
2021/03/16/13:53:46.966973,687620,1615899226,968171120,mocap,-2.78375366211,10.3362353516,1.92440100098,0.14917052487,0.241727991513,0.958319003924,0.0306663296159
2021/03/16/13:53:46.976723,687621,1615899226,978171110,mocap,-2.78286669922,10.3347060547,1.92323547363,0.147867177777,0.241684948962,0.958495254244,0.0317889160169
2021/03/16/13:53:46.986857,687622,1615899226,988171101,mocap,-2.78210229492,10.3333554687,1.92275085449,0.14910655037,0.242375049324,0.95811031777,0.032345005713
2021/03/16/13:53:46.995458,687623,1615899226,998171091,mocap,-2.78128173828,10.3318105469,1.92204003906,0.149045123018,0.242871400887,0.957966763767,0.0331468124957
2021/03/16/13:53:47.006741,687624,1615899227,8171082,mocap,-2.78043310547,10.3302080078,1.92137988281,0.148726894811,0.243132141333,0.957929469958,0.0337371040716
2021/03/16/13:53:47.015976,687625,1615899227,18171072,mocap,-2.77959570313,10.3285253906,1.9207208252,0.148377367676,0.243047721067,0.957982349738,0.0343771328481
2021/03/16/13:53:47.026061,687626,1615899227,28171062,mocap,-2.77877783203,10.3267646484,1.92016442871,0.148620805976,0.242966829638,0.957946713178,0.0348864420439
2021/03/16/13:53:47.036915,687627,1615899227,38171053,mocap,-2.77795117187,10.3248818359,1.91960693359,0.148995079503,0.243091863771,0.957851821067,0.0350241534488
2021/03/16/13:53:47.045698,687628,1615899227,48171043,mocap,-2.77715771484,10.3229511719,1.91914331055,0.148855186601,0.242571250434,0.957995057872,0.0353099829088
2021/03/16/13:53:47.055949,687629,1615899227,58171034,mocap,-2.77633764648,10.3210058594,1.91880749512,0.149220634462,0.242399422072,0.957975622292,0.0354742280864
2021/03/16/13:53:47.065893,687630,1615899227,68171024,mocap,-2.7755559082,10.3188769531,1.91851794434,0.149303678009,0.242033918107,0.958050749241,0.0355914648909
2021/03/16/13:53:47.075735,687631,1615899227,78171015,mocap,-2.77479614258,10.3166914062,1.91838842773,0.149041812847,0.241221418514,0.958289078886,0.0357882103475
2021/03/16/13:53:47.085556,687632,1615899227,88171005,mocap,-2.7740546875,10.3144501953,1.91830151367,0.149498897973,0.240637272729,0.958375446113,0.0355003506175
2021/03/16/13:53:47.096022,687633,1615899227,98170996,mocap,-2.77329516602,10.3120214844,1.91805114746,0.148260495171,0.239457551003,0.958850991166,0.0358286957063
2021/03/16/13:53:47.105688,687634,1615899227,108170986,mocap,-2.77268579102,10.3096777344,1.91836499023,0.149869339968,0.238735893697,0.958791087885,0.0355528895098
2021/03/16/13:53:47.116801,687635,1615899227,118170977,mocap,-2.77200488281,10.3071103516,1.91821691895,0.148593871589,0.237186380821,0.959367749252,0.0357210894401
2021/03/16/13:53:47.125760,687636,1615899227,128171206,mocap,-2.77136547852,10.3045703125,1.91829589844,0.148258312638,0.236258500307,0.959657964696,0.0354680810999
2021/03/16/13:53:47.135796,687637,1615899227,138171196,mocap,-2.77080712891,10.3020400391,1.9184354248,0.148425538174,0.234881116303,0.959986347782,0.0350277017492
2021/03/16/13:53:47.146000,687638,1615899227,148171186,mocap,-2.77024047852,10.2994667969,1.91854858398,0.148162912215,0.234136193914,0.960220813986,0.034698592509
2021/03/16/13:53:47.156806,687639,1615899227,158171177,mocap,-2.76974731445,10.2968710937,1.91869836426,0.148534645395,0.233385535129,0.960365202525,0.0341663074075
2021/03/16/13:53:47.165787,687640,1615899227,168171167,mocap,-2.76926220703,10.2942441406,1.91875744629,0.148399580809,0.232825967603,0.960527898749,0.0339967321008
2021/03/16/13:53:47.177799,687641,1615899227,178171158,mocap,-2.76885571289,10.2916142578,1.91882849121,0.148684152542,0.23237648088,0.960601763497,0.033740834375
2021/03/16/13:53:47.185716,687642,1615899227,188171148,mocap,-2.76845654297,10.2889267578,1.91889440918,0.147872874933,0.232354348889,0.960726257304,0.0339135308538
2021/03/16/13:53:47.197481,687643,1615899227,198171139,mocap,-2.76811962891,10.2862070312,1.91887524414,0.147911099695,0.232024144109,0.96081587169,0.0334659138215
2021/03/16/13:53:47.205620,687644,1615899227,208171129,mocap,-2.76781640625,10.2834277344,1.91879443359,0.147920115635,0.232136722174,0.960794531258,0.0332573021126
2021/03/16/13:53:47.216687,687645,1615899227,218171120,mocap,-2.76752783203,10.280609375,1.91870703125,0.147841145282,0.232459340575,0.960734997323,0.0330742923742
2021/03/16/13:53:47.225856,687646,1615899227,228171110,mocap,-2.76734741211,10.2777294922,1.91860559082,0.147399477162,0.232395694651,0.960825277769,0.0328696907751
2021/03/16/13:53:47.237438,687647,1615899227,238171101,mocap,-2.7671184082,10.2747714844,1.91837097168,0.146970488733,0.232746006721,0.960812211592,0.0326933857448
2021/03/16/13:53:47.245726,687648,1615899227,248171091,mocap,-2.76698071289,10.2717783203,1.91813696289,0.147038860911,0.233344017603,0.960664144263,0.0324738036562
2021/03/16/13:53:47.257605,687649,1615899227,258171082,mocap,-2.7668894043,10.2686728516,1.91784790039,0.146647628815,0.233455752218,0.960708637431,0.0321214523777
2021/03/16/13:53:47.265857,687650,1615899227,268171072,mocap,-2.76681811523,10.2655410156,1.91749206543,0.145941811708,0.234092499325,0.960663353186,0.032056226516
2021/03/16/13:53:47.277593,687651,1615899227,278171062,mocap,-2.76682958984,10.2622978516,1.91709936523,0.145514541966,0.234646694586,0.96060131364,0.0318049245565
2021/03/16/13:53:47.285605,687652,1615899227,288171053,mocap,-2.76682714844,10.2589960937,1.9167043457,0.145048396033,0.235363760637,0.960496941037,0.0317882400639
2021/03/16/13:53:47.297513,687653,1615899227,298171043,mocap,-2.76692895508,10.2556064453,1.9163314209,0.144518031322,0.235861062743,0.96045767427,0.0317040951841
2021/03/16/13:53:47.305490,687654,1615899227,308171034,mocap,-2.76699169922,10.2520917969,1.91585522461,0.144049487891,0.236479586874,0.960375908603,0.0317059400984
2021/03/16/13:53:47.317545,687655,1615899227,318171024,mocap,-2.76713574219,10.2485175781,1.91543688965,0.143146193975,0.236894585333,0.960408080422,0.0317243329272
2021/03/16/13:53:47.325730,687656,1615899227,328171015,mocap,-2.76726855469,10.2447744141,1.91497961426,0.142532500283,0.237415646281,0.960379562606,0.0314546809136
2021/03/16/13:53:47.336261,687657,1615899227,338171005,mocap,-2.76742138672,10.2409863281,1.91449316406,0.141979985866,0.237751475959,0.960380144452,0.0313987983175
2021/03/16/13:53:47.345893,687658,1615899227,348170996,mocap,-2.76760839844,10.2370810547,1.91402209473,0.141615509095,0.238182890965,0.960329956966,0.0313102264228
2021/03/16/13:53:47.357246,687659,1615899227,358170986,mocap,-2.76781298828,10.2330458984,1.9134798584,0.141673299226,0.238682817572,0.960203122763,0.0311311814542
2021/03/16/13:53:47.367369,687660,1615899227,368170977,mocap,-2.76803881836,10.2289296875,1.91296447754,0.141060906057,0.238789418606,0.960263861266,0.0312208682237
2021/03/16/13:53:47.375939,687661,1615899227,378171206,mocap,-2.7683215332,10.2247646484,1.9124765625,0.140690388635,0.239261807288,0.960194059765,0.0314225298253
2021/03/16/13:53:47.387099,687662,1615899227,388171196,mocap,-2.76860302734,10.2204921875,1.91197717285,0.1403560706,0.23957567635,0.96016461219,0.0314258947929
2021/03/16/13:53:47.395764,687663,1615899227,398171186,mocap,-2.7689074707,10.2161269531,1.91142321777,0.14035891473,0.239981464458,0.960064258623,0.0313830689576
2021/03/16/13:53:47.406091,687664,1615899227,408171177,mocap,-2.76920068359,10.2116503906,1.91087036133,0.140137301262,0.240719803605,0.959915796501,0.0312599686264
2021/03/16/13:53:47.415862,687665,1615899227,418171167,mocap,-2.76953100586,10.207140625,1.91031408691,0.139979499585,0.241168483617,0.959820245191,0.0314419874495
2021/03/16/13:53:47.426003,687666,1615899227,428171158,mocap,-2.76988500977,10.2024970703,1.90968395996,0.139579304607,0.241795942529,0.959714452352,0.0316307672708
2021/03/16/13:53:47.442925,687667,1615899227,438171148,mocap,-2.77026416016,10.1977988281,1.90912854004,0.139730024488,0.242322086809,0.95955543064,0.0317632527731
2021/03/16/13:53:47.445707,687668,1615899227,448171139,mocap,-2.77066967773,10.1930273437,1.90859594727,0.140043949552,0.243015775298,0.959338835491,0.0316229447688
2021/03/16/13:53:47.455685,687669,1615899227,458171129,mocap,-2.77106494141,10.1880917969,1.9079140625,0.139878448726,0.243688008225,0.959186548182,0.031801425866
2021/03/16/13:53:47.466070,687670,1615899227,468171120,mocap,-2.77159130859,10.1832470703,1.9075970459,0.141568713307,0.244687867945,0.958690870319,0.0315904121177
2021/03/16/13:53:47.475883,687671,1615899227,478171110,mocap,-2.77204077148,10.178078125,1.90678540039,0.140283555741,0.245060899794,0.958764985389,0.0321773961542
2021/03/16/13:53:47.487198,687672,1615899227,488171101,mocap,-2.77252880859,10.1728808594,1.90607080078,0.140533608727,0.245583030737,0.958598321408,0.0320707568381
2021/03/16/13:53:47.495599,687673,1615899227,498171091,mocap,-2.77305664063,10.1676044922,1.90547875977,0.140581300897,0.246461360784,0.958363108414,0.0321536262393
2021/03/16/13:53:47.506993,687674,1615899227,508171082,mocap,-2.77373291016,10.1624052734,1.90523791504,0.141945102136,0.247229807798,0.957968871466,0.032010271093
2021/03/16/13:53:47.515562,687675,1615899227,518171072,mocap,-2.7743815918,10.1569462891,1.90464526367,0.142599225034,0.247921494179,0.957695049596,0.0319467359499
2021/03/16/13:53:47.525664,687676,1615899227,528171062,mocap,-2.77502539063,10.151390625,1.90412512207,0.142617217325,0.248367032446,0.957574176542,0.0320287754692
2021/03/16/13:53:47.535663,687677,1615899227,538171053,mocap,-2.7757722168,10.1458085938,1.90373632812,0.141447319132,0.248649318248,0.957663160073,0.0323641418554
2021/03/16/13:53:47.545798,687678,1615899227,548171043,mocap,-2.7765300293,10.1401005859,1.90327746582,0.141613502323,0.248993120315,0.957551705668,0.0322917570731
2021/03/16/13:53:47.557755,687679,1615899227,558171034,mocap,-2.77730908203,10.1342841797,1.90282543945,0.141331922689,0.249441363844,0.957476780787,0.0322880699881
2021/03/16/13:53:47.565492,687680,1615899227,568171024,mocap,-2.77817480469,10.1284111328,1.9024107666,0.141317792455,0.249720702457,0.957414456934,0.0320376467896
2021/03/16/13:53:47.577627,687681,1615899227,578171015,mocap,-2.77898266602,10.122375,1.90189477539,0.141220822784,0.250385940232,0.957249892814,0.0321899169845
2021/03/16/13:53:47.585727,687682,1615899227,588171005,mocap,-2.77986083984,10.116375,1.90148510742,0.140710639295,0.251021859998,0.9571571423,0.0322297654004
2021/03/16/13:53:47.596842,687683,1615899227,598170996,mocap,-2.78080371094,10.11028125,1.90112915039,0.140952852788,0.251466468528,0.957013126124,0.0319810306418
2021/03/16/13:53:47.605532,687684,1615899227,608170986,mocap,-2.78176611328,10.1041308594,1.9008215332,0.140662005806,0.251840246328,0.956965759528,0.0317367894081
2021/03/16/13:53:47.615909,687685,1615899227,618170977,mocap,-2.78277246094,10.0979326172,1.90054394531,0.140629717954,0.252247855683,0.95687543418,0.0313641958499
2021/03/16/13:53:47.626275,687686,1615899227,628171206,mocap,-2.78379003906,10.0916777344,1.9002989502,0.140352550541,0.252489653633,0.956862508728,0.0310527247062
2021/03/16/13:53:47.637620,687687,1615899227,638171196,mocap,-2.78484619141,10.0853457031,1.90004077148,0.140313318757,0.252942405789,0.956771254743,0.0303492449073
2021/03/16/13:53:47.645893,687688,1615899227,648171186,mocap,-2.78589526367,10.0790068359,1.89998718262,0.140114654266,0.253498099118,0.956665895751,0.0299491351284
2021/03/16/13:53:47.657840,687689,1615899227,658171177,mocap,-2.78701416016,10.0726083984,1.90010266113,0.139743987659,0.254413772246,0.956493000558,0.0294344139126
2021/03/16/13:53:47.665762,687690,1615899227,668171167,mocap,-2.78809545898,10.0661669922,1.90057446289,0.139022288567,0.255329496223,0.956366763746,0.0290217897459
2021/03/16/13:53:47.677489,687691,1615899227,678171158,mocap,-2.7892980957,10.0596816406,1.90123474121,0.138664839537,0.256470362521,0.956131188797,0.0284280687779
2021/03/16/13:53:47.685591,687692,1615899227,688171148,mocap,-2.79044775391,10.0531611328,1.9020760498,0.139100966333,0.257157985611,0.955913240998,0.0273962716055
2021/03/16/13:53:47.697396,687693,1615899227,698171139,mocap,-2.79154638672,10.0465146484,1.90286791992,0.139098554656,0.257580069067,0.955829169042,0.026357378392
2021/03/16/13:53:47.706033,687694,1615899227,708171129,mocap,-2.79265576172,10.0397578125,1.90365808105,0.139190314523,0.258405966587,0.955626683193,0.0251011927918
2021/03/16/13:53:47.717655,687695,1615899227,718171120,mocap,-2.79375341797,10.0330615234,1.90468969727,0.139516698186,0.259124958629,0.955416028681,0.0238653946763
2021/03/16/13:53:47.725836,687696,1615899227,728171110,mocap,-2.79493017578,10.0263115234,1.90588427734,0.139690759706,0.259730584349,0.955257749926,0.0225641089152
2021/03/16/13:53:47.737777,687697,1615899227,738171101,mocap,-2.796109375,10.0195615234,1.90733508301,0.138983003533,0.26057506678,0.955148776197,0.0217984511024
2021/03/16/13:53:47.745509,687698,1615899227,748171091,mocap,-2.79729858398,10.0126914062,1.90878857422,0.13959728194,0.260480855635,0.955125655413,0.0199326062072
2021/03/16/13:53:47.757231,687699,1615899227,758171082,mocap,-2.79854125977,10.0057617187,1.9103918457,0.138875947764,0.260729576923,0.955182270698,0.0189841442916
2021/03/16/13:53:47.765587,687700,1615899227,768171072,mocap,-2.79975756836,9.99879296875,1.9120201416,0.139092466785,0.260277079803,0.955300958456,0.0175839843023
2021/03/16/13:53:47.777168,687701,1615899227,778171062,mocap,-2.80091870117,9.991796875,1.91356762695,0.139048262441,0.259739145409,0.955480985961,0.0160388596384
2021/03/16/13:53:47.785566,687702,1615899227,788171053,mocap,-2.80199829102,9.98470410156,1.91483496094,0.13711538602,0.25936734488,0.955874549798,0.015224913483
2021/03/16/13:53:47.795628,687703,1615899227,798171043,mocap,-2.80315625,9.97780078125,1.91624597168,0.137534030738,0.258879469888,0.955972864782,0.0134795174904
2021/03/16/13:53:47.806855,687704,1615899227,808171034,mocap,-2.80418432617,9.97086914063,1.91737646484,0.138540055533,0.258110125643,0.956063400089,0.0113402386231
2021/03/16/13:53:47.815816,687705,1615899227,818171024,mocap,-2.80531689453,9.96404101562,1.91835498047,0.139047648307,0.257504889614,0.956171389072,0.00965676286885
2021/03/16/13:53:47.825983,687706,1615899227,828171015,mocap,-2.80640454102,9.95730761719,1.91929101563,0.138663761945,0.257312333096,0.956290678643,0.00841835482065
2021/03/16/13:53:47.835889,687707,1615899227,838171005,mocap,-2.80744287109,9.95056933594,1.91983605957,0.140345137627,0.256984470847,0.956149703419,0.00632307493277
2021/03/16/13:53:47.846135,687708,1615899227,848170996,mocap,-2.80845458984,9.94393554688,1.92032312012,0.140262738176,0.256592279488,0.956274293765,0.00512336823262
2021/03/16/13:53:47.857109,687709,1615899227,858170986,mocap,-2.80945556641,9.93733203125,1.92061938477,0.140761758458,0.256491929557,0.956234027692,0.00380849654791
2021/03/16/13:53:47.866851,687710,1615899227,868170977,mocap,-2.81061499023,9.93079296875,1.92092956543,0.140072572697,0.256819744585,0.956248418645,0.00349878869496
2021/03/16/13:53:47.875539,687711,1615899227,878171206,mocap,-2.81157763672,9.92429101563,1.92101843262,0.140337576361,0.256881236643,0.956196494881,0.00237949601933
2021/03/16/13:53:47.887023,687712,1615899227,888171196,mocap,-2.81254248047,9.91785449219,1.92094848633,0.141106557248,0.256909248497,0.956077910503,0.00126699617794
2021/03/16/13:53:47.895638,687713,1615899227,898171186,mocap,-2.81358154297,9.91148339844,1.92102233887,0.140049491659,0.257695129646,0.95602175351,0.00132611861634
2021/03/16/13:53:47.906915,687714,1615899227,908171177,mocap,-2.814484375,9.9050859375,1.9208458252,0.140373325256,0.258334903582,0.955802401024,0.000412148666747
2021/03/16/13:53:47.915496,687715,1615899227,918171167,mocap,-2.81541723633,9.89873925781,1.92068701172,0.140668187037,0.25902915727,0.955571178021,-0.00029063286769
2021/03/16/13:53:47.926909,687716,1615899227,928171158,mocap,-2.8162980957,9.89239550781,1.92057788086,0.140875968669,0.25939095679,0.955442082305,-0.000849014126715
2021/03/16/13:53:47.935829,687717,1615899227,938171148,mocap,-2.81708178711,9.88600195312,1.92029943848,0.141426849181,0.259930770709,0.955212105869,-0.00206364700103
2021/03/16/13:53:47.945876,687718,1615899227,948171139,mocap,-2.81797045898,9.87963378906,1.92031176758,0.140778097605,0.260438437674,0.95516918973,-0.002270265604
2021/03/16/13:53:47.955712,687719,1615899227,958171129,mocap,-2.81880053711,9.87324804688,1.92029504395,0.141080180396,0.260523795607,0.955099468344,-0.00295694838263
2021/03/16/13:53:47.965650,687720,1615899227,968171120,mocap,-2.81958154297,9.86686816406,1.92042700195,0.140732398488,0.26105719888,0.955002670584,-0.00366538869289
2021/03/16/13:53:47.975801,687721,1615899227,978171110,mocap,-2.82043994141,9.86040625,1.9207734375,0.139424032018,0.261176251056,0.955162567275,-0.00352017263084
2021/03/16/13:53:47.986614,687722,1615899227,988171101,mocap,-2.82118896484,9.85373046875,1.92089624023,0.139608587601,0.25998006379,0.955459292436,-0.00416508124127
2021/03/16/13:53:47.995795,687723,1615899227,998171091,mocap,-2.82195092773,9.84720410156,1.92144665527,0.139074609275,0.259306771558,0.955717734633,-0.00467661038306
2021/03/16/13:53:48.007691,687724,1615899228,8171082,mocap,-2.82263549805,9.84057519531,1.92203491211,0.138338992817,0.258300819663,0.956094610454,-0.00510837256815
2021/03/16/13:53:48.016073,687725,1615899228,18171072,mocap,-2.82327441406,9.83389453125,1.92259643555,0.138592049003,0.257045093854,0.956392199409,-0.00583260223609
2021/03/16/13:53:48.027451,687726,1615899228,28171062,mocap,-2.82394604492,9.82725488281,1.92339916992,0.136957226308,0.256009299727,0.956906867216,-0.00558511181227
2021/03/16/13:53:48.035791,687727,1615899228,38171053,mocap,-2.82443603516,9.82058496094,1.92400866699,0.136881594011,0.254400127833,0.957342953427,-0.00620348576284
2021/03/16/13:53:48.047710,687728,1615899228,48171043,mocap,-2.82494238281,9.81399609375,1.9247355957,0.136021089004,0.253407851137,0.957725467742,-0.00668242206534
2021/03/16/13:53:48.055853,687729,1615899228,58171034,mocap,-2.82536083984,9.80740332031,1.92538623047,0.13572212179,0.252436538227,0.958023187823,-0.0068463413702
2021/03/16/13:53:48.066679,687730,1615899228,68171024,mocap,-2.82575,9.80089648438,1.92601135254,0.135409203062,0.251847218336,0.958220952984,-0.00706682652509
2021/03/16/13:53:48.077487,687731,1615899228,78171015,mocap,-2.82602050781,9.79439453125,1.92649731445,0.135561537516,0.251465520586,0.958298735236,-0.00719053504671
2021/03/16/13:53:48.087677,687732,1615899228,88171005,mocap,-2.82625048828,9.78791894531,1.92694274902,0.135397028165,0.251194229163,0.958390317999,-0.00755707298292
2021/03/16/13:53:48.096565,687733,1615899228,98170996,mocap,-2.8263972168,9.78147949219,1.92728430176,0.135412603626,0.251138749122,0.958400688534,-0.00780164395541
2021/03/16/13:53:48.107261,687734,1615899228,108170986,mocap,-2.82645703125,9.77508007813,1.92754882812,0.135500675193,0.251362074034,0.958326786302,-0.00815131512247
2021/03/16/13:53:48.115592,687735,1615899228,118170977,mocap,-2.82648339844,9.76864746094,1.92767932129,0.136105141774,0.251866271823,0.958105511987,-0.00852048522646
2021/03/16/13:53:48.127456,687736,1615899228,128171206,mocap,-2.82641601562,9.76221679688,1.92766308594,0.136411833774,0.252561664364,0.957877481755,-0.00866862743404
2021/03/16/13:53:48.135549,687737,1615899228,138171196,mocap,-2.82631201172,9.75575585938,1.92760534668,0.136705612109,0.253437596455,0.957603213609,-0.00877755062347
2021/03/16/13:53:48.147430,687738,1615899228,148171186,mocap,-2.82612768555,9.74928320312,1.92738525391,0.137255980322,0.254239366541,0.957311643669,-0.00880582072583
2021/03/16/13:53:48.155600,687739,1615899228,158171177,mocap,-2.82595117187,9.74273535156,1.92702514648,0.137713883167,0.255482138756,0.956914692223,-0.00883368721992
2021/03/16/13:53:48.167422,687740,1615899228,168171167,mocap,-2.8257722168,9.73617773437,1.92665930176,0.137968976546,0.256895538076,0.956503095667,-0.00842998919063
2021/03/16/13:53:48.175714,687741,1615899228,178171158,mocap,-2.82544165039,9.72955761719,1.92604736328,0.138633566795,0.257771974783,0.956169035856,-0.00866668815995
2021/03/16/13:53:48.187105,687742,1615899228,188171148,mocap,-2.82521411133,9.72290039062,1.92541296387,0.139199849682,0.259210682527,0.955700653891,-0.00833606903015
2021/03/16/13:53:48.196839,687743,1615899228,198171139,mocap,-2.82485229492,9.71612988281,1.92456994629,0.139667451426,0.26043059144,0.95530130162,-0.00826634181092
2021/03/16/13:53:48.207035,687744,1615899228,208171129,mocap,-2.82447509766,9.70928808594,1.92353466797,0.140789139857,0.261500804751,0.954841475237,-0.00857327806084
2021/03/16/13:53:48.215885,687745,1615899228,218171120,mocap,-2.82413891602,9.70240332031,1.9226072998,0.140673039644,0.262714911231,0.954529095446,-0.00813452444903
2021/03/16/13:53:48.226870,687746,1615899228,228171110,mocap,-2.82374682617,9.69535839844,1.92137121582,0.141622977293,0.263934642693,0.954049357896,-0.0084409412618
2021/03/16/13:53:48.235903,687747,1615899228,238171101,mocap,-2.82331713867,9.68829003906,1.92008435059,0.142179457151,0.264846972604,0.95371458704,-0.008341016926
2021/03/16/13:53:48.246978,687748,1615899228,248171091,mocap,-2.82297094727,9.68122753906,1.91902246094,0.141332301679,0.26661989181,0.953356191081,-0.00714129233842
2021/03/16/13:53:48.255728,687749,1615899228,258171082,mocap,-2.8224934082,9.67399804688,1.91755554199,0.14201863471,0.267569583375,0.952985792469,-0.00743640694625
2021/03/16/13:53:48.266907,687750,1615899228,268171072,mocap,-2.82200366211,9.666625,1.91601806641,0.142426838645,0.26839456091,0.952695233744,-0.00712452918879
2021/03/16/13:53:48.275825,687751,1615899228,278171062,mocap,-2.82161645508,9.6592265625,1.91464868164,0.141686313582,0.269727233178,0.952435721071,-0.00619608825553
2021/03/16/13:53:48.286772,687752,1615899228,288171053,mocap,-2.8211015625,9.65168554687,1.91298352051,0.14267821537,0.270097231771,0.95218242878,-0.00624713799192
2021/03/16/13:53:48.295649,687753,1615899228,298171043,mocap,-2.82060864258,9.64412792969,1.91139746094,0.143000841065,0.271116851933,0.951847181346,-0.00577555360649
2021/03/16/13:53:48.307003,687754,1615899228,308171034,mocap,-2.82015820313,9.63640917969,1.90992932129,0.142163948724,0.271659469091,0.951823596806,-0.0047309368107
2021/03/16/13:53:48.316067,687755,1615899228,318171024,mocap,-2.81957983398,9.62867089844,1.90823547363,0.142836207071,0.272119001407,0.951592620598,-0.00453361871291
2021/03/16/13:53:48.325545,687756,1615899228,328171015,mocap,-2.81906591797,9.62083886719,1.90683227539,0.142178613294,0.27293012194,0.951463094696,-0.00351761113095
2021/03/16/13:53:48.336756,687757,1615899228,338171005,mocap,-2.81844750977,9.61291992187,1.90520837402,0.142801195298,0.273470102652,0.95121611506,-0.00313384932867
2021/03/16/13:53:48.345451,687758,1615899228,348170996,mocap,-2.81788549805,9.60499414062,1.90399316406,0.141967546188,0.274184478007,0.951138497772,-0.00190891368938
2021/03/16/13:53:48.356843,687759,1615899228,358170986,mocap,-2.81716064453,9.59691894531,1.90256762695,0.142537925277,0.274750003052,0.95089024285,-0.00176663783705
2021/03/16/13:53:48.365659,687760,1615899228,368170977,mocap,-2.81657470703,9.58879492187,1.90154675293,0.141539316392,0.275337940887,0.950870912786,-0.00038189801105
2021/03/16/13:53:48.377571,687761,1615899228,378171206,mocap,-2.81584838867,9.58056445312,1.90057092285,0.141129206783,0.275575947956,0.950862873495,0.000492751465141
2021/03/16/13:53:48.385664,687762,1615899228,388171196,mocap,-2.81504492188,9.57225195313,1.89959228516,0.141679819727,0.27527694424,0.950867465145,0.000709566910734
2021/03/16/13:53:48.395471,687763,1615899228,398171186,mocap,-2.81427124023,9.56386425781,1.8988972168,0.141510541408,0.275382411941,0.95086145525,0.00133214400075
2021/03/16/13:53:48.407655,687764,1615899228,408171177,mocap,-2.81345825195,9.55539550781,1.89836608887,0.140933517296,0.275175606358,0.951005580394,0.00212750433093
2021/03/16/13:53:48.416094,687765,1615899228,418171167,mocap,-2.81261572266,9.54675683594,1.89783789062,0.141139662172,0.274036519782,0.951303429876,0.00231954973067
2021/03/16/13:53:48.427702,687766,1615899228,428171158,mocap,-2.81177172852,9.53816601563,1.89767297363,0.141028278799,0.273531828512,0.951463697657,0.00286254554187
2021/03/16/13:53:48.435766,687767,1615899228,438171148,mocap,-2.81087817383,9.529609375,1.89797363281,0.139872458236,0.273827324176,0.951546745922,0.00361687168339
2021/03/16/13:53:48.447693,687768,1615899228,448171139,mocap,-2.80991943359,9.52095507813,1.89838391113,0.139570016974,0.273497658244,0.95168293064,0.00434110184802
2021/03/16/13:53:48.455727,687769,1615899228,458171129,mocap,-2.80906079102,9.51227539062,1.89927429199,0.138086236475,0.27313413059,0.951997457418,0.00554806187599
2021/03/16/13:53:48.467739,687770,1615899228,468171120,mocap,-2.80805053711,9.50340429688,1.89988342285,0.138941879051,0.271469437396,0.952348924706,0.00557066188252
2021/03/16/13:53:48.475663,687771,1615899228,478171110,mocap,-2.80716870117,9.49470996094,1.90114746094,0.137197298372,0.271306853416,0.952638806957,0.00698528488999
2021/03/16/13:53:48.487540,687772,1615899228,488171101,mocap,-2.80605810547,9.48583203125,1.90193847656,0.138397283187,0.269737153079,0.952911141902,0.00695813071954
2021/03/16/13:53:48.497477,687773,1615899228,498171091,mocap,-2.80503173828,9.47711523438,1.90322290039,0.13798963615,0.26902619228,0.953163998228,0.00788410556193
2021/03/16/13:53:48.506612,687774,1615899228,508171082,mocap,-2.80392114258,9.46841308594,1.90442358398,0.138208884884,0.268693770489,0.953221042672,0.00846137513919
2021/03/16/13:53:48.515792,687775,1615899228,518171072,mocap,-2.80293237305,9.45981738281,1.9058482666,0.138277157235,0.268403185607,0.953284476962,0.00937382886925
2021/03/16/13:53:48.527528,687776,1615899228,528171062,mocap,-2.80186669922,9.45119921875,1.90709973145,0.138475043952,0.267663790608,0.953454437543,0.0102660280652
2021/03/16/13:53:48.535770,687777,1615899228,538171053,mocap,-2.80085791016,9.44266113281,1.90842285156,0.138681009491,0.26736221857,0.953498141931,0.0112386513375
2021/03/16/13:53:48.547301,687778,1615899228,548171043,mocap,-2.79978198242,9.43413769531,1.90947607422,0.139006914742,0.266341181365,0.953727320793,0.0119856531838
2021/03/16/13:53:48.555744,687779,1615899228,558171034,mocap,-2.79883642578,9.42565234375,1.91046801758,0.139838627415,0.265712022939,0.953774785723,0.0124870175041
2021/03/16/13:53:48.567009,687780,1615899228,568171024,mocap,-2.7978425293,9.41718652344,1.91125012207,0.140301190554,0.265091401401,0.953867701096,0.0133619106084
2021/03/16/13:53:48.577317,687781,1615899228,578171015,mocap,-2.79686279297,9.40883398438,1.91199609375,0.141240660794,0.264568083775,0.953862131897,0.0142070116583
2021/03/16/13:53:48.585673,687782,1615899228,588171005,mocap,-2.79600537109,9.40055175781,1.91253588867,0.141572548097,0.264103212749,0.953926656069,0.0151870040205
2021/03/16/13:53:48.595701,687783,1615899228,598170996,mocap,-2.7951628418,9.39235546875,1.9130723877,0.142610670672,0.26385326307,0.953830168906,0.0158638391214
2021/03/16/13:53:48.605734,687784,1615899228,608170986,mocap,-2.79438452148,9.38417578125,1.91350927734,0.143533675616,0.264014798422,0.953633024497,0.0166833092631
2021/03/16/13:53:48.616108,687785,1615899228,618170977,mocap,-2.79371289063,9.37611621094,1.91391003418,0.144176603016,0.264270058748,0.953444810275,0.0178165561913
2021/03/16/13:53:48.626206,687786,1615899228,628171206,mocap,-2.7930769043,9.36809570313,1.91429162598,0.144469424469,0.264661131614,0.953272346926,0.0188385702563
2021/03/16/13:53:48.636086,687787,1615899228,638171196,mocap,-2.79250390625,9.360046875,1.91461450195,0.144841074491,0.265183716721,0.953041940728,0.0202415372755
2021/03/16/13:53:48.647062,687788,1615899228,648171186,mocap,-2.7920065918,9.35207519531,1.91494177246,0.144966503674,0.265445650648,0.952918937171,0.0216520171557
2021/03/16/13:53:48.655694,687789,1615899228,658171177,mocap,-2.79158959961,9.34412304687,1.91530334473,0.145277404699,0.265942351684,0.952702420783,0.0229618800917
2021/03/16/13:53:48.666931,687790,1615899228,668171167,mocap,-2.79120629883,9.33611425781,1.91564135742,0.145656258144,0.266197609773,0.952538692998,0.0243539955495
2021/03/16/13:53:48.675612,687791,1615899228,678171158,mocap,-2.7909206543,9.32811230469,1.91606555176,0.145723181306,0.266377604039,0.952437614153,0.0258906842891
2021/03/16/13:53:48.686936,687792,1615899228,688171148,mocap,-2.79068237305,9.32005175781,1.91650488281,0.146259562698,0.266268634684,0.95234180541,0.0274634408631
2021/03/16/13:53:48.695623,687793,1615899228,698171139,mocap,-2.79050439453,9.31198242187,1.91707897949,0.146819825319,0.26591522095,0.952313163398,0.0288558560647
2021/03/16/13:53:48.706844,687794,1615899228,708171129,mocap,-2.79035791016,9.30383007812,1.91764501953,0.146947191409,0.26497949489,0.952511785577,0.0302272958624
2021/03/16/13:53:48.715771,687795,1615899228,718171120,mocap,-2.7903125,9.29558398437,1.91827282715,0.147279675925,0.263778177524,0.952745494958,0.0317140765688
2021/03/16/13:53:48.726720,687796,1615899228,728171110,mocap,-2.79031567383,9.28736425781,1.91899609375,0.14773609411,0.262314751845,0.953040236472,0.0328532238555
2021/03/16/13:53:48.735744,687797,1615899228,738171101,mocap,-2.79034716797,9.279046875,1.91957641602,0.147981901378,0.260626831623,0.953418076904,0.034190479248
2021/03/16/13:53:48.745741,687798,1615899228,748171091,mocap,-2.79043188477,9.27077832031,1.92015148926,0.148447182354,0.258705493611,0.953834004209,0.0351510906952
2021/03/16/13:53:48.755842,687799,1615899228,758171082,mocap,-2.79058447266,9.262453125,1.92068383789,0.148640262986,0.257029538716,0.95421678517,0.0362246919219
2021/03/16/13:53:48.766825,687800,1615899228,768171072,mocap,-2.79080200195,9.25415527344,1.92110961914,0.148637273879,0.254846462027,0.954765354422,0.0371933471666
2021/03/16/13:53:48.775783,687801,1615899228,778171062,mocap,-2.7910859375,9.245859375,1.92148925781,0.148811620096,0.252830168803,0.955236995098,0.0381350848413
