time,.header.seq,.header.stamp.secs,.header.stamp.nsecs,.header.frame_id,.pose.position.x,.pose.position.y,.pose.position.z,.pose.orientation.x,.pose.orientation.y,.pose.orientation.z,.pose.orientation.w
2021/03/16/13:44:20.125863,642934,1615898660,128171206,mocap,-2.81093017578,10.4029804688,1.93780224609,0.166096528055,0.195730593271,0.966092841691,0.0276786613313
2021/03/16/13:44:20.137069,642935,1615898660,138171196,mocap,-2.81085180664,10.4030361328,1.93778796387,0.166129291836,0.195891801147,0.966050802254,0.0278083810926
2021/03/16/13:44:20.145861,642936,1615898660,148171186,mocap,-2.81078295898,10.4030800781,1.93778369141,0.166408449628,0.196021496003,0.965974199554,0.027886479331
2021/03/16/13:44:20.156950,642937,1615898660,158171177,mocap,-2.81071557617,10.4031298828,1.93781225586,0.166579089977,0.196163737512,0.965915756215,0.0278916473319
2021/03/16/13:44:20.167953,642938,1615898660,168171167,mocap,-2.81062036133,10.4031455078,1.93778686523,0.166565200591,0.196314832327,0.965883937549,0.0280129439362
2021/03/16/13:44:20.176039,642939,1615898660,178171158,mocap,-2.81059155273,10.4031679687,1.93776611328,0.166486845678,0.196439366076,0.965865223827,0.0282501785645
2021/03/16/13:44:20.185782,642940,1615898660,188171148,mocap,-2.81053173828,10.4031904297,1.93781665039,0.166553406472,0.196462079388,0.965845599485,0.028370844398
2021/03/16/13:44:20.196898,642941,1615898660,198171139,mocap,-2.8104765625,10.4032099609,1.93782946777,0.166629311151,0.196663128105,0.965788822413,0.0284647480725
2021/03/16/13:44:20.206073,642942,1615898660,208171129,mocap,-2.81042333984,10.4032060547,1.93781066895,0.166713663378,0.196705867898,0.965763248497,0.0285427303915
2021/03/16/13:44:20.217965,642943,1615898660,218171120,mocap,-2.81037744141,10.4032265625,1.93783984375,0.166722071492,0.196745532007,0.965750472858,0.0286526269239
2021/03/16/13:44:20.227896,642944,1615898660,228171110,mocap,-2.81034472656,10.4032529297,1.93786999512,0.16651573693,0.196768922962,0.965776525417,0.0288133314461
2021/03/16/13:44:20.235884,642945,1615898660,238171101,mocap,-2.81030761719,10.4032265625,1.93782263184,0.16678022636,0.196868247723,0.965709012584,0.0288678586515
2021/03/16/13:44:20.246823,642946,1615898660,248171091,mocap,-2.81028808594,10.403234375,1.93787927246,0.166679343916,0.196910442462,0.965715176961,0.028956244592
2021/03/16/13:44:20.255995,642947,1615898660,258171082,mocap,-2.81028637695,10.4032490234,1.93790734863,0.16653448488,0.19698440948,0.965721935357,0.0290612215315
2021/03/16/13:44:20.266013,642948,1615898660,268171072,mocap,-2.81025390625,10.4032480469,1.93791247559,0.166633317027,0.196990612301,0.965703365084,0.0290698533499
2021/03/16/13:44:20.278518,642949,1615898660,278171062,mocap,-2.81023339844,10.4032353516,1.93791845703,0.166573034379,0.196991477283,0.965709336619,0.0292103909568
2021/03/16/13:44:20.286255,642950,1615898660,288171053,mocap,-2.81021313477,10.4032255859,1.93792468262,0.166523563007,0.196957763109,0.96572393355,0.0292373727252
2021/03/16/13:44:20.297402,642951,1615898660,298171043,mocap,-2.81016918945,10.4032265625,1.93790661621,0.166547341916,0.196944313451,0.965720616085,0.0293021404506
2021/03/16/13:44:20.305851,642952,1615898660,308171034,mocap,-2.81015454102,10.4032207031,1.93788317871,0.16664659869,0.196821429215,0.965731285937,0.029211660138
2021/03/16/13:44:20.317771,642953,1615898660,318171024,mocap,-2.81011694336,10.4031914063,1.93787243652,0.166355736909,0.196737728477,0.965794345981,0.02934818443
2021/03/16/13:44:20.327674,642954,1615898660,328171015,mocap,-2.81010327148,10.4031699219,1.93785009766,0.166553492366,0.196682366778,0.965772274663,0.0293240340251
2021/03/16/13:44:20.336220,642955,1615898660,338171005,mocap,-2.81008129883,10.4031923828,1.93788183594,0.166474050811,0.196494471386,0.965821215067,0.0294224627565
2021/03/16/13:44:20.347492,642956,1615898660,348170996,mocap,-2.8100625,10.4031894531,1.93788317871,0.166443989973,0.196357041521,0.965853166937,0.0294611653549
2021/03/16/13:44:20.356137,642957,1615898660,358170986,mocap,-2.81003833008,10.4031679687,1.93786242676,0.166347706338,0.196197699966,0.965899465189,0.029548658445
2021/03/16/13:44:20.367446,642958,1615898660,368170977,mocap,-2.81000366211,10.4031962891,1.93787756348,0.166485479885,0.196063016382,0.96590590604,0.0294560345479
2021/03/16/13:44:20.376008,642959,1615898660,378171206,mocap,-2.80995898438,10.4032353516,1.93786486816,0.166420613871,0.195983008249,0.965930365453,0.0295526388901
2021/03/16/13:44:20.387012,642960,1615898660,388171196,mocap,-2.80992724609,10.4032695313,1.9378536377,0.166639020622,0.195968337246,0.965895654654,0.0295537818985
2021/03/16/13:44:20.395898,642961,1615898660,398171186,mocap,-2.80987280273,10.4033076172,1.93788415527,0.16654273786,0.195906580898,0.965923307692,0.0296023408081
2021/03/16/13:44:20.407413,642962,1615898660,408171177,mocap,-2.80982495117,10.4034052734,1.93786779785,0.166679884335,0.195909825224,0.965899249208,0.0295937056076
2021/03/16/13:44:20.416022,642963,1615898660,418171167,mocap,-2.80979614258,10.4035117187,1.93789746094,0.166788491196,0.195960246429,0.965869682446,0.0296130898199
2021/03/16/13:44:20.427342,642964,1615898660,428171158,mocap,-2.80975634766,10.4035878906,1.93788183594,0.16673386145,0.196000403616,0.965866913168,0.0297450982085
2021/03/16/13:44:20.435730,642965,1615898660,438171148,mocap,-2.8097277832,10.4036953125,1.93786242676,0.166805627311,0.196146634783,0.965824146475,0.0297675706073
2021/03/16/13:44:20.447285,642966,1615898660,448171139,mocap,-2.80972387695,10.4038193359,1.93785632324,0.166794910739,0.196188115165,0.965815444795,0.0298364704323
2021/03/16/13:44:20.455943,642967,1615898660,458171129,mocap,-2.80970776367,10.4039462891,1.93788586426,0.166715869833,0.1963046766,0.965806419033,0.0298034916834
2021/03/16/13:44:20.467548,642968,1615898660,468171120,mocap,-2.80968408203,10.4040791016,1.93786901855,0.16672887409,0.196448016398,0.965774033598,0.0298360118239
2021/03/16/13:44:20.476507,642969,1615898660,478171110,mocap,-2.80969873047,10.4042109375,1.93785144043,0.166616887417,0.19666007425,0.965748999328,0.0298744381436
2021/03/16/13:44:20.487076,642970,1615898660,488171101,mocap,-2.80969555664,10.4043886719,1.93787145996,0.166684579028,0.196844878329,0.96570102738,0.0298306659974
2021/03/16/13:44:20.495906,642971,1615898660,498171091,mocap,-2.80971508789,10.4045820312,1.93788781738,0.166514512567,0.197086306719,0.965681878054,0.0298062747263
2021/03/16/13:44:20.508262,642972,1615898660,508171082,mocap,-2.80970288086,10.4047460937,1.9378795166,0.166478688457,0.197228578613,0.965659510974,0.029789993346
2021/03/16/13:44:20.516126,642973,1615898660,518171072,mocap,-2.80970654297,10.4049082031,1.93788464355,0.166490516949,0.197416771526,0.965618471167,0.0298077212477
2021/03/16/13:44:20.526060,642974,1615898660,528171062,mocap,-2.80969799805,10.4051142578,1.93790942383,0.166221950395,0.197575765905,0.965631248553,0.029839018595
2021/03/16/13:44:20.538546,642975,1615898660,538171053,mocap,-2.80975219727,10.4052636719,1.93791442871,0.166266529923,0.1977330761,0.965589945197,0.0298851324523
2021/03/16/13:44:20.546321,642976,1615898660,548171043,mocap,-2.80973779297,10.4054052734,1.93791430664,0.166080783626,0.197886470537,0.965590554768,0.0298830102289
2021/03/16/13:44:20.557797,642977,1615898660,558171034,mocap,-2.80977636719,10.4055830078,1.93792004395,0.165945736117,0.198053903087,0.965577043805,0.0299605471567
2021/03/16/13:44:20.566387,642978,1615898660,568171024,mocap,-2.80977197266,10.40578125,1.93795678711,0.165696211499,0.198121047903,0.965605631884,0.0299761210629
2021/03/16/13:44:20.577821,642979,1615898660,578171015,mocap,-2.80977026367,10.4059326172,1.93796118164,0.165827212185,0.198277016561,0.965550553745,0.0299948605045
2021/03/16/13:44:20.586008,642980,1615898660,588171005,mocap,-2.80976171875,10.4061103516,1.93797827148,0.165689311667,0.198687458759,0.965483511278,0.030198555438
2021/03/16/13:44:20.597806,642981,1615898660,598170996,mocap,-2.80975683594,10.4063007812,1.93800463867,0.165758477805,0.198889833447,0.965429128453,0.0302248379425
2021/03/16/13:44:20.606198,642982,1615898660,608170986,mocap,-2.80976171875,10.4064804688,1.93801538086,0.165951855395,0.199178472413,0.965333435953,0.0303195961756
2021/03/16/13:44:20.617981,642983,1615898660,618170977,mocap,-2.80973364258,10.4066396484,1.93800134277,0.165928736035,0.199436998946,0.965284872181,0.0302927457133
2021/03/16/13:44:20.626019,642984,1615898660,628171206,mocap,-2.80970288086,10.4067949219,1.93801257324,0.165569215853,0.199455150869,0.965339494675,0.0303994780884
2021/03/16/13:44:20.637722,642985,1615898660,638171196,mocap,-2.80968334961,10.4069775391,1.93803747559,0.166048136338,0.19975020022,0.96519300958,0.0305013371167
2021/03/16/13:44:20.645929,642986,1615898660,648171186,mocap,-2.80965283203,10.4071630859,1.93804138184,0.16593838514,0.199834743261,0.965190801868,0.030614443475
2021/03/16/13:44:20.657550,642987,1615898660,658171177,mocap,-2.80962524414,10.4072998047,1.93804003906,0.165963162919,0.199999131643,0.965152065731,0.0306281137487
2021/03/16/13:44:20.665922,642988,1615898660,668171167,mocap,-2.80957202148,10.4074609375,1.93806481934,0.166067083682,0.200056146102,0.965121873932,0.0306435984408
2021/03/16/13:44:20.676420,642989,1615898660,678171158,mocap,-2.80954101562,10.4076240234,1.93810131836,0.166103628049,0.200354720121,0.965049351087,0.0307786772103
2021/03/16/13:44:20.686255,642990,1615898660,688171148,mocap,-2.80947265625,10.4077675781,1.93809924316,0.166155624623,0.200520229833,0.965005992268,0.030779570225
2021/03/16/13:44:20.697427,642991,1615898660,698171139,mocap,-2.80942089844,10.4079013672,1.93809387207,0.166206591004,0.20073717932,0.96494681082,0.0309452103998
2021/03/16/13:44:20.705871,642992,1615898660,708171129,mocap,-2.80937768555,10.4080351562,1.93810009766,0.16626960368,0.200832722707,0.964917461962,0.0309020014719
2021/03/16/13:44:20.717481,642993,1615898660,718171120,mocap,-2.80932397461,10.40815625,1.93808190918,0.166343241587,0.201014239715,0.964864529838,0.0309782839564
2021/03/16/13:44:20.726026,642994,1615898660,728171110,mocap,-2.80930517578,10.4082539062,1.9380904541,0.16645607062,0.201127509188,0.964820683933,0.0310023295104
2021/03/16/13:44:20.737602,642995,1615898660,738171101,mocap,-2.80927026367,10.4083583984,1.93810339355,0.166529180731,0.201271153631,0.964778025315,0.0310049966176
2021/03/16/13:44:20.745924,642996,1615898660,748171091,mocap,-2.80922216797,10.4084697266,1.93809912109,0.166453622859,0.201335431628,0.964774310745,0.03110895524
2021/03/16/13:44:20.757517,642997,1615898660,758171082,mocap,-2.80919750977,10.4085458984,1.93808679199,0.166494419746,0.201301735522,0.964771546044,0.0311941410917
2021/03/16/13:44:20.765817,642998,1615898660,768171072,mocap,-2.80915820312,10.4086259766,1.93808642578,0.166491342216,0.201315926914,0.964769375981,0.0311864463691
2021/03/16/13:44:20.777288,642999,1615898660,778171062,mocap,-2.8090925293,10.4086962891,1.93805603027,0.166625428127,0.201240702303,0.964760000633,0.0312456829096
2021/03/16/13:44:20.786131,643000,1615898660,788171053,mocap,-2.8090612793,10.4087822266,1.93805725098,0.166742059723,0.201254105148,0.964734067358,0.0313377912981
2021/03/16/13:44:20.797294,643001,1615898660,798171043,mocap,-2.809015625,10.4088486328,1.93802526855,0.166640346771,0.201141916929,0.964773021067,0.0313995165614
2021/03/16/13:44:20.805999,643002,1615898660,808171034,mocap,-2.80899047852,10.4088798828,1.93801037598,0.166737957241,0.201160966789,0.964748733104,0.0315054309252
2021/03/16/13:44:20.817165,643003,1615898660,818171024,mocap,-2.808953125,10.4089746094,1.93800256348,0.166811854826,0.201151177149,0.964737310986,0.0315265508143
2021/03/16/13:44:20.825909,643004,1615898660,828171015,mocap,-2.80892358398,10.4090625,1.93800622559,0.166719911626,0.201046756198,0.964772403257,0.0316050500996
2021/03/16/13:44:20.836984,643005,1615898660,838171005,mocap,-2.80888061523,10.4091142578,1.93797094727,0.16711914875,0.20109405773,0.964693891803,0.0315922953437
2021/03/16/13:44:20.845801,643006,1615898660,848170996,mocap,-2.80884033203,10.4091484375,1.93795410156,0.166998658551,0.201203903569,0.964687643666,0.0317204518989
2021/03/16/13:44:20.857156,643007,1615898660,858170986,mocap,-2.80877416992,10.4092470703,1.93797180176,0.16712594973,0.20113871568,0.964674027376,0.0318771033427
2021/03/16/13:44:20.865809,643008,1615898660,868170977,mocap,-2.8087421875,10.4093330078,1.93796740723,0.167232512693,0.201230016698,0.964632621245,0.0319951307918
2021/03/16/13:44:20.877141,643009,1615898660,878171206,mocap,-2.80867553711,10.4093271484,1.93793371582,0.16739365023,0.201223283548,0.964608692772,0.0319158447077
2021/03/16/13:44:20.888275,643010,1615898660,888171196,mocap,-2.80866113281,10.409390625,1.93796020508,0.167562337683,0.201357515897,0.964543616375,0.032149942741
2021/03/16/13:44:20.895965,643011,1615898660,898171186,mocap,-2.80863330078,10.4094326172,1.93795776367,0.167733953866,0.201301945587,0.964525927194,0.0321338435985
2021/03/16/13:44:20.906123,643012,1615898660,908171177,mocap,-2.80860864258,10.4094355469,1.93795837402,0.167497430045,0.201145211689,0.964594720062,0.032283627619
2021/03/16/13:44:20.917866,643013,1615898660,918171167,mocap,-2.80857519531,10.4094638672,1.93796032715,0.167434465367,0.201156360133,0.964599115038,0.032409150776
2021/03/16/13:44:20.928139,643014,1615898660,928171158,mocap,-2.80853320313,10.4094765625,1.9379387207,0.167431368136,0.201248357166,0.964574328347,0.0325914527081
2021/03/16/13:44:20.935872,643015,1615898660,938171148,mocap,-2.80853100586,10.4094892578,1.93798181152,0.167391338748,0.201131591665,0.964603363238,0.0326583988201
2021/03/16/13:44:20.945757,643016,1615898660,948171139,mocap,-2.80849609375,10.4095087891,1.93796936035,0.167556536719,0.20117974265,0.964566071124,0.0326160758708
2021/03/16/13:44:20.956122,643017,1615898660,958171129,mocap,-2.80848095703,10.4095019531,1.93797412109,0.167693659861,0.201169367878,0.964542558123,0.0326705553109
2021/03/16/13:44:20.965949,643018,1615898660,968171120,mocap,-2.80843017578,10.4094970703,1.9379786377,0.167643239223,0.201325395961,0.964510354267,0.0329182644955
2021/03/16/13:44:20.977018,643019,1615898660,978171110,mocap,-2.8084284668,10.4095371094,1.93800439453,0.167587496118,0.201324856364,0.964518009443,0.0329809231186
2021/03/16/13:44:20.986006,643020,1615898660,988171101,mocap,-2.80839306641,10.4095283203,1.9379979248,0.167423963333,0.201486908454,0.964502977123,0.0332601970875
2021/03/16/13:44:20.997974,643021,1615898660,998171091,mocap,-2.80835864258,10.4095078125,1.93798242187,0.167302658736,0.201465811076,0.964526058512,0.0333290867937
2021/03/16/13:44:21.005925,643022,1615898661,8171082,mocap,-2.80833789062,10.4095166016,1.93800231934,0.167440834173,0.201713650224,0.964443084986,0.0335365942176
2021/03/16/13:44:21.016219,643023,1615898661,18171072,mocap,-2.80830419922,10.4095048828,1.93799707031,0.167280753656,0.201759351099,0.964454873672,0.0337211543845
2021/03/16/13:44:21.026751,643024,1615898661,28171062,mocap,-2.80826171875,10.4094765625,1.93798242187,0.167516222927,0.201971778952,0.964367219877,0.0337873453379
2021/03/16/13:44:21.036019,643025,1615898661,38171053,mocap,-2.80822998047,10.4094414063,1.93799072266,0.167342458552,0.202179387675,0.964347951353,0.0339562869605
2021/03/16/13:44:21.046617,643026,1615898661,48171043,mocap,-2.80817993164,10.4094228516,1.93797790527,0.167324763683,0.202328305168,0.964315370136,0.034081540856
2021/03/16/13:44:21.056366,643027,1615898661,58171034,mocap,-2.80811352539,10.4093691406,1.93796289062,0.167269401773,0.202568116705,0.964267504579,0.0342824836401
2021/03/16/13:44:21.066548,643028,1615898661,68171024,mocap,-2.80807617187,10.4093046875,1.93794482422,0.167307268433,0.202787547602,0.964212829085,0.0343381534167
2021/03/16/13:44:21.076780,643029,1615898661,78171015,mocap,-2.808,10.4092177734,1.93789245605,0.167200792764,0.203058728994,0.964168513078,0.0344981029401
2021/03/16/13:44:21.086358,643030,1615898661,88171005,mocap,-2.80793481445,10.4091542969,1.9378848877,0.167238423335,0.203385478906,0.96408637433,0.034686032082
2021/03/16/13:44:21.097346,643031,1615898661,98170996,mocap,-2.80786889648,10.4090898437,1.9379161377,0.167077552026,0.203596934378,0.964063290143,0.0348617985849
2021/03/16/13:44:21.106147,643032,1615898661,108170986,mocap,-2.80777001953,10.4089462891,1.93783666992,0.167162447744,0.203865717351,0.963986359469,0.0350110529532
2021/03/16/13:44:21.117611,643033,1615898661,118170977,mocap,-2.80770092773,10.4088017578,1.93777856445,0.16691560161,0.204114585895,0.963970020378,0.0351883647598
2021/03/16/13:44:21.125876,643034,1615898661,128171206,mocap,-2.80760668945,10.4086894531,1.93775305176,0.166914108558,0.204510299929,0.963876602452,0.035455697736
2021/03/16/13:44:21.137509,643035,1615898661,138171196,mocap,-2.80751464844,10.408546875,1.93773730469,0.167070988328,0.204840464948,0.963779588485,0.03544820131
2021/03/16/13:44:21.146022,643036,1615898661,148171186,mocap,-2.80739111328,10.4084111328,1.93773132324,0.167076162796,0.205220754852,0.963694710648,0.0355317731463
2021/03/16/13:44:21.157371,643037,1615898661,158171177,mocap,-2.80726586914,10.4082412109,1.93767333984,0.16733918685,0.205725911577,0.963539508439,0.0355818726409
2021/03/16/13:44:21.165892,643038,1615898661,168171167,mocap,-2.80712207031,10.4080810547,1.93764013672,0.167501505282,0.20635662257,0.963369339491,0.0357730264629
2021/03/16/13:44:21.176471,643039,1615898661,178171158,mocap,-2.8069699707,10.4078623047,1.93762438965,0.167468117935,0.206854486428,0.963261809389,0.0359491132334
2021/03/16/13:44:21.185728,643040,1615898661,188171148,mocap,-2.80682299805,10.4076591797,1.93760339355,0.167665496661,0.207503359587,0.963083151243,0.0360761197895
2021/03/16/13:44:21.197047,643041,1615898661,198171139,mocap,-2.80667529297,10.4074267578,1.93756616211,0.167669906077,0.20796416367,0.962978150141,0.0362049278515
2021/03/16/13:44:21.207135,643042,1615898661,208171129,mocap,-2.80654150391,10.407171875,1.93756738281,0.167612700213,0.20854595005,0.962854388563,0.0364143578306
2021/03/16/13:44:21.215839,643043,1615898661,218171120,mocap,-2.80637426758,10.4068935547,1.93751696777,0.167609038269,0.208804961826,0.962801056695,0.0363570811465
2021/03/16/13:44:21.227105,643044,1615898661,228171110,mocap,-2.80621826172,10.4065634766,1.93747583008,0.16755282486,0.20927044087,0.962702169798,0.036557808004
2021/03/16/13:44:21.235888,643045,1615898661,238171101,mocap,-2.8060402832,10.4062099609,1.93744616699,0.167332713677,0.209650785949,0.962652877334,0.0366845445378
2021/03/16/13:44:21.247072,643046,1615898661,248171091,mocap,-2.80584912109,10.4058525391,1.93741223145,0.167403825991,0.210126765223,0.962532394657,0.0367979859756
2021/03/16/13:44:21.256221,643047,1615898661,258171082,mocap,-2.80563964844,10.4054960937,1.93738623047,0.167421711324,0.210522723057,0.962438914602,0.0368983782406
2021/03/16/13:44:21.266018,643048,1615898661,268171072,mocap,-2.80541943359,10.4050498047,1.93734399414,0.16735878014,0.211012922476,0.962337466549,0.0370295612644
2021/03/16/13:44:21.277231,643049,1615898661,278171062,mocap,-2.80520092773,10.4045927734,1.93728625488,0.16711616068,0.211296282209,0.962309485939,0.0372361178644
2021/03/16/13:44:21.285964,643050,1615898661,288171053,mocap,-2.80496435547,10.4041435547,1.93724975586,0.167213929403,0.211870911223,0.962159697641,0.0374023601672
2021/03/16/13:44:21.295827,643051,1615898661,298171043,mocap,-2.80470068359,10.4036220703,1.93718261719,0.167210920984,0.212288367822,0.962060133014,0.0376091402741
2021/03/16/13:44:21.307194,643052,1615898661,308171034,mocap,-2.80445361328,10.4031220703,1.93714672852,0.167270578676,0.212582656116,0.961978116299,0.0377792191319
2021/03/16/13:44:21.316990,643053,1615898661,318171024,mocap,-2.80415625,10.402609375,1.9370826416,0.167423244238,0.213167038992,0.961817361841,0.037902954681
2021/03/16/13:44:21.326828,643054,1615898661,328171015,mocap,-2.80383349609,10.4021044922,1.93705212402,0.167402929519,0.213789811431,0.961685331618,0.0378351648024
2021/03/16/13:44:21.336912,643055,1615898661,338171005,mocap,-2.80351171875,10.4015517578,1.93700646973,0.167553155448,0.214381377768,0.961519049852,0.0380484677819
2021/03/16/13:44:21.347531,643056,1615898661,348170996,mocap,-2.80315991211,10.4009326172,1.93687316895,0.167675424052,0.215243511863,0.961297138494,0.038248963028
2021/03/16/13:44:21.356506,643057,1615898661,358170986,mocap,-2.80280029297,10.4003554687,1.93684924316,0.167694012109,0.215807718793,0.961161881899,0.0383872103884
2021/03/16/13:44:21.367970,643058,1615898661,368170977,mocap,-2.8023996582,10.3997207031,1.93673144531,0.168050846681,0.216422010618,0.960958984569,0.0384482610012
2021/03/16/13:44:21.375730,643059,1615898661,378171206,mocap,-2.80199316406,10.3990605469,1.93667102051,0.168031505292,0.217088798829,0.960805372133,0.0386120643103
2021/03/16/13:44:21.388056,643060,1615898661,388171196,mocap,-2.80159667969,10.3983486328,1.93659667969,0.167615807847,0.217770482966,0.960713988571,0.038853499732
2021/03/16/13:44:21.395771,643061,1615898661,398171186,mocap,-2.80117797852,10.3976474609,1.93649707031,0.167719750254,0.218482777371,0.960528930397,0.0389811902204
2021/03/16/13:44:21.407713,643062,1615898661,408171177,mocap,-2.80076342773,10.3969404297,1.9364519043,0.167561913899,0.219087442755,0.960413867666,0.039101310883
2021/03/16/13:44:21.415944,643063,1615898661,418171167,mocap,-2.8003190918,10.3961757812,1.93633947754,0.167700434629,0.219631494484,0.960263969891,0.0391367445814
2021/03/16/13:44:21.426904,643064,1615898661,428171158,mocap,-2.79986328125,10.3954326172,1.9362668457,0.167823150877,0.220351451494,0.960081983446,0.0390282432266
2021/03/16/13:44:21.435902,643065,1615898661,438171148,mocap,-2.79940600586,10.3947412109,1.93629150391,0.168136826499,0.22121388675,0.959829567878,0.0390080580112
2021/03/16/13:44:21.447582,643066,1615898661,448171139,mocap,-2.79889599609,10.3939707031,1.93616809082,0.167877841998,0.221900333968,0.959714087475,0.0390657808801
2021/03/16/13:44:21.455701,643067,1615898661,458171129,mocap,-2.798375,10.39315625,1.93607409668,0.1677561657,0.222434458835,0.959615410433,0.0389747683716
2021/03/16/13:44:21.467491,643068,1615898661,468171120,mocap,-2.79785913086,10.3923085938,1.93594750977,0.167576570748,0.223282669316,0.959442518698,0.0391533177236
2021/03/16/13:44:21.475850,643069,1615898661,478171110,mocap,-2.79730761719,10.3914746094,1.93582348633,0.167343046855,0.223675936931,0.959390464931,0.0391831675587
2021/03/16/13:44:21.487177,643070,1615898661,488171101,mocap,-2.79681396484,10.3907236328,1.9360065918,0.168527996402,0.224346472796,0.959046705594,0.0386832789969
2021/03/16/13:44:21.495713,643071,1615898661,498171091,mocap,-2.79622436523,10.3896835938,1.93561169434,0.166999211049,0.224543885534,0.95925683465,0.0389566652427
2021/03/16/13:44:21.507097,643072,1615898661,508171082,mocap,-2.79558837891,10.3887841797,1.93555090332,0.166767482151,0.224925548482,0.95920831276,0.0389424232262
2021/03/16/13:44:21.516094,643073,1615898661,518171072,mocap,-2.7949675293,10.3878271484,1.93543640137,0.16677347129,0.225467661817,0.959078440355,0.0389806617567
2021/03/16/13:44:21.528194,643074,1615898661,528171062,mocap,-2.79441259766,10.3869472656,1.93562268066,0.167761016182,0.225899508103,0.958814765242,0.0387286869179
2021/03/16/13:44:21.536103,643075,1615898661,538171053,mocap,-2.79375805664,10.3859169922,1.93549853516,0.167761667551,0.22600374113,0.958795587172,0.0385921987166
2021/03/16/13:44:21.547684,643076,1615898661,548171043,mocap,-2.79306030273,10.3847714844,1.93511120605,0.166251965741,0.225939188159,0.959063291702,0.0388505171764
2021/03/16/13:44:21.556151,643077,1615898661,558171034,mocap,-2.79237744141,10.3838486328,1.93526025391,0.166844793298,0.226262847746,0.958889772057,0.0387084308081
2021/03/16/13:44:21.567758,643078,1615898661,568171024,mocap,-2.79158935547,10.3826503906,1.93491235352,0.165491932639,0.225943922983,0.959192770013,0.0388714415942
2021/03/16/13:44:21.576451,643079,1615898661,578171015,mocap,-2.7908684082,10.3815166016,1.93478820801,0.165400949302,0.225879958577,0.959223637771,0.0388687693995
2021/03/16/13:44:21.587529,643080,1615898661,588171005,mocap,-2.79007788086,10.3803720703,1.93462658691,0.165029722671,0.225978507345,0.959249168556,0.0392419668775
2021/03/16/13:44:21.596159,643081,1615898661,598170996,mocap,-2.78937084961,10.3793583984,1.93482141113,0.166179209843,0.226111619318,0.959039636018,0.0387423534014
2021/03/16/13:44:21.607669,643082,1615898661,608170986,mocap,-2.78844873047,10.3780361328,1.9343963623,0.164440289314,0.225673997323,0.959429565705,0.0390581655664
2021/03/16/13:44:21.616228,643083,1615898661,618170977,mocap,-2.78760131836,10.3768105469,1.93425390625,0.164207123287,0.225327828399,0.959545328819,0.0391937381689
2021/03/16/13:44:21.627664,643084,1615898661,628171206,mocap,-2.78670556641,10.3756347656,1.93416699219,0.163584087528,0.225275325218,0.95965115583,0.039508673115
2021/03/16/13:44:21.635710,643085,1615898661,638171196,mocap,-2.78585375977,10.3743876953,1.93407629395,0.163588679704,0.225158831834,0.959684927952,0.0393329356856
2021/03/16/13:44:21.647729,643086,1615898661,648171186,mocap,-2.78487524414,10.3730683594,1.93393139648,0.163197403665,0.224709302416,0.959852978989,0.0394283034788
2021/03/16/13:44:21.655926,643087,1615898661,658171177,mocap,-2.78390576172,10.3717705078,1.93380053711,0.162933684885,0.224823537839,0.95986398574,0.0395994348027
2021/03/16/13:44:21.666243,643088,1615898661,668171167,mocap,-2.78291503906,10.3704365234,1.93368432617,0.162777950653,0.224179718387,0.960037430192,0.0396853817002
2021/03/16/13:44:21.677335,643089,1615898661,678171158,mocap,-2.78187353516,10.3690546875,1.93350109863,0.162004988987,0.223585062616,0.960305975592,0.039705608753
2021/03/16/13:44:21.685666,643090,1615898661,688171148,mocap,-2.78081958008,10.3676494141,1.9334041748,0.161706807596,0.223359081439,0.960400733829,0.039900695112
2021/03/16/13:44:21.697509,643091,1615898661,698171139,mocap,-2.7797590332,10.3662363281,1.93327612305,0.161782406014,0.222767209899,0.960520064394,0.0400301752273
2021/03/16/13:44:21.705956,643092,1615898661,708171129,mocap,-2.77862451172,10.3647978516,1.93311682129,0.16135324254,0.222038448807,0.960773810735,0.0397207231199
2021/03/16/13:44:21.717647,643093,1615898661,718171120,mocap,-2.77744873047,10.3632636719,1.93294165039,0.160687730302,0.221503187959,0.960995152923,0.0400513694256
2021/03/16/13:44:21.725942,643094,1615898661,728171110,mocap,-2.77632446289,10.3617285156,1.93280810547,0.160959241373,0.220891613972,0.961088091208,0.0401085470801
2021/03/16/13:44:21.736487,643095,1615898661,738171101,mocap,-2.77512011719,10.3602177734,1.93264550781,0.160551258251,0.22014051426,0.961336448475,0.0399211095965
2021/03/16/13:44:21.746358,643096,1615898661,748171091,mocap,-2.77388256836,10.3586728516,1.93237963867,0.160398207868,0.219298831787,0.961549602728,0.0400350729495
2021/03/16/13:44:21.756119,643097,1615898661,758171082,mocap,-2.77269311523,10.3570849609,1.9320057373,0.160668257414,0.218471275326,0.961687617104,0.0401613395075
2021/03/16/13:44:21.766494,643098,1615898661,768171072,mocap,-2.77149536133,10.3555429687,1.9316907959,0.160378484318,0.217978009254,0.961845550421,0.0402177966485
2021/03/16/13:44:21.776109,643099,1615898661,778171062,mocap,-2.77027124023,10.3540507813,1.93133154297,0.160315730529,0.217163090779,0.962034018536,0.0403682689316
2021/03/16/13:44:21.786355,643100,1615898661,788171053,mocap,-2.76909863281,10.3524726563,1.93079528809,0.160439876599,0.21670718394,0.962099775792,0.0407562697536
2021/03/16/13:44:21.797029,643101,1615898661,798171043,mocap,-2.76794921875,10.3509912109,1.93030444336,0.160292388749,0.216257742687,0.962204880491,0.0412395711015
2021/03/16/13:44:21.806181,643102,1615898661,808171034,mocap,-2.76672412109,10.3494902344,1.92964245605,0.160279775147,0.216065603439,0.962233839762,0.0416182762695
2021/03/16/13:44:21.816398,643103,1615898661,818171024,mocap,-2.76562329102,10.3480683594,1.92902819824,0.159905124647,0.215975077055,0.962288945145,0.0422505644974
2021/03/16/13:44:21.827394,643104,1615898661,828171015,mocap,-2.76459960937,10.3466074219,1.92840905762,0.160303591458,0.215972872711,0.962197826376,0.0428230479596
2021/03/16/13:44:21.836038,643105,1615898661,838171005,mocap,-2.76344897461,10.3451445312,1.92775097656,0.159686936164,0.216137119842,0.962223316962,0.0437162968984
2021/03/16/13:44:21.846047,643106,1615898661,848170996,mocap,-2.76238598633,10.3437089844,1.92710058594,0.15992940583,0.216314497415,0.962114102239,0.0443518117028
2021/03/16/13:44:21.856995,643107,1615898661,858170986,mocap,-2.76141943359,10.3422363281,1.92653747559,0.159619685736,0.21704894353,0.961955167405,0.0453164002983
2021/03/16/13:44:21.865846,643108,1615898661,868170977,mocap,-2.76041479492,10.3407421875,1.92609240723,0.159577588566,0.21729984789,0.961853861982,0.0463996023204
2021/03/16/13:44:21.877127,643109,1615898661,878171206,mocap,-2.75941796875,10.3391972656,1.92568786621,0.160097106975,0.217502999232,0.961692575429,0.0469973645574
2021/03/16/13:44:21.886250,643110,1615898661,888171196,mocap,-2.75843359375,10.3376103516,1.92527429199,0.160262446158,0.217896135895,0.961548533433,0.0475567641106
2021/03/16/13:44:21.895726,643111,1615898661,898171186,mocap,-2.75749658203,10.3359707031,1.92495825195,0.160501890612,0.218220175122,0.961399758037,0.048265959087
2021/03/16/13:44:21.905969,643112,1615898661,908171177,mocap,-2.75652832031,10.33425,1.92467993164,0.160967726467,0.218497807495,0.961217436295,0.0490829364894
2021/03/16/13:44:21.918232,643113,1615898661,918171167,mocap,-2.75560131836,10.3324941406,1.92440258789,0.161606243958,0.21852326491,0.961092602998,0.0493155305591
2021/03/16/13:44:21.926014,643114,1615898661,928171158,mocap,-2.75447314453,10.3306103516,1.92382629395,0.160388155561,0.219708421782,0.960916736037,0.0514089054872
2021/03/16/13:44:21.936954,643115,1615898661,938171148,mocap,-2.75363452148,10.3287001953,1.92364099121,0.161078362341,0.219651321804,0.960790258462,0.0518569345882
2021/03/16/13:44:21.945933,643116,1615898661,948171139,mocap,-2.75305444336,10.3268984375,1.92398181152,0.163452574815,0.218284027911,0.960794507995,0.0500924369351
2021/03/16/13:44:21.958051,643117,1615898661,958171129,mocap,-2.75205981445,10.3248388672,1.92355090332,0.162463001016,0.219246441102,0.960643909544,0.0519620771752
2021/03/16/13:44:21.966141,643118,1615898661,968171120,mocap,-2.75137890625,10.3228212891,1.92355834961,0.163206432678,0.218925451185,0.960588639985,0.0520073957763
2021/03/16/13:44:21.977751,643119,1615898661,978171110,mocap,-2.75075708008,10.3207001953,1.92351831055,0.163811985213,0.21861272978,0.960556179465,0.0520185813457
2021/03/16/13:44:21.986035,643120,1615898661,988171101,mocap,-2.75016088867,10.3184541016,1.92340625,0.162416138304,0.219003289776,0.960663601367,0.0527637340433
2021/03/16/13:44:21.997862,643121,1615898661,998171091,mocap,-2.74965136719,10.3163310547,1.9234967041,0.162989559178,0.218644297553,0.960649485962,0.0527413588313
2021/03/16/13:44:22.005628,643122,1615898662,8171082,mocap,-2.74926708984,10.314296875,1.9238269043,0.164746208629,0.21816041246,0.960496188607,0.0520748383597
2021/03/16/13:44:22.017746,643123,1615898662,18171072,mocap,-2.74890136719,10.3120439453,1.92390319824,0.164815343469,0.217944197621,0.960537842859,0.0519932409477
2021/03/16/13:44:22.025959,643124,1615898662,28171062,mocap,-2.74861328125,10.3097626953,1.9239453125,0.165189259851,0.217930265058,0.960478362828,0.0519636358686
2021/03/16/13:44:22.037740,643125,1615898662,38171053,mocap,-2.74831713867,10.3073642578,1.92381518555,0.163171873905,0.218752079043,0.960595333619,0.0527169952909
2021/03/16/13:44:22.045761,643126,1615898662,48171043,mocap,-2.7481730957,10.3050595703,1.92392102051,0.162728078391,0.218801547295,0.960652340082,0.052844392406
2021/03/16/13:44:22.057545,643127,1615898662,58171034,mocap,-2.74811157227,10.3027998047,1.92420947266,0.164508539728,0.218584482035,0.960445565012,0.0519815307567
2021/03/16/13:44:22.065828,643128,1615898662,68171024,mocap,-2.74799682617,10.3002646484,1.92403466797,0.162479222903,0.219635331225,0.960509755525,0.052743015433
2021/03/16/13:44:22.076041,643129,1615898662,78171015,mocap,-2.74795898437,10.2978085938,1.92401428223,0.161653261142,0.219988864129,0.960561554724,0.0528642652684
2021/03/16/13:44:22.086355,643130,1615898662,88171005,mocap,-2.74805761719,10.2954082031,1.92426733398,0.163008125875,0.220100977348,0.960350795681,0.0520601488498
2021/03/16/13:44:22.096156,643131,1615898662,98170996,mocap,-2.74838110352,10.2929023438,1.92463208008,0.164512993255,0.219562142011,0.960321197743,0.0501112590001
2021/03/16/13:44:22.106357,643132,1615898662,108170986,mocap,-2.74824707031,10.2901806641,1.9241932373,0.161827802414,0.221290059676,0.960281233261,0.0519848778173
2021/03/16/13:44:22.115827,643133,1615898662,118170977,mocap,-2.74841015625,10.2874658203,1.92422521973,0.161180615359,0.221851275003,0.960256172177,0.0520662686006
2021/03/16/13:44:22.126668,643134,1615898662,128171206,mocap,-2.74886791992,10.2847460937,1.9245604248,0.16314644426,0.221522831066,0.960111782761,0.0499623504852
2021/03/16/13:44:22.137637,643135,1615898662,138171196,mocap,-2.74881494141,10.2817431641,1.92407421875,0.160379637411,0.223461595124,0.960018028199,0.0520449098101
2021/03/16/13:44:22.145973,643136,1615898662,148171186,mocap,-2.74933129883,10.2788779297,1.92442077637,0.161886005663,0.223083155272,0.959955357082,0.0501252165129
2021/03/16/13:44:22.156445,643137,1615898662,158171177,mocap,-2.74941113281,10.2757285156,1.92394396973,0.158888968058,0.224587380998,0.95999307666,0.0522311687433
2021/03/16/13:44:22.165880,643138,1615898662,168171167,mocap,-2.74995874023,10.2726132813,1.92417248535,0.160400539789,0.224279825419,0.959920655314,0.0502251626732
2021/03/16/13:44:22.176558,643139,1615898662,178171158,mocap,-2.75006225586,10.2692509766,1.92361743164,0.158246156709,0.22587812681,0.959806443411,0.0520462808281
2021/03/16/13:44:22.187198,643140,1615898662,188171148,mocap,-2.75068725586,10.2660488281,1.92393896484,0.159689882837,0.22539465924,0.959784552667,0.0500999695379
2021/03/16/13:44:22.196193,643141,1615898662,198171139,mocap,-2.75105102539,10.2626210938,1.9238067627,0.159120199941,0.225992602763,0.95972586438,0.0503425533679
2021/03/16/13:44:22.207223,643142,1615898662,208171129,mocap,-2.75139501953,10.2590292969,1.92352978516,0.158708939925,0.226622962082,0.959634665287,0.0505451526337
2021/03/16/13:44:22.217224,643143,1615898662,218171120,mocap,-2.75184228516,10.2553886719,1.92332995605,0.158462430746,0.226952950633,0.959600736111,0.0504821733218
2021/03/16/13:44:22.225898,643144,1615898662,228171110,mocap,-2.75226611328,10.2516826172,1.92312097168,0.158215561589,0.227402292835,0.95954077093,0.0503740691774
2021/03/16/13:44:22.237423,643145,1615898662,238171101,mocap,-2.75267480469,10.2478232422,1.92281066895,0.15820420393,0.227952318377,0.959414073136,0.0503368783885
2021/03/16/13:44:22.245786,643146,1615898662,248171091,mocap,-2.75313598633,10.2438925781,1.92253613281,0.157866638807,0.228319252129,0.959371709973,0.0505407247191
2021/03/16/13:44:22.256209,643147,1615898662,258171082,mocap,-2.75360742187,10.2399169922,1.92221594238,0.157334201577,0.228803800398,0.95933690943,0.0506703015714
2021/03/16/13:44:22.265747,643148,1615898662,268171072,mocap,-2.7541628418,10.2358222656,1.92186645508,0.157470619631,0.22934810086,0.959186820049,0.0506270184458
2021/03/16/13:44:22.276309,643149,1615898662,278171062,mocap,-2.75464770508,10.2315771484,1.92143603516,0.15746782736,0.229854574031,0.959068271362,0.0505845723359
2021/03/16/13:44:22.286072,643150,1615898662,288171053,mocap,-2.75524609375,10.22740625,1.92128759766,0.159071309766,0.230592416588,0.958638410453,0.0503572325442
2021/03/16/13:44:22.295719,643151,1615898662,298171043,mocap,-2.75579370117,10.2229267578,1.92065698242,0.157254420358,0.230967174686,0.958821548965,0.0508571603548
2021/03/16/13:44:22.307011,643152,1615898662,308171034,mocap,-2.75641235352,10.2184482422,1.92021765137,0.157558100811,0.231465328878,0.958658741906,0.0507214147382
2021/03/16/13:44:22.316230,643153,1615898662,318171024,mocap,-2.75706640625,10.2139707031,1.92001611328,0.158958055774,0.232419066868,0.958213426338,0.0504058052388
2021/03/16/13:44:22.326987,643154,1615898662,328171015,mocap,-2.75777368164,10.2093359375,1.91959399414,0.158880565228,0.233054122137,0.958052110183,0.0507827175083
2021/03/16/13:44:22.336948,643155,1615898662,338171005,mocap,-2.75841748047,10.2043925781,1.9188449707,0.157885293726,0.233517331742,0.958089982455,0.0510438768712
2021/03/16/13:44:22.346820,643156,1615898662,348170996,mocap,-2.75913818359,10.199515625,1.91837036133,0.15763420454,0.233903965758,0.958021647969,0.0513313605862
2021/03/16/13:44:22.355916,643157,1615898662,358170986,mocap,-2.75999487305,10.1945732422,1.91807434082,0.158693267561,0.234673087541,0.957663891389,0.0512334385281
2021/03/16/13:44:22.366985,643158,1615898662,368170977,mocap,-2.76082861328,10.1894970703,1.91763232422,0.158499223988,0.235178977493,0.957558148202,0.0514901349208
2021/03/16/13:44:22.376140,643159,1615898662,378171206,mocap,-2.76164648437,10.1842333984,1.91711120605,0.158473552422,0.235610913682,0.957455249206,0.0515080424289
2021/03/16/13:44:22.387747,643160,1615898662,388171196,mocap,-2.7625612793,10.1788007813,1.91639575195,0.157331568247,0.235557783656,0.957618603208,0.0522103204935
2021/03/16/13:44:22.396296,643161,1615898662,398171186,mocap,-2.76348217773,10.1733876953,1.91614819336,0.158272834493,0.2359872721,0.957371398268,0.0519589598862
2021/03/16/13:44:22.406249,643162,1615898662,408171177,mocap,-2.76447265625,10.1677255859,1.91549755859,0.156953846883,0.236011907612,0.957538820468,0.0527567869012
2021/03/16/13:44:22.417780,643163,1615898662,418171167,mocap,-2.76550854492,10.1621533203,1.91527575684,0.15802457203,0.23641903339,0.957273367014,0.0525545060332
2021/03/16/13:44:22.425897,643164,1615898662,428171158,mocap,-2.76654931641,10.1562353516,1.9146171875,0.156513870877,0.236180832916,0.95754534868,0.0531876470864
2021/03/16/13:44:22.436914,643165,1615898662,438171148,mocap,-2.76769482422,10.1505019531,1.91454992676,0.156866677728,0.236238383365,0.957477971351,0.0531056143124
2021/03/16/13:44:22.445901,643166,1615898662,448171139,mocap,-2.76883496094,10.1445537109,1.91417529297,0.156216862738,0.236348890444,0.957531677511,0.0535591218713
2021/03/16/13:44:22.457496,643167,1615898662,458171129,mocap,-2.76997460938,10.1383476562,1.91351379395,0.155025077553,0.236382117213,0.957699289523,0.0538774588568
2021/03/16/13:44:22.465503,643168,1615898662,468171120,mocap,-2.77121704102,10.1323398437,1.91338232422,0.155713884127,0.236559203532,0.957546733682,0.0538254769898
2021/03/16/13:44:22.477559,643169,1615898662,478171110,mocap,-2.77238427734,10.1259960938,1.91275256348,0.154371320008,0.236669654379,0.957708321673,0.0543298154119
2021/03/16/13:44:22.486161,643170,1615898662,488171101,mocap,-2.77369946289,10.1197539063,1.91253381348,0.155415270529,0.237462628182,0.957349257281,0.0542217012149
2021/03/16/13:44:22.497610,643171,1615898662,498171091,mocap,-2.77494360352,10.1133164063,1.91195068359,0.154048521263,0.237371646799,0.957584555916,0.0543651758216
2021/03/16/13:44:22.505731,643172,1615898662,508171082,mocap,-2.77627709961,10.1068994141,1.9116003418,0.153687488618,0.237699814994,0.957560396854,0.054378708826
2021/03/16/13:44:22.517655,643173,1615898662,518171072,mocap,-2.7776003418,10.100421875,1.91122814941,0.154153412617,0.237826410905,0.957480344695,0.0539139748082
2021/03/16/13:44:22.525580,643174,1615898662,528171062,mocap,-2.77897753906,10.0937880859,1.9107611084,0.154150487332,0.237963621922,0.95746762973,0.0535413739131
2021/03/16/13:44:22.537339,643175,1615898662,538171053,mocap,-2.78036987305,10.0871708984,1.9104675293,0.153998781977,0.238495142758,0.95736818416,0.0533911035018
2021/03/16/13:44:22.545922,643176,1615898662,548171043,mocap,-2.78181713867,10.0804931641,1.91021716309,0.154022948103,0.238596636549,0.957375912009,0.0527250903998
2021/03/16/13:44:22.557127,643177,1615898662,558171034,mocap,-2.78334375,10.0737382812,1.91017810059,0.153761613706,0.239503111506,0.957213956559,0.0523169629187
2021/03/16/13:44:22.565751,643178,1615898662,568171024,mocap,-2.78491601562,10.0671044922,1.91065246582,0.15479814752,0.240378702754,0.956860157212,0.0517132892624
2021/03/16/13:44:22.577073,643179,1615898662,578171015,mocap,-2.78656860352,10.0602832031,1.91108007812,0.1545989563,0.241372809408,0.956679127589,0.0510233794972
2021/03/16/13:44:22.586292,643180,1615898662,588171005,mocap,-2.78820336914,10.0534394531,1.91161816406,0.154399049328,0.241985188751,0.956582217071,0.0505425456667
2021/03/16/13:44:22.595939,643181,1615898662,598170996,mocap,-2.78977685547,10.0463789063,1.91198376465,0.153324269559,0.242228745737,0.956723541305,0.0499696220163
2021/03/16/13:44:22.607313,643182,1615898662,608170986,mocap,-2.79146533203,10.0394257812,1.91294580078,0.154691371048,0.242971522044,0.956381744771,0.0486763150423
2021/03/16/13:44:22.615925,643183,1615898662,618170977,mocap,-2.7931171875,10.032375,1.91393676758,0.154402509395,0.243323708562,0.95638508684,0.0477598476166
2021/03/16/13:44:22.627300,643184,1615898662,628171206,mocap,-2.79487304687,10.0253066406,1.9151730957,0.154702662981,0.243438881452,0.956354174207,0.0468112183794
2021/03/16/13:44:22.635894,643185,1615898662,638171196,mocap,-2.79662060547,10.0181298828,1.91656201172,0.154389244122,0.243453421459,0.956455002732,0.0456971109318
2021/03/16/13:44:22.646982,643186,1615898662,648171186,mocap,-2.79835229492,10.0109570312,1.91801672363,0.154124695962,0.243102554652,0.956630428224,0.0447766790069
2021/03/16/13:44:22.656036,643187,1615898662,658171177,mocap,-2.80010864258,10.0037734375,1.91953735352,0.153952615695,0.242330455049,0.956913228446,0.0434927583771
2021/03/16/13:44:22.667199,643188,1615898662,668171167,mocap,-2.80176513672,9.99649511719,1.92073583984,0.15266303894,0.241163034353,0.95745951354,0.0424931732966
2021/03/16/13:44:22.675895,643189,1615898662,678171158,mocap,-2.80339599609,9.98930761719,1.92196008301,0.152869978541,0.23997567967,0.957798661821,0.0407941922821
2021/03/16/13:44:22.685980,643190,1615898662,688171148,mocap,-2.80498486328,9.98221484375,1.92307104492,0.153186832771,0.238800394634,0.958104018923,0.0393046012356
2021/03/16/13:44:22.696764,643191,1615898662,698171139,mocap,-2.80650219727,9.97524707031,1.92405993652,0.153299884577,0.237772210509,0.958398939389,0.0378813009859
2021/03/16/13:44:22.707224,643192,1615898662,708171129,mocap,-2.80797363281,9.96834863281,1.92477392578,0.153898652557,0.236983476763,0.958547177851,0.0366242831216
2021/03/16/13:44:22.715713,643193,1615898662,718171120,mocap,-2.80934985352,9.96160449219,1.92539770508,0.154204729306,0.236140739396,0.958752279689,0.0353911731247
2021/03/16/13:44:22.727028,643194,1615898662,728171110,mocap,-2.81076147461,9.95494335937,1.92581518555,0.154500989084,0.235977222207,0.958782073707,0.0343675647883
2021/03/16/13:44:22.737965,643195,1615898662,738171101,mocap,-2.81204711914,9.948421875,1.92608886719,0.154494098408,0.236027209069,0.958793924226,0.033718681433
2021/03/16/13:44:22.746012,643196,1615898662,748171091,mocap,-2.81342211914,9.94199511719,1.9263248291,0.154708836451,0.236164341078,0.958745619815,0.033142217683
2021/03/16/13:44:22.756659,643197,1615898662,758171082,mocap,-2.81463793945,9.93562207031,1.92645751953,0.154369278105,0.236783628462,0.958655586518,0.0329104035445
2021/03/16/13:44:22.768082,643198,1615898662,768171072,mocap,-2.81594360352,9.92932324219,1.92651843262,0.154094788248,0.237407046133,0.958562715521,0.0324070020324
2021/03/16/13:44:22.777790,643199,1615898662,778171062,mocap,-2.8171237793,9.92315625,1.92672680664,0.155114999285,0.238451958895,0.958140730508,0.0323471541082
2021/03/16/13:44:22.786063,643200,1615898662,788171053,mocap,-2.8182956543,9.91693359375,1.92674511719,0.154704498095,0.239662446811,0.957909091914,0.0322271429588
2021/03/16/13:44:22.796637,643201,1615898662,798171043,mocap,-2.81938671875,9.91069628906,1.92678796387,0.154756814938,0.240478300125,0.957695656412,0.0322420628525
2021/03/16/13:44:22.807929,643202,1615898662,808171034,mocap,-2.82043798828,9.90440039062,1.92677636719,0.154258347547,0.241481082663,0.957525732788,0.0321823899711
2021/03/16/13:44:22.815867,643203,1615898662,818171024,mocap,-2.82134008789,9.89812597656,1.92690478516,0.153972698184,0.242330421553,0.957355973564,0.0322167783361
2021/03/16/13:44:22.826122,643204,1615898662,828171015,mocap,-2.82225512695,9.89180664062,1.92706066895,0.154324092057,0.242895028757,0.957167152565,0.0318924043852
2021/03/16/13:44:22.836728,643205,1615898662,838171005,mocap,-2.82308276367,9.88539160156,1.92727294922,0.154281878689,0.243638271976,0.957003254384,0.0313409945063
2021/03/16/13:44:22.846576,643206,1615898662,848170996,mocap,-2.8237890625,9.87895800781,1.92755554199,0.154277727961,0.243830083022,0.956962598557,0.0311103438996
2021/03/16/13:44:22.856374,643207,1615898662,858170986,mocap,-2.82455737305,9.87244140625,1.92791931152,0.154523886927,0.243998808885,0.956891287086,0.0307572197613
2021/03/16/13:44:22.866849,643208,1615898662,868170977,mocap,-2.82520996094,9.86588769531,1.92843432617,0.154240481955,0.243940596212,0.956969792475,0.030193984252
2021/03/16/13:44:22.875846,643209,1615898662,878171206,mocap,-2.82578295898,9.85920507812,1.92891638184,0.154312138351,0.243428374469,0.957099686336,0.0298425928214
2021/03/16/13:44:22.886588,643210,1615898662,888171196,mocap,-2.82636279297,9.85251464844,1.92948840332,0.154679317516,0.242825909184,0.957214579247,0.0291570405441
2021/03/16/13:44:22.897413,643211,1615898662,898171186,mocap,-2.8268840332,9.84578417969,1.9301451416,0.154333051672,0.242132694197,0.957461972527,0.0286292902194
2021/03/16/13:44:22.906103,643212,1615898662,908171177,mocap,-2.82730126953,9.83898925781,1.93071618652,0.154419068497,0.24141709665,0.957646627516,0.0280263894712
2021/03/16/13:44:22.917810,643213,1615898662,918171167,mocap,-2.82762890625,9.83215136719,1.93128796387,0.154646584433,0.240504001331,0.957863605312,0.0271950758883
2021/03/16/13:44:22.925711,643214,1615898662,928171158,mocap,-2.82793432617,9.8253203125,1.93183569336,0.155051665014,0.239692362769,0.958030342669,0.0261612430558
2021/03/16/13:44:22.937438,643215,1615898662,938171148,mocap,-2.82816235352,9.81851660156,1.93232543945,0.155618629255,0.238861506348,0.958174649176,0.025087326789
2021/03/16/13:44:22.945981,643216,1615898662,948171139,mocap,-2.82837280273,9.81169335938,1.93278710937,0.15607818992,0.238486592521,0.958215494616,0.0242243231611
2021/03/16/13:44:22.957313,643217,1615898662,958171129,mocap,-2.82842382813,9.80472851562,1.93290246582,0.154830608443,0.238570279738,0.958394881359,0.0243094292707
2021/03/16/13:44:22.965871,643218,1615898662,968171120,mocap,-2.82849462891,9.79791015625,1.93322033691,0.155222657463,0.238523590907,0.958361825658,0.0235590436686
2021/03/16/13:44:22.975989,643219,1615898662,978171110,mocap,-2.82857763672,9.791046875,1.93340612793,0.156260225409,0.238463542703,0.958231348679,0.0225957531828
2021/03/16/13:44:22.986527,643220,1615898662,988171101,mocap,-2.82862109375,9.78417578125,1.93356311035,0.156955661235,0.238614409192,0.958100231818,0.0217265334004
2021/03/16/13:44:22.997364,643221,1615898662,998171091,mocap,-2.82862548828,9.77726953125,1.93358325195,0.157766816819,0.239019784986,0.957888767884,0.0206948204292
2021/03/16/13:44:23.005670,643222,1615898663,8171082,mocap,-2.8286262207,9.77034472656,1.93359887695,0.158204905014,0.239425814388,0.957731232299,0.0199342313361
2021/03/16/13:44:23.015943,643223,1615898663,18171072,mocap,-2.82859765625,9.76332519531,1.93349060059,0.159219344364,0.239697620411,0.957510287227,0.0191912813851
2021/03/16/13:44:23.027349,643224,1615898663,28171062,mocap,-2.82856201172,9.75629785156,1.93329260254,0.160419299121,0.240365963238,0.957155126223,0.0185446538298
2021/03/16/13:44:23.035968,643225,1615898663,38171053,mocap,-2.82855517578,9.74922949219,1.93309265137,0.160682957319,0.240910689713,0.956980715605,0.0181917726768
2021/03/16/13:44:23.047194,643226,1615898663,48171043,mocap,-2.82851416016,9.74204980469,1.93266381836,0.161361522045,0.241449687164,0.956738610193,0.0177691969871
2021/03/16/13:44:23.057288,643227,1615898663,58171034,mocap,-2.82848754883,9.73477246094,1.93210046387,0.162641344783,0.242302385699,0.956314791872,0.017302766005
2021/03/16/13:44:23.066052,643228,1615898663,68171024,mocap,-2.82844360352,9.7274921875,1.93153173828,0.162544327772,0.242773022305,0.956219246937,0.0168924966714
2021/03/16/13:44:23.076218,643229,1615898663,78171015,mocap,-2.82841821289,9.72013183594,1.93081396484,0.162911830888,0.243727857894,0.955918961925,0.0165956052479
2021/03/16/13:44:23.086317,643230,1615898663,88171005,mocap,-2.82834936523,9.712734375,1.93004199219,0.163278806952,0.244012675252,0.95578884524,0.0162948849096
2021/03/16/13:44:23.095898,643231,1615898663,98170996,mocap,-2.82829980469,9.70516601563,1.92909118652,0.163546395193,0.244880979497,0.955525837438,0.0160076824587
2021/03/16/13:44:23.107067,643232,1615898663,108170986,mocap,-2.82821069336,9.69753222656,1.92802526855,0.164166381759,0.24559350045,0.955238765633,0.0158784084163
2021/03/16/13:44:23.116138,643233,1615898663,118170977,mocap,-2.82816015625,9.6898515625,1.92691772461,0.164418826239,0.246281391815,0.955017181512,0.0159409305906
2021/03/16/13:44:23.126972,643234,1615898663,128171206,mocap,-2.82806225586,9.68206152344,1.92568188477,0.1648563202,0.246891017064,0.954785963434,0.0158425839304
2021/03/16/13:44:23.136037,643235,1615898663,138171196,mocap,-2.82795776367,9.67415332031,1.9243984375,0.164964779519,0.247770747599,0.954537197525,0.0159692073682
2021/03/16/13:44:23.146202,643236,1615898663,148171186,mocap,-2.82782446289,9.66622265625,1.92312988281,0.165149522576,0.248430862059,0.95433325868,0.0159926793336
2021/03/16/13:44:23.155921,643237,1615898663,158171177,mocap,-2.82767700195,9.65820117187,1.92172485352,0.165243979933,0.248912096698,0.954192587689,0.0159278489438
2021/03/16/13:44:23.168240,643238,1615898663,168171167,mocap,-2.82752612305,9.65003515625,1.92032312012,0.165460639903,0.249672417567,0.953950485404,0.0162764955687
2021/03/16/13:44:23.176006,643239,1615898663,178171158,mocap,-2.82731616211,9.64176953125,1.91883129883,0.165414729016,0.250510252223,0.953731054953,0.0167226750117
2021/03/16/13:44:23.186910,643240,1615898663,188171148,mocap,-2.82712329102,9.63343945312,1.91737548828,0.165473109698,0.250959193959,0.95359772544,0.0170153469959
2021/03/16/13:44:23.197839,643241,1615898663,198171139,mocap,-2.82688647461,9.62496582031,1.91596276855,0.165556064828,0.251288920235,0.953493164436,0.0172005543824
2021/03/16/13:44:23.205890,643242,1615898663,208171129,mocap,-2.82657348633,9.61634179688,1.91462121582,0.165670743123,0.251343949989,0.953453992128,0.01746165618
2021/03/16/13:44:23.216192,643243,1615898663,218171120,mocap,-2.82625268555,9.60755761719,1.91330444336,0.165224419174,0.251616705445,0.953448998774,0.018025521453
2021/03/16/13:44:23.225773,643244,1615898663,228171110,mocap,-2.82585400391,9.59871289063,1.91215356445,0.165504635888,0.25121996281,0.953499181184,0.0183322269292
2021/03/16/13:44:23.237691,643245,1615898663,238171101,mocap,-2.82546728516,9.58980566406,1.91118505859,0.165771365688,0.251113929072,0.953476567389,0.0185496871884
2021/03/16/13:44:23.247764,643246,1615898663,248171091,mocap,-2.82495117188,9.58068261719,1.91018103027,0.166017293118,0.250801263893,0.953506448116,0.0190376450022
2021/03/16/13:44:23.255821,643247,1615898663,258171082,mocap,-2.82442626953,9.57155566406,1.90935498047,0.165807261664,0.250619119109,0.953582536599,0.0194512957839
2021/03/16/13:44:23.267828,643248,1615898663,268171072,mocap,-2.82384277344,9.56243457031,1.90860302734,0.166370710331,0.250737752722,0.953444403927,0.0198782209665
2021/03/16/13:44:23.275885,643249,1615898663,278171062,mocap,-2.82324658203,9.55323339844,1.90793200684,0.166516734605,0.250768313611,0.953403526008,0.0202276273088
2021/03/16/13:44:23.288239,643250,1615898663,288171053,mocap,-2.82264208984,9.54397558594,1.90731164551,0.167039977596,0.251089033515,0.95322238706,0.0204699298289
2021/03/16/13:44:23.295777,643251,1615898663,298171043,mocap,-2.82202954102,9.53474609375,1.90686291504,0.166945902992,0.251395956231,0.953144190548,0.0211017446282
2021/03/16/13:44:23.306772,643252,1615898663,308171034,mocap,-2.82133300781,9.5254609375,1.90647375488,0.16687255124,0.251992361018,0.952986707191,0.021673626913
2021/03/16/13:44:23.317634,643253,1615898663,318171024,mocap,-2.82066650391,9.51607324219,1.90637011719,0.167171833057,0.252614325519,0.952754441129,0.0223284286915
2021/03/16/13:44:23.325847,643254,1615898663,328171015,mocap,-2.8200324707,9.5066796875,1.90667553711,0.166790987368,0.253364739627,0.952600428576,0.0232272351761
2021/03/16/13:44:23.335856,643255,1615898663,338171005,mocap,-2.81936181641,9.49725585938,1.90720678711,0.166574545346,0.253947533392,0.952461519853,0.0240960151983
2021/03/16/13:44:23.347412,643256,1615898663,348170996,mocap,-2.81869897461,9.48773144531,1.90789379883,0.166397383745,0.254385076231,0.952354901744,0.0249054509952
2021/03/16/13:44:23.355958,643257,1615898663,358170986,mocap,-2.81800341797,9.47817773438,1.90860192871,0.166868210414,0.254225787996,0.9523023745,0.0253859994192
2021/03/16/13:44:23.365773,643258,1615898663,368170977,mocap,-2.81723925781,9.46855761719,1.9092869873,0.166751822014,0.254191195545,0.95231252968,0.0261058683525
2021/03/16/13:44:23.376455,643259,1615898663,378171206,mocap,-2.81647070312,9.45898339844,1.9099720459,0.167303239903,0.254095573052,0.952230111556,0.0265120745679
2021/03/16/13:44:23.386322,643260,1615898663,388171196,mocap,-2.81570117187,9.44954980469,1.91079223633,0.167957916966,0.254179751943,0.952085819631,0.0267466504243
2021/03/16/13:44:23.397443,643261,1615898663,398171186,mocap,-2.81496508789,9.44006835937,1.91151477051,0.1685695594,0.254106890223,0.951987705847,0.0270812213541
2021/03/16/13:44:23.405833,643262,1615898663,408171177,mocap,-2.81422387695,9.43066796875,1.9122520752,0.169107479266,0.254257083593,0.951846500353,0.027280617196
2021/03/16/13:44:23.417487,643263,1615898663,418171167,mocap,-2.81354174805,9.42136035156,1.91304724121,0.169970685271,0.254203922642,0.951703222797,0.0274099625938
2021/03/16/13:44:23.425883,643264,1615898663,428171158,mocap,-2.81285546875,9.41209179687,1.91377954102,0.170744101272,0.254345766323,0.951526513069,0.0274224504676
2021/03/16/13:44:23.436371,643265,1615898663,438171148,mocap,-2.81222705078,9.40286035156,1.91454516602,0.171208838321,0.254509883029,0.951392506541,0.027650464554
2021/03/16/13:44:23.445804,643266,1615898663,448171139,mocap,-2.81167236328,9.39369238281,1.91532373047,0.172293418978,0.254280699164,0.951266963522,0.0273401023047
2021/03/16/13:44:23.456744,643267,1615898663,458171129,mocap,-2.81110888672,9.38458105469,1.9161171875,0.173053477169,0.254244594317,0.951137722272,0.0273716726366
2021/03/16/13:44:23.465741,643268,1615898663,468171120,mocap,-2.81059179687,9.37548730469,1.91688293457,0.173700676796,0.253925875496,0.951101382736,0.0274933241067
2021/03/16/13:44:23.476599,643269,1615898663,478171110,mocap,-2.81016235352,9.36646972656,1.91773278809,0.174832567708,0.253628007544,0.95097566026,0.0274170677145
2021/03/16/13:44:23.486397,643270,1615898663,488171101,mocap,-2.80964819336,9.35748046875,1.91834741211,0.17358033154,0.253658268727,0.951160986993,0.0286379162078
2021/03/16/13:44:23.495876,643271,1615898663,498171091,mocap,-2.80932373047,9.3486171875,1.91924707031,0.174980542583,0.253281753391,0.951010610081,0.0284424102275
2021/03/16/13:44:23.506084,643272,1615898663,508171082,mocap,-2.8090534668,9.33981445312,1.9201270752,0.175293917958,0.252639197106,0.951120183272,0.0285636104669
2021/03/16/13:44:23.515982,643273,1615898663,518171072,mocap,-2.80876367187,9.33110351562,1.92107666016,0.176207005065,0.252083180385,0.951099628,0.0285422240462
2021/03/16/13:44:23.526292,643274,1615898663,528171062,mocap,-2.808546875,9.32244335938,1.92196130371,0.177253176214,0.25158327038,0.951048919438,0.0281623825341
2021/03/16/13:44:23.535990,643275,1615898663,538171053,mocap,-2.80843847656,9.31395019531,1.92316931152,0.179343414336,0.25045518315,0.950985069652,0.0271207477513
2021/03/16/13:44:23.547201,643276,1615898663,548171043,mocap,-2.8082512207,9.30543457031,1.92388903809,0.178356848028,0.250612569988,0.951105393548,0.0279410737675
2021/03/16/13:44:23.558263,643277,1615898663,558171034,mocap,-2.80820483398,9.29699414062,1.92483935547,0.179041241101,0.250300272299,0.951057482035,0.0279940574501
2021/03/16/13:44:23.565973,643278,1615898663,568171024,mocap,-2.8082043457,9.28865136719,1.92581494141,0.179698760426,0.249851566957,0.95105559404,0.027853477825
2021/03/16/13:44:23.577897,643279,1615898663,578171015,mocap,-2.80826831055,9.28032519531,1.92673742676,0.180007743829,0.249167479897,0.95117905005,0.0277704527268
2021/03/16/13:44:23.585969,643280,1615898663,588171005,mocap,-2.80840527344,9.27201269531,1.92755285645,0.180527747634,0.248713320485,0.951211681747,0.0273450602866
2021/03/16/13:44:23.597280,643281,1615898663,598170996,mocap,-2.80859545898,9.26373632813,1.92833813477,0.180425295847,0.248011174803,0.951415138548,0.0273204357383
2021/03/16/13:44:23.606146,643282,1615898663,608170986,mocap,-2.80890820313,9.25546875,1.92900939941,0.180719216521,0.247395321114,0.951529927002,0.0269614592922
2021/03/16/13:44:23.617685,643283,1615898663,618170977,mocap,-2.80926025391,9.24724902344,1.92963195801,0.180704853386,0.246700945492,0.951715850375,0.0268577821073
2021/03/16/13:44:23.626073,643284,1615898663,628171206,mocap,-2.8096237793,9.23900683594,1.93018200684,0.180710823781,0.246036817366,0.951889605432,0.0267518330479
2021/03/16/13:44:23.636805,643285,1615898663,638171196,mocap,-2.81010083008,9.23084179687,1.9306081543,0.180580901791,0.245247562546,0.952122301574,0.0265951883825
2021/03/16/13:44:23.645983,643286,1615898663,648171186,mocap,-2.81063574219,9.22265332031,1.93097607422,0.179898280157,0.24482414366,0.952351013544,0.026931300095
2021/03/16/13:44:23.655982,643287,1615898663,658171177,mocap,-2.81123095703,9.21444238281,1.93120837402,0.179472187559,0.244211042031,0.952586819404,0.0270008551327
2021/03/16/13:44:23.666011,643288,1615898663,668171167,mocap,-2.81183837891,9.20628320313,1.93133972168,0.17905003511,0.243821638564,0.952758546642,0.0272624542767
2021/03/16/13:44:23.676770,643289,1615898663,678171158,mocap,-2.81261865234,9.19815429687,1.93150671387,0.177219875274,0.243117285729,0.953267227567,0.0277252987877
2021/03/16/13:44:23.686015,643290,1615898663,688171148,mocap,-2.81331274414,9.19004101563,1.93144335938,0.176687813518,0.243135708673,0.953349532586,0.0281268757784
2021/03/16/13:44:23.696700,643291,1615898663,698171139,mocap,-2.81407275391,9.18184570312,1.93113928223,0.176668636401,0.243656971888,0.953204409621,0.0286502790467
2021/03/16/13:44:23.706592,643292,1615898663,708171129,mocap,-2.81490478516,9.17368554687,1.93085693359,0.175853888397,0.243955766133,0.953263358721,0.029154272154
2021/03/16/13:44:23.716249,643293,1615898663,718171120,mocap,-2.81573291016,9.16567285156,1.93067407227,0.174034376663,0.243819636631,0.953605210387,0.0300187084462
2021/03/16/13:44:23.727650,643294,1615898663,728171110,mocap,-2.81659619141,9.15738574219,1.9300065918,0.174089699843,0.244665221071,0.953359645352,0.030612037653
2021/03/16/13:44:23.735954,643295,1615898663,738171101,mocap,-2.81742871094,9.14922460938,1.92943444824,0.173158924103,0.245183224954,0.953375306641,0.0312521301628
2021/03/16/13:44:23.746506,643296,1615898663,748171091,mocap,-2.81833691406,9.14096679688,1.92867919922,0.17233825019,0.246059047784,0.95327126053,0.0320683998988
2021/03/16/13:44:23.755770,643297,1615898663,758171082,mocap,-2.81916552734,9.13274511719,1.92800244141,0.171473905738,0.246471759156,0.953298474769,0.0327167012207
