time,.header.seq,.header.stamp.secs,.header.stamp.nsecs,.header.frame_id,.pose.position.x,.pose.position.y,.pose.position.z,.pose.orientation.x,.pose.orientation.y,.pose.orientation.z,.pose.orientation.w
2021/03/16/15:18:36.201030,64102,1615904316,202450037,mocap,-2.82821875,10.3355498047,1.9283951416,0.146102635208,0.278390577413,0.947271634112,-0.061880142895
2021/03/16/15:18:36.211159,64103,1615904316,212450027,mocap,-2.8282355957,10.33559375,1.92839416504,0.146102065068,0.27828386134,0.947305902628,-0.0618369649995
2021/03/16/15:18:36.220659,64104,1615904316,222450256,mocap,-2.82824633789,10.3356220703,1.92838806152,0.145973459115,0.27814053899,0.947374176413,-0.0617393885858
2021/03/16/15:18:36.231183,64105,1615904316,232450247,mocap,-2.82826269531,10.3356630859,1.92841894531,0.146055669641,0.277963342,0.947415652635,-0.0617064639685
2021/03/16/15:18:36.240507,64106,1615904316,242450237,mocap,-2.82827294922,10.3356777344,1.92841101074,0.146129601752,0.277825922693,0.947447839889,-0.0616561868602
2021/03/16/15:18:36.252609,64107,1615904316,252450228,mocap,-2.82827758789,10.3357041016,1.92841162109,0.146106746192,0.277692089452,0.947491970745,-0.0616351249446
2021/03/16/15:18:36.260707,64108,1615904316,262450218,mocap,-2.82828320312,10.3357333984,1.92843566895,0.146075341075,0.277488720569,0.947566733728,-0.0614758678816
2021/03/16/15:18:36.272179,64109,1615904316,272450209,mocap,-2.8283059082,10.3357333984,1.92844104004,0.145792868082,0.277233274924,0.94769045555,-0.0613917946781
2021/03/16/15:18:36.280717,64110,1615904316,282450199,mocap,-2.82831933594,10.3357597656,1.92844763184,0.14614477739,0.277226939121,0.947638314463,-0.0613885899072
2021/03/16/15:18:36.291821,64111,1615904316,292450190,mocap,-2.82832470703,10.3357792969,1.9284519043,0.145866051041,0.277080763073,0.947736571918,-0.0611942837468
2021/03/16/15:18:36.300601,64112,1615904316,302450180,mocap,-2.82835424805,10.3358134766,1.9284855957,0.145912232297,0.276971532457,0.947771554711,-0.0610366885766
2021/03/16/15:18:36.312006,64113,1615904316,312450171,mocap,-2.82838378906,10.3358173828,1.92848779297,0.145828011145,0.276876496195,0.947817336981,-0.0609581117969
2021/03/16/15:18:36.320750,64114,1615904316,322450161,mocap,-2.82841430664,10.3358652344,1.9285078125,0.146009141863,0.276871210615,0.947799587181,-0.0608243442034
2021/03/16/15:18:36.332260,64115,1615904316,332450151,mocap,-2.82841674805,10.3358876953,1.92850170898,0.145754867828,0.276768208894,0.94788053552,-0.0606412890297
2021/03/16/15:18:36.340626,64116,1615904316,342450142,mocap,-2.82844238281,10.3359404297,1.92852319336,0.145819077612,0.276763997999,0.947878751241,-0.0605340279954
2021/03/16/15:18:36.351840,64117,1615904316,352450132,mocap,-2.82843505859,10.3359150391,1.92837487793,0.145507450382,0.277220347024,0.947817965843,-0.0601462658814
2021/03/16/15:18:36.360797,64118,1615904316,362450123,mocap,-2.82850268555,10.3360117187,1.92853222656,0.145786827016,0.276894406124,0.94787356345,-0.0600949453435
2021/03/16/15:18:36.371698,64119,1615904316,372450113,mocap,-2.82853149414,10.3360566406,1.92854614258,0.145768011861,0.276875763036,0.947888089193,-0.0599971387432
2021/03/16/15:18:36.380827,64120,1615904316,382450104,mocap,-2.82856567383,10.3361210938,1.92857751465,0.145671466939,0.276916790168,0.947907794485,-0.0597305291487
2021/03/16/15:18:36.390588,64121,1615904316,392450094,mocap,-2.82860400391,10.3361552734,1.92858007812,0.14563617773,0.276917521102,0.947926171049,-0.0595211307149
2021/03/16/15:18:36.400865,64122,1615904316,402450085,mocap,-2.82863427734,10.3361943359,1.92859753418,0.145664096161,0.276979680987,0.94791862554,-0.0592833531177
2021/03/16/15:18:36.412461,64123,1615904316,412450075,mocap,-2.82866821289,10.3362568359,1.92861816406,0.145525473004,0.27698761143,0.947955880908,-0.0589901786858
2021/03/16/15:18:36.420756,64124,1615904316,422450066,mocap,-2.82870336914,10.3362978516,1.9286081543,0.145779077047,0.27702017488,0.947918358302,-0.058813724713
2021/03/16/15:18:36.432673,64125,1615904316,432450056,mocap,-2.8287421875,10.3363339844,1.92860119629,0.145741354707,0.27709672195,0.947920700561,-0.0585081930147
2021/03/16/15:18:36.441077,64126,1615904316,442450047,mocap,-2.82879638672,10.3363847656,1.92865795898,0.145571822999,0.277226620884,0.947929818024,-0.0581660998985
2021/03/16/15:18:36.452594,64127,1615904316,452450037,mocap,-2.82884057617,10.3364169922,1.9286427002,0.145871133032,0.277234512798,0.947887837667,-0.0580627304114
2021/03/16/15:18:36.460590,64128,1615904316,462450027,mocap,-2.82888427734,10.3364404297,1.92861767578,0.14554815778,0.277146845143,0.947980567679,-0.0577771001094
2021/03/16/15:18:36.470549,64129,1615904316,472450256,mocap,-2.82893530273,10.3364697266,1.92862756348,0.145656007786,0.277205458395,0.94795412821,-0.0576577177819
2021/03/16/15:18:36.481521,64130,1615904316,482450247,mocap,-2.82898657227,10.3364970703,1.92866174316,0.145381520489,0.277304487262,0.947981220011,-0.057428494675
2021/03/16/15:18:36.490771,64131,1615904316,492450237,mocap,-2.82905615234,10.3365185547,1.92867871094,0.145498442951,0.277361777975,0.947951149401,-0.057352027732
2021/03/16/15:18:36.502463,64132,1615904316,502450228,mocap,-2.82911669922,10.3364960938,1.92865356445,0.145600078725,0.27733976433,0.947943918479,-0.0573202413146
2021/03/16/15:18:36.510800,64133,1615904316,512450218,mocap,-2.82917016602,10.3365458984,1.92869396973,0.145350479433,0.277338343523,0.947991704416,-0.057170000292
2021/03/16/15:18:36.522320,64134,1615904316,522450209,mocap,-2.82920336914,10.3365371094,1.92865100098,0.145369145516,0.277390833637,0.947977557515,-0.057102447272
2021/03/16/15:18:36.530879,64135,1615904316,532450199,mocap,-2.82925317383,10.3365351562,1.92866357422,0.145508427057,0.277539098471,0.947907047782,-0.0571976157483
2021/03/16/15:18:36.542284,64136,1615904316,542450190,mocap,-2.8293190918,10.3365400391,1.9286809082,0.145447118649,0.277421835653,0.94794585197,-0.057279390465
2021/03/16/15:18:36.550787,64137,1615904316,552450180,mocap,-2.82938232422,10.3365449219,1.92871020508,0.145149782658,0.277526570147,0.94796234936,-0.0572532272745
2021/03/16/15:18:36.562287,64138,1615904316,562450171,mocap,-2.82944189453,10.336546875,1.9287244873,0.145246776456,0.277665756999,0.947891209683,-0.0575096983666
2021/03/16/15:18:36.572335,64139,1615904316,572450161,mocap,-2.8294987793,10.3365488281,1.92873730469,0.14510151129,0.277548008599,0.947934761853,-0.0577263913001
2021/03/16/15:18:36.580606,64140,1615904316,582450151,mocap,-2.82954907227,10.3365576172,1.92873999023,0.14508493865,0.277731448255,0.94787727351,-0.0578297017224
2021/03/16/15:18:36.591353,64141,1615904316,592450142,mocap,-2.82960864258,10.3365605469,1.9287401123,0.14496733854,0.27782364433,0.947858196418,-0.0579943116511
2021/03/16/15:18:36.600613,64142,1615904316,602450132,mocap,-2.82966381836,10.3365449219,1.92871887207,0.145029041459,0.277904391874,0.94781040375,-0.0582337753575
2021/03/16/15:18:36.612102,64143,1615904316,612450123,mocap,-2.82973095703,10.3365507813,1.92872802734,0.14511480266,0.277945460551,0.947779832473,-0.0583215198993
2021/03/16/15:18:36.620770,64144,1615904316,622450113,mocap,-2.82978369141,10.3365537109,1.92872290039,0.144938601469,0.278103324602,0.947762372835,-0.05829079954
2021/03/16/15:18:36.630939,64145,1615904316,632450104,mocap,-2.82987548828,10.3365488281,1.92873596191,0.144823079945,0.278035349602,0.947795302967,-0.0583668365654
2021/03/16/15:18:36.640771,64146,1615904316,642450094,mocap,-2.82996435547,10.3365332031,1.92868981934,0.144858903263,0.278209710479,0.94774504652,-0.0582630940264
2021/03/16/15:18:36.652056,64147,1615904316,652450085,mocap,-2.83004516602,10.3365195312,1.92871191406,0.144795912111,0.278073604453,0.947790468465,-0.0583304072018
2021/03/16/15:18:36.660869,64148,1615904316,662450075,mocap,-2.83015429687,10.336484375,1.92870849609,0.144757843095,0.278155698094,0.947777151838,-0.0582498991596
2021/03/16/15:18:36.670731,64149,1615904316,672450066,mocap,-2.83024145508,10.3364384766,1.92870275879,0.144783187308,0.277999646784,0.947819632325,-0.0582405561998
2021/03/16/15:18:36.682410,64150,1615904316,682450056,mocap,-2.83033666992,10.3363798828,1.92869372559,0.14479746839,0.277871753902,0.947860114363,-0.0581566068355
2021/03/16/15:18:36.690497,64151,1615904316,692450047,mocap,-2.83042041016,10.3363457031,1.92871618652,0.14475410802,0.277803889222,0.947891217543,-0.0580818372755
2021/03/16/15:18:36.702055,64152,1615904316,702450037,mocap,-2.83051098633,10.3362763672,1.92870239258,0.144838294501,0.277677395199,0.947919097136,-0.0580216756703
2021/03/16/15:18:36.710636,64153,1615904316,712450027,mocap,-2.83062109375,10.3362382813,1.92870227051,0.144888458247,0.277565695783,0.947947368893,-0.0579690001285
2021/03/16/15:18:36.721818,64154,1615904316,722450256,mocap,-2.83073486328,10.3361865234,1.92870031738,0.144777615949,0.277305711556,0.948042914434,-0.0579276857474
2021/03/16/15:18:36.732175,64155,1615904316,732450247,mocap,-2.83085473633,10.3361376953,1.92869726563,0.144663453856,0.277117008543,0.94812441565,-0.0577819368548
2021/03/16/15:18:36.740626,64156,1615904316,742450237,mocap,-2.83093945313,10.3360332031,1.92858642578,0.14432605691,0.277525656866,0.948070545946,-0.0575476998695
2021/03/16/15:18:36.751719,64157,1615904316,752450228,mocap,-2.83104833984,10.3359755859,1.92855761719,0.144234488717,0.277405560447,0.948120180054,-0.0575385853029
2021/03/16/15:18:36.762917,64158,1615904316,762450218,mocap,-2.83117749023,10.3359375,1.92855664063,0.144203754347,0.277168160279,0.948188410922,-0.0576352243024
2021/03/16/15:18:36.771961,64159,1615904316,772450209,mocap,-2.83130004883,10.3359003906,1.92858972168,0.144095347822,0.276964663857,0.948259905444,-0.0577082949526
2021/03/16/15:18:36.780626,64160,1615904316,782450199,mocap,-2.83144042969,10.3358623047,1.92858789063,0.143938741767,0.276916132232,0.948295764608,-0.0577429111089
2021/03/16/15:18:36.791647,64161,1615904316,792450190,mocap,-2.83156079102,10.335828125,1.92858813477,0.143608922232,0.276579703114,0.948438323585,-0.0578349380512
2021/03/16/15:18:36.800869,64162,1615904316,802450180,mocap,-2.8316940918,10.3357949219,1.92860864258,0.143610656019,0.276600654031,0.948436626767,-0.0577582746947
2021/03/16/15:18:36.810839,64163,1615904316,812450171,mocap,-2.83181982422,10.3357695312,1.92860693359,0.143489209376,0.276390775083,0.948508141855,-0.0578902271098
2021/03/16/15:18:36.821721,64164,1615904316,822450161,mocap,-2.83197314453,10.3357597656,1.92864587402,0.143571112425,0.276295848669,0.94852369473,-0.0578856278034
2021/03/16/15:18:36.830824,64165,1615904316,832450151,mocap,-2.8320925293,10.3357460938,1.92863684082,0.14360025427,0.276324490711,0.948509555763,-0.0579082299905
2021/03/16/15:18:36.842614,64166,1615904316,842450142,mocap,-2.83222729492,10.3357265625,1.92866748047,0.143273716631,0.276061490805,0.948634073541,-0.0579318658186
2021/03/16/15:18:36.850660,64167,1615904316,852450132,mocap,-2.83238183594,10.3357128906,1.9286796875,0.143206189455,0.275982100997,0.948661507197,-0.0580276490904
2021/03/16/15:18:36.862586,64168,1615904316,862450123,mocap,-2.83252832031,10.3357294922,1.92871325684,0.143278186137,0.275922560808,0.948657054093,-0.0582055974396
2021/03/16/15:18:36.870717,64169,1615904316,872450113,mocap,-2.83265380859,10.3357080078,1.92875354004,0.143193784779,0.275715875793,0.948727272488,-0.0582482910803
2021/03/16/15:18:36.882883,64170,1615904316,882450104,mocap,-2.83278881836,10.3357011719,1.92878137207,0.143349352902,0.275535651639,0.948754719156,-0.0582714656925
2021/03/16/15:18:36.890618,64171,1615904316,892450094,mocap,-2.83289770508,10.3357177734,1.92881616211,0.143211919074,0.275446343953,0.948803689264,-0.0582340902504
2021/03/16/15:18:36.902603,64172,1615904316,902450085,mocap,-2.83301489258,10.3357275391,1.92886999512,0.143121987166,0.275308726677,0.948867693689,-0.0580628422856
2021/03/16/15:18:36.910889,64173,1615904316,912450075,mocap,-2.833125,10.3357548828,1.92893591309,0.143235789104,0.275128436481,0.948898371251,-0.0581354671416
2021/03/16/15:18:36.921230,64174,1615904316,922450066,mocap,-2.83319799805,10.3357763672,1.92893908691,0.143046160356,0.275031889773,0.948968265592,-0.0579179700623
2021/03/16/15:18:36.930861,64175,1615904316,932450056,mocap,-2.83328637695,10.3358291016,1.92898596191,0.143102826751,0.274980771194,0.948971649472,-0.057965126973
2021/03/16/15:18:36.942463,64176,1615904316,942450047,mocap,-2.83339086914,10.33590625,1.92903259277,0.143312898698,0.27495821859,0.948939254805,-0.058083528547
2021/03/16/15:18:36.951143,64177,1615904316,952450037,mocap,-2.83345556641,10.3359707031,1.92903735352,0.143282936438,0.275049475306,0.948915393847,-0.0581150158763
2021/03/16/15:18:36.962162,64178,1615904316,962450027,mocap,-2.83356347656,10.3360517578,1.92905078125,0.143315847601,0.275216469338,0.948849052679,-0.058326218987
2021/03/16/15:18:36.970639,64179,1615904316,972450256,mocap,-2.83362817383,10.3361416016,1.92904724121,0.143215451413,0.275392556524,0.94880551892,-0.0584497985328
2021/03/16/15:18:36.982091,64180,1615904316,982450247,mocap,-2.83370361328,10.3362509766,1.9290847168,0.143159028666,0.275481106147,0.948776620949,-0.0586394911141
2021/03/16/15:18:36.990791,64181,1615904316,992450237,mocap,-2.83376171875,10.3363554687,1.92909606934,0.14319687765,0.275624647901,0.948707717725,-0.0589862298877
2021/03/16/15:18:37.001261,64182,1615904317,2450228,mocap,-2.83381835937,10.3364980469,1.92914672852,0.142896538831,0.275802030474,0.948700296233,-0.0590046777138
2021/03/16/15:18:37.012226,64183,1615904317,12450218,mocap,-2.83385571289,10.3365830078,1.92912658691,0.142917716851,0.275945597019,0.948632777628,-0.059366690784
2021/03/16/15:18:37.020731,64184,1615904317,22450209,mocap,-2.8338840332,10.3366923828,1.92911535645,0.142840281763,0.275965152412,0.948617014479,-0.0597130488114
2021/03/16/15:18:37.030679,64185,1615904317,32450199,mocap,-2.8338815918,10.3367929688,1.92911889648,0.142940097566,0.276128757701,0.948533034187,-0.0600509029198
2021/03/16/15:18:37.042242,64186,1615904317,42450190,mocap,-2.83391796875,10.3369199219,1.9291496582,0.142908321714,0.276214899799,0.948491528275,-0.0603849843867
2021/03/16/15:18:37.050655,64187,1615904317,52450180,mocap,-2.83390771484,10.3370244141,1.92914050293,0.142975852565,0.276317686879,0.948430664314,-0.0607101180779
2021/03/16/15:18:37.061281,64188,1615904317,62450171,mocap,-2.83389477539,10.337109375,1.92910351563,0.143261209145,0.276374292625,0.948349959341,-0.061039595158
2021/03/16/15:18:37.072189,64189,1615904317,72450161,mocap,-2.83387670898,10.337203125,1.92910217285,0.143026744013,0.276575057727,0.948324355112,-0.0610778783982
2021/03/16/15:18:37.081962,64190,1615904317,82450151,mocap,-2.83383618164,10.3372705078,1.92907312012,0.143410540197,0.27647954339,0.948266073254,-0.0615136869907
2021/03/16/15:18:37.090975,64191,1615904317,92450142,mocap,-2.83381030273,10.3373369141,1.9290513916,0.143583560744,0.276528510715,0.948209485041,-0.0617617094436
2021/03/16/15:18:37.100739,64192,1615904317,102450132,mocap,-2.83377490234,10.3374130859,1.92903723145,0.143431280701,0.27653253286,0.948231257995,-0.0617633222639
2021/03/16/15:18:37.111044,64193,1615904317,112450123,mocap,-2.83374023438,10.3374697266,1.92905004883,0.143374825649,0.276434125295,0.948261398294,-0.0618720734652
2021/03/16/15:18:37.120542,64194,1615904317,122450113,mocap,-2.83369970703,10.3374863281,1.92898657227,0.143728160371,0.27633443941,0.94822746289,-0.062017453095
2021/03/16/15:18:37.131975,64195,1615904317,132450104,mocap,-2.83365551758,10.3375332031,1.9289934082,0.143768132654,0.276310084776,0.948226103563,-0.0620541201064
2021/03/16/15:18:37.140862,64196,1615904317,142450094,mocap,-2.83362182617,10.3375566406,1.92899804688,0.143731797002,0.276122405868,0.948287939192,-0.0620288365676
2021/03/16/15:18:37.150980,64197,1615904317,152450085,mocap,-2.83358666992,10.3375800781,1.9289954834,0.143909044736,0.276059664185,0.948277348064,-0.0620590243971
2021/03/16/15:18:37.160647,64198,1615904317,162450075,mocap,-2.8335637207,10.3375820312,1.92898156738,0.14395468771,0.276067879216,0.948271746032,-0.0620022067175
2021/03/16/15:18:37.170621,64199,1615904317,172450066,mocap,-2.8335234375,10.3375683594,1.92895751953,0.144000610694,0.275857014403,0.948330349659,-0.0619377650495
2021/03/16/15:18:37.181826,64200,1615904317,182450056,mocap,-2.83348388672,10.3375761719,1.92893566895,0.144210949842,0.275832451465,0.94830399851,-0.0619611746935
2021/03/16/15:18:37.190713,64201,1615904317,192450047,mocap,-2.83346679687,10.3375898437,1.92892993164,0.144190276852,0.275749232654,0.948339070361,-0.0618428090495
2021/03/16/15:18:37.200634,64202,1615904317,202450037,mocap,-2.83343676758,10.3376132813,1.92894250488,0.144262628525,0.275722604065,0.948340350962,-0.0617731233591
2021/03/16/15:18:37.212592,64203,1615904317,212450027,mocap,-2.83341479492,10.3375791016,1.92889453125,0.144394149578,0.275600960478,0.948357092891,-0.06175169189
2021/03/16/15:18:37.220591,64204,1615904317,222450256,mocap,-2.83339331055,10.3375869141,1.92891516113,0.144612192163,0.275723442946,0.948292339032,-0.0616890007237
2021/03/16/15:18:37.231709,64205,1615904317,232450247,mocap,-2.83337133789,10.3375771484,1.92890026855,0.144646070146,0.275621226707,0.948323043063,-0.0615942819554
2021/03/16/15:18:37.240865,64206,1615904317,242450237,mocap,-2.83333569336,10.3375654297,1.92887353516,0.144765694937,0.275739643984,0.948274558838,-0.0615297452265
2021/03/16/15:18:37.251875,64207,1615904317,252450228,mocap,-2.83335424805,10.3375361328,1.92887097168,0.144861037328,0.275649291053,0.948284010746,-0.0615644251686
2021/03/16/15:18:37.261396,64208,1615904317,262450218,mocap,-2.83334985352,10.3375126953,1.92885119629,0.144885966857,0.275772771075,0.948249534005,-0.0614838487211
2021/03/16/15:18:37.270636,64209,1615904317,272450209,mocap,-2.83336401367,10.3374921875,1.92890112305,0.144701998864,0.275849613635,0.94825877402,-0.0614297819262
2021/03/16/15:18:37.280572,64210,1615904317,282450199,mocap,-2.83337988281,10.3374609375,1.92887927246,0.144590585293,0.275915425382,0.948254829739,-0.0614573813091
2021/03/16/15:18:37.292549,64211,1615904317,292450190,mocap,-2.83340380859,10.3374169922,1.92889672852,0.144623133182,0.276040293202,0.948205375546,-0.0615830702986
2021/03/16/15:18:37.300676,64212,1615904317,302450180,mocap,-2.83342651367,10.3373496094,1.92889428711,0.144408369683,0.276130548318,0.948208062828,-0.0616408843965
2021/03/16/15:18:37.312268,64213,1615904317,312450171,mocap,-2.8334453125,10.3372958984,1.92890722656,0.144312033746,0.276340436445,0.948157922554,-0.0616973571528
2021/03/16/15:18:37.321226,64214,1615904317,322450161,mocap,-2.83348095703,10.3372373047,1.92892028809,0.144085178471,0.276376287503,0.948178400159,-0.0617522098048
2021/03/16/15:18:37.331390,64215,1615904317,332450151,mocap,-2.83349536133,10.3371503906,1.92892785645,0.143959174405,0.276478240363,0.948152940599,-0.0619801064969
2021/03/16/15:18:37.340786,64216,1615904317,342450142,mocap,-2.83352124023,10.3370654297,1.92893249512,0.144000881436,0.2767906455,0.948044721981,-0.0621441215795
2021/03/16/15:18:37.352349,64217,1615904317,352450132,mocap,-2.83354394531,10.3369550781,1.92893640137,0.143888851569,0.276874467661,0.948027125759,-0.062298418196
2021/03/16/15:18:37.361385,64218,1615904317,362450123,mocap,-2.8335480957,10.3368378906,1.92894067383,0.143825106615,0.277055415642,0.947965430308,-0.0625793459385
2021/03/16/15:18:37.370649,64219,1615904317,372450113,mocap,-2.83356518555,10.3366962891,1.92895715332,0.143447748432,0.277056507829,0.948016445267,-0.0626677454826
2021/03/16/15:18:37.381710,64220,1615904317,382450104,mocap,-2.8335546875,10.3365332031,1.92892407227,0.143503839777,0.277198420786,0.947957122729,-0.0628090808156
2021/03/16/15:18:37.391435,64221,1615904317,392450094,mocap,-2.83357055664,10.3363623047,1.92897558594,0.143453030711,0.277190702601,0.947945726215,-0.0631303559733
2021/03/16/15:18:37.401433,64222,1615904317,402450085,mocap,-2.83354882813,10.3361875,1.92897729492,0.143114559106,0.277182560294,0.947993732121,-0.0632135064229
2021/03/16/15:18:37.410961,64223,1615904317,412450075,mocap,-2.83351879883,10.3359375,1.92896728516,0.143192374316,0.277290012424,0.947937952927,-0.0634021017756
2021/03/16/15:18:37.421157,64224,1615904317,422450066,mocap,-2.83350585938,10.3357148438,1.92901525879,0.143154013392,0.277316541997,0.947920291845,-0.0636363926448
2021/03/16/15:18:37.430758,64225,1615904317,432450056,mocap,-2.83346899414,10.3354619141,1.92902453613,0.142963457681,0.277311053761,0.947941631296,-0.0637706468312
2021/03/16/15:18:37.440554,64226,1615904317,442450047,mocap,-2.83342285156,10.3351865234,1.92903625488,0.142760619987,0.277463692129,0.947916275416,-0.0639377850691
2021/03/16/15:18:37.451012,64227,1615904317,452450037,mocap,-2.83337475586,10.3349208984,1.92908093262,0.142612148338,0.277549170113,0.947900138788,-0.0641371826108
2021/03/16/15:18:37.460589,64228,1615904317,462450027,mocap,-2.8333425293,10.3346259766,1.92911816406,0.142546589528,0.277645750784,0.947881046436,-0.0641469655043
2021/03/16/15:18:37.470671,64229,1615904317,472450256,mocap,-2.8333112793,10.3343417969,1.92920166016,0.142698640314,0.277628423101,0.947848425844,-0.0643654494344
2021/03/16/15:18:37.481314,64230,1615904317,482450247,mocap,-2.83325634766,10.3340107422,1.9292232666,0.142894047354,0.277866963568,0.947738419357,-0.0645224518056
2021/03/16/15:18:37.491867,64231,1615904317,492450237,mocap,-2.83320898438,10.3336679687,1.92922375488,0.142580613545,0.27806416694,0.947736894238,-0.0643883617688
2021/03/16/15:18:37.501399,64232,1615904317,502450228,mocap,-2.83317919922,10.3332861328,1.92923510742,0.142419724459,0.278217703273,0.947719425948,-0.0643383588161
2021/03/16/15:18:37.512636,64233,1615904317,512450218,mocap,-2.83312573242,10.3329277344,1.92924206543,0.142162282662,0.278414799387,0.947704740386,-0.0642713500346
2021/03/16/15:18:37.520784,64234,1615904317,522450209,mocap,-2.83309863281,10.3325166016,1.92925170898,0.14218778222,0.278817892943,0.947592106824,-0.0641280601418
2021/03/16/15:18:37.530900,64235,1615904317,532450199,mocap,-2.83305957031,10.3321113281,1.92931115723,0.142222793373,0.278956192048,0.947545543094,-0.0641371117078
2021/03/16/15:18:37.540953,64236,1615904317,542450190,mocap,-2.83300854492,10.3317099609,1.92934790039,0.142164394704,0.27921472542,0.947483753377,-0.0640542390455
2021/03/16/15:18:37.550563,64237,1615904317,552450180,mocap,-2.83295532227,10.3312695312,1.92941516113,0.14162884554,0.279485072084,0.947496342828,-0.0638752112494
2021/03/16/15:18:37.561886,64238,1615904317,562450171,mocap,-2.83289208984,10.3308242187,1.92941796875,0.141566434487,0.279955209776,0.947373287729,-0.063779942928
2021/03/16/15:18:37.571973,64239,1615904317,572450161,mocap,-2.83280395508,10.3302978516,1.92934741211,0.141279670246,0.280130223648,0.947368293783,-0.0637213759771
2021/03/16/15:18:37.580769,64240,1615904317,582450151,mocap,-2.83272119141,10.3297851563,1.92933081055,0.141138539482,0.28053588645,0.947274449887,-0.0636447070063
2021/03/16/15:18:37.592792,64241,1615904317,592450142,mocap,-2.83260888672,10.3292695313,1.9293338623,0.14109869973,0.281037123761,0.947135483759,-0.0635898058373
2021/03/16/15:18:37.600698,64242,1615904317,602450132,mocap,-2.83247167969,10.3286904297,1.92930200195,0.141091093107,0.281587176405,0.946971965773,-0.0636085723462
2021/03/16/15:18:37.610781,64243,1615904317,612450123,mocap,-2.83234936523,10.3280976562,1.92930236816,0.141011838095,0.282114436793,0.946831491623,-0.0635391959122
2021/03/16/15:18:37.622636,64244,1615904317,622450113,mocap,-2.83219067383,10.3274794922,1.92931298828,0.140473842213,0.282370781087,0.946840076621,-0.0634643040361
2021/03/16/15:18:37.630663,64245,1615904317,632450104,mocap,-2.83200537109,10.3267978516,1.92932617188,0.140132352455,0.282617555941,0.946821970131,-0.063390884759
2021/03/16/15:18:37.642572,64246,1615904317,642450094,mocap,-2.83180004883,10.3261347656,1.92940197754,0.139912420278,0.283032512003,0.946745716057,-0.0631636894874
2021/03/16/15:18:37.650766,64247,1615904317,652450085,mocap,-2.83157080078,10.325375,1.92940185547,0.139833954291,0.283412887724,0.946656745206,-0.0629650384018
2021/03/16/15:18:37.662678,64248,1615904317,662450075,mocap,-2.83145751953,10.3247431641,1.92971850586,0.138484414918,0.284691389727,0.946542011227,-0.0618959914523
2021/03/16/15:18:37.670808,64249,1615904317,672450066,mocap,-2.83108642578,10.3238847656,1.92954174805,0.140080859506,0.283462265808,0.946604232347,-0.0629836188235
2021/03/16/15:18:37.682770,64250,1615904317,682450056,mocap,-2.83091723633,10.3231884766,1.92987353516,0.138705465053,0.285010000289,0.946424815043,-0.0617264643828
2021/03/16/15:18:37.691092,64251,1615904317,692450047,mocap,-2.83057299805,10.3223291016,1.92984667969,0.138611330545,0.284991603065,0.946463845314,-0.0614237155579
2021/03/16/15:18:37.702457,64252,1615904317,702450037,mocap,-2.83022924805,10.3214511719,1.9298145752,0.138419548588,0.285211922001,0.946439300043,-0.0612114615893
2021/03/16/15:18:37.710818,64253,1615904317,712450027,mocap,-2.82974755859,10.3204326172,1.92954077148,0.139282003162,0.284129444649,0.946595007665,-0.061877909807
2021/03/16/15:18:37.722372,64254,1615904317,722450256,mocap,-2.82953198242,10.3196298828,1.92984777832,0.138195093194,0.285336663549,0.946483068587,-0.060455812686
2021/03/16/15:18:37.730994,64255,1615904317,732450247,mocap,-2.82913305664,10.3186884766,1.92982727051,0.137688403459,0.285299344069,0.946598258352,-0.0599827160625
2021/03/16/15:18:37.742315,64256,1615904317,742450237,mocap,-2.82857714844,10.317578125,1.92945507812,0.138482771798,0.284144851348,0.946796505573,-0.0605030022039
2021/03/16/15:18:37.750762,64257,1615904317,752450228,mocap,-2.82813305664,10.3165458984,1.92940161133,0.137923144872,0.284123476547,0.946927889363,-0.0598217765785
2021/03/16/15:18:37.762448,64258,1615904317,762450218,mocap,-2.82764404297,10.3155351563,1.92933996582,0.137643870884,0.28410041491,0.94700958095,-0.0592787558016
2021/03/16/15:18:37.770734,64259,1615904317,772450209,mocap,-2.82726098633,10.3145957031,1.92951464844,0.136703226894,0.28532718315,0.946873353573,-0.0577188935194
2021/03/16/15:18:37.782221,64260,1615904317,782450199,mocap,-2.8265769043,10.3133740234,1.92908312988,0.13731143389,0.284185276013,0.947107415899,-0.0580675658689
2021/03/16/15:18:37.790811,64261,1615904317,792450190,mocap,-2.82598828125,10.3123203125,1.92903161621,0.136822131857,0.283882764723,0.947304644223,-0.0574821247966
2021/03/16/15:18:37.802230,64262,1615904317,802450180,mocap,-2.82535717773,10.3111855469,1.92889257812,0.1368653595,0.283772550558,0.947372572063,-0.0567998089517
2021/03/16/15:18:37.810917,64263,1615904317,812450171,mocap,-2.82475024414,10.3100292969,1.92876330566,0.13694309345,0.28358570342,0.947464589725,-0.0560052475694
2021/03/16/15:18:37.822252,64264,1615904317,822450161,mocap,-2.82406640625,10.3088691406,1.92860668945,0.136428074615,0.283389154263,0.947646483318,-0.0551733348522
2021/03/16/15:18:37.831131,64265,1615904317,832450151,mocap,-2.82342016602,10.3076982422,1.92849304199,0.136516961323,0.283028767708,0.947791160233,-0.0543116835032
2021/03/16/15:18:37.840493,64266,1615904317,842450142,mocap,-2.82267553711,10.3064804687,1.92840466309,0.136599690175,0.28285231861,0.947871504047,-0.0536161767673
2021/03/16/15:18:37.852226,64267,1615904317,852450132,mocap,-2.82187866211,10.3052119141,1.92819189453,0.13607651435,0.282283508964,0.948169772274,-0.0526619735833
2021/03/16/15:18:37.860528,64268,1615904317,862450123,mocap,-2.82104736328,10.3039052734,1.92799084473,0.136244743785,0.281751736942,0.948325101486,-0.0522765145024
2021/03/16/15:18:37.872292,64269,1615904317,872450113,mocap,-2.82027270508,10.3025439453,1.92777819824,0.135856300772,0.281000104056,0.948649781429,-0.0514355174422
2021/03/16/15:18:37.880665,64270,1615904317,882450104,mocap,-2.81944970703,10.3011640625,1.9276204834,0.13577752733,0.280066320555,0.948992761154,-0.0503989467794
2021/03/16/15:18:37.892073,64271,1615904317,892450094,mocap,-2.81860571289,10.2997734375,1.92749755859,0.135380479617,0.279537288674,0.949253740961,-0.0494810538376
2021/03/16/15:18:37.900853,64272,1615904317,902450085,mocap,-2.81772485352,10.2982587891,1.92718652344,0.135509371572,0.278494740719,0.949569629448,-0.0489429079129
2021/03/16/15:18:37.911336,64273,1615904317,912450075,mocap,-2.81685375977,10.2967578125,1.92682165527,0.135515606721,0.277488820217,0.949886879649,-0.048481054024
2021/03/16/15:18:37.920782,64274,1615904317,922450066,mocap,-2.81595605469,10.2952070312,1.92650708008,0.134989198461,0.276178266866,0.950383550929,-0.04769260655
2021/03/16/15:18:37.932312,64275,1615904317,932450056,mocap,-2.8152019043,10.2937880859,1.92624499512,0.134216578157,0.275932241057,0.950631279821,-0.0463409289585
2021/03/16/15:18:37.940474,64276,1615904317,942450047,mocap,-2.81423876953,10.2921191406,1.92537561035,0.134576373901,0.274711062302,0.950956903875,-0.0458694245934
2021/03/16/15:18:37.951853,64277,1615904317,952450037,mocap,-2.81338134766,10.2906230469,1.92470361328,0.134321323563,0.273984842569,0.951239205549,-0.0451006264383
2021/03/16/15:18:37.960502,64278,1615904317,962450027,mocap,-2.81246386719,10.2890478516,1.92385852051,0.13399928549,0.273363950791,0.951505794308,-0.0441936650219
2021/03/16/15:18:37.970958,64279,1615904317,972450256,mocap,-2.81158862305,10.2876064453,1.92309411621,0.133171362589,0.273345898104,0.951671938875,-0.0432195738882
2021/03/16/15:18:37.982312,64280,1615904317,982450247,mocap,-2.81069482422,10.2860361328,1.9221072998,0.133569193689,0.273105745254,0.951706831812,-0.0427389338484
2021/03/16/15:18:37.990609,64281,1615904317,992450237,mocap,-2.80979345703,10.2845009766,1.92118054199,0.133332655604,0.273333158193,0.951720657109,-0.0417035152937
2021/03/16/15:18:38.001860,64282,1615904318,2450228,mocap,-2.80892651367,10.2829296875,1.92027807617,0.133327199509,0.27353798484,0.951704420584,-0.0407374730268
2021/03/16/15:18:38.010600,64283,1615904318,12450218,mocap,-2.80808032227,10.2814550781,1.91971398926,0.132289275983,0.274871334841,0.951535870034,-0.0390485404491
2021/03/16/15:18:38.021945,64284,1615904318,22450209,mocap,-2.80715087891,10.2797441406,1.91870068359,0.133104041438,0.274341549747,0.951593293943,-0.0386035247279
2021/03/16/15:18:38.030873,64285,1615904318,32450199,mocap,-2.80625292969,10.2780654297,1.91800939941,0.133294343383,0.274587118159,0.951536308517,-0.037592369439
2021/03/16/15:18:38.040678,64286,1615904318,42450190,mocap,-2.80537597656,10.2763271484,1.91740698242,0.133755233176,0.27521018351,0.951328946095,-0.0366351735065
2021/03/16/15:18:38.053052,64287,1615904318,52450180,mocap,-2.80449072266,10.2745351562,1.91679382324,0.134066587822,0.275462004359,0.951256734521,-0.0354605821912
2021/03/16/15:18:38.060603,64288,1615904318,62450171,mocap,-2.80362695313,10.2726640625,1.9162779541,0.134190864295,0.275347082949,0.951307839266,-0.0344991903729
2021/03/16/15:18:38.071659,64289,1615904318,72450161,mocap,-2.80272265625,10.2706875,1.91581970215,0.13509295749,0.275515622438,0.951162851279,-0.0336194148479
2021/03/16/15:18:38.080770,64290,1615904318,82450151,mocap,-2.80185058594,10.2686904297,1.91552355957,0.136145972776,0.275772978293,0.950968522849,-0.0327475253044
2021/03/16/15:18:38.091651,64291,1615904318,92450142,mocap,-2.80105102539,10.2666455078,1.91536022949,0.136476365124,0.275383378641,0.951065793868,-0.0318128263193
2021/03/16/15:18:38.100732,64292,1615904318,102450132,mocap,-2.80026416016,10.2644638672,1.91526367188,0.1370631997,0.275301815416,0.951042182117,-0.0306814677408
2021/03/16/15:18:38.111687,64293,1615904318,112450123,mocap,-2.79950537109,10.2621943359,1.91525769043,0.137870225182,0.275242704871,0.950973623243,-0.0297055753218
2021/03/16/15:18:38.121667,64294,1615904318,122450113,mocap,-2.79880419922,10.2598896484,1.91527111816,0.13928556809,0.275082130765,0.950839099989,-0.0288851134521
2021/03/16/15:18:38.130743,64295,1615904318,132450104,mocap,-2.79816796875,10.2575419922,1.91546459961,0.140632767494,0.275605803301,0.950512730115,-0.0280966954323
2021/03/16/15:18:38.142697,64296,1615904318,142450094,mocap,-2.79754492188,10.2550097656,1.91550793457,0.140252931652,0.27443278139,0.95093791207,-0.0270712666731
2021/03/16/15:18:38.150554,64297,1615904318,152450085,mocap,-2.79700390625,10.2524609375,1.91564038086,0.140871807772,0.274034017341,0.950983299033,-0.0262917675347
2021/03/16/15:18:38.162620,64298,1615904318,162450075,mocap,-2.79652416992,10.2498798828,1.91574462891,0.141280035541,0.273935072158,0.95097408549,-0.0254523567507
2021/03/16/15:18:38.170569,64299,1615904318,172450066,mocap,-2.79611352539,10.2472001953,1.91581555176,0.141557821987,0.273962959387,0.950947611727,-0.024582698394
2021/03/16/15:18:38.182487,64300,1615904318,182450056,mocap,-2.79579980469,10.2444824219,1.91592541504,0.141942057915,0.273842030611,0.950938867937,-0.0240474730532
2021/03/16/15:18:38.192511,64301,1615904318,192450047,mocap,-2.79554370117,10.2416806641,1.91594641113,0.141822310132,0.273831472546,0.950978308375,-0.0233025386477
2021/03/16/15:18:38.200787,64302,1615904318,202450037,mocap,-2.7953293457,10.2388095703,1.91589453125,0.141809559274,0.273785823724,0.951008964859,-0.0226563400064
2021/03/16/15:18:38.212345,64303,1615904318,212450027,mocap,-2.79518798828,10.2358535156,1.91583422852,0.142108626538,0.273889404593,0.95094696143,-0.022127423446
2021/03/16/15:18:38.220625,64304,1615904318,222450256,mocap,-2.79506225586,10.2328388672,1.91575146484,0.141662989673,0.273970869011,0.951004624594,-0.0214884138891
2021/03/16/15:18:38.231438,64305,1615904318,232450247,mocap,-2.79499023438,10.2297373047,1.91553051758,0.141229101728,0.274016704356,0.951068943102,-0.0209057311984
2021/03/16/15:18:38.240825,64306,1615904318,242450237,mocap,-2.79497119141,10.2265527344,1.91534191895,0.140917599893,0.274258653772,0.951058649299,-0.0202944237574
2021/03/16/15:18:38.252493,64307,1615904318,252450228,mocap,-2.79499365234,10.2232695313,1.91507458496,0.140413993752,0.274344219585,0.951122948487,-0.019603526431
2021/03/16/15:18:38.260756,64308,1615904318,262450218,mocap,-2.79505712891,10.2198935547,1.91477636719,0.139707260365,0.274274611611,0.951258825757,-0.019025408744
2021/03/16/15:18:38.272194,64309,1615904318,272450209,mocap,-2.7951628418,10.2164199219,1.91437670898,0.13963049462,0.274646449556,0.951173190952,-0.0184992146548
2021/03/16/15:18:38.280724,64310,1615904318,282450199,mocap,-2.79529125977,10.2128564453,1.91400280762,0.138929135989,0.274679229931,0.95127586094,-0.0180070820641
2021/03/16/15:18:38.292067,64311,1615904318,292450190,mocap,-2.79542919922,10.2091796875,1.91353991699,0.138954411493,0.274827504746,0.951235210965,-0.0176947402201
2021/03/16/15:18:38.301066,64312,1615904318,302450180,mocap,-2.79557299805,10.2053886719,1.91303820801,0.13822943856,0.27496532102,0.951313862004,-0.0169888579852
2021/03/16/15:18:38.312152,64313,1615904318,312450171,mocap,-2.79570898438,10.2015800781,1.91259533691,0.137847873225,0.274975009086,0.951375449953,-0.0164761499495
2021/03/16/15:18:38.320727,64314,1615904318,322450161,mocap,-2.7958515625,10.1975878906,1.91200585938,0.137584450531,0.275500111661,0.951268326336,-0.0160866674731
2021/03/16/15:18:38.332313,64315,1615904318,332450151,mocap,-2.79600219727,10.1935283203,1.9114765625,0.137404999184,0.275511386293,0.951298519218,-0.0156354452229
2021/03/16/15:18:38.340776,64316,1615904318,342450142,mocap,-2.79613452148,10.1893496094,1.91086523438,0.137639917066,0.275615956693,0.951242949476,-0.0150982171064
2021/03/16/15:18:38.352223,64317,1615904318,352450132,mocap,-2.79629296875,10.1850908203,1.91026940918,0.137556292027,0.275829806523,0.951197003105,-0.0148473690684
2021/03/16/15:18:38.360947,64318,1615904318,362450123,mocap,-2.79645410156,10.180703125,1.90958837891,0.137885714975,0.276187293875,0.951048159534,-0.0146807881826
2021/03/16/15:18:38.370719,64319,1615904318,372450113,mocap,-2.79665600586,10.1762128906,1.90900500488,0.137578975326,0.276264461704,0.951079166289,-0.0140847719883
2021/03/16/15:18:38.382044,64320,1615904318,382450104,mocap,-2.79679541016,10.1716054688,1.90833850098,0.137916307516,0.276539427021,0.950955399587,-0.0137427781921
2021/03/16/15:18:38.390491,64321,1615904318,392450094,mocap,-2.79699023437,10.1669121094,1.90769482422,0.137526614271,0.276592776457,0.951002289931,-0.0133230093759
2021/03/16/15:18:38.401858,64322,1615904318,402450085,mocap,-2.79716699219,10.1621005859,1.90702832031,0.137953712751,0.277008653026,0.950825120827,-0.0129060982738
2021/03/16/15:18:38.410835,64323,1615904318,412450075,mocap,-2.79738647461,10.1571660156,1.90639196777,0.138721788041,0.277016484403,0.950713303645,-0.0127413294086
2021/03/16/15:18:38.421992,64324,1615904318,422450066,mocap,-2.79761816406,10.1520791016,1.90570507813,0.139453543516,0.277101434543,0.950581612233,-0.0127315963378
2021/03/16/15:18:38.430610,64325,1615904318,432450056,mocap,-2.7978762207,10.1469580078,1.90513317871,0.13965266294,0.276957094977,0.95059806388,-0.0124582645567
2021/03/16/15:18:38.440862,64326,1615904318,442450047,mocap,-2.79819750977,10.1417050781,1.90462658691,0.138474325493,0.276637972896,0.950873365305,-0.0116680043984
2021/03/16/15:18:38.452763,64327,1615904318,452450037,mocap,-2.79848852539,10.1363173828,1.90390710449,0.13924794434,0.276424272918,0.950822942442,-0.0116346260062
2021/03/16/15:18:38.460707,64328,1615904318,462450027,mocap,-2.79890454102,10.1308037109,1.90329345703,0.139896609944,0.27634129815,0.95075189926,-0.0116296130988
2021/03/16/15:18:38.471845,64329,1615904318,472450256,mocap,-2.79924389648,10.1251259766,1.9024666748,0.14010781893,0.277107205116,0.950502289195,-0.0112602575609
2021/03/16/15:18:38.480972,64330,1615904318,482450247,mocap,-2.79975439453,10.1194726563,1.90191772461,0.140380776054,0.276614397149,0.950609695078,-0.0109053146095
2021/03/16/15:18:38.491762,64331,1615904318,492450237,mocap,-2.80027880859,10.1136064453,1.90120007324,0.141396256903,0.276801807357,0.950402883066,-0.0110545282841
2021/03/16/15:18:38.501449,64332,1615904318,502450228,mocap,-2.80082666016,10.1077226563,1.90067810059,0.14191251332,0.276386063395,0.950443984108,-0.0113062835248
2021/03/16/15:18:38.510925,64333,1615904318,512450218,mocap,-2.80148657227,10.1017802734,1.90024133301,0.141205571985,0.276410864812,0.950548034,-0.0107915216774
2021/03/16/15:18:38.522470,64334,1615904318,522450209,mocap,-2.80220214844,10.0957207031,1.89979772949,0.143231009054,0.275785689158,0.950416633259,-0.0116339585424
2021/03/16/15:18:38.530832,64335,1615904318,532450199,mocap,-2.8029050293,10.0895244141,1.8993079834,0.143662169418,0.275502086408,0.95042472336,-0.0123545780173
2021/03/16/15:18:38.542558,64336,1615904318,542450190,mocap,-2.80366235352,10.0831992187,1.89869750977,0.142950902432,0.275090318641,0.950654361003,-0.012109799679
2021/03/16/15:18:38.550771,64337,1615904318,552450180,mocap,-2.80455126953,10.0769746094,1.89838061523,0.143130332108,0.275151931322,0.95060265681,-0.012637500603
2021/03/16/15:18:38.562475,64338,1615904318,562450171,mocap,-2.80537158203,10.0705761719,1.89794787598,0.143042210226,0.27493161096,0.950669706348,-0.0133653916983
2021/03/16/15:18:38.571281,64339,1615904318,572450161,mocap,-2.80642358398,10.0641787109,1.89764025879,0.144128860354,0.275653848832,0.950292082482,-0.0136666027966
2021/03/16/15:18:38.581357,64340,1615904318,582450151,mocap,-2.8073190918,10.0576210938,1.8971036377,0.143119368206,0.275148961766,0.950581721964,-0.014293016677
2021/03/16/15:18:38.591484,64341,1615904318,592450142,mocap,-2.80839648437,10.0510986328,1.89675683594,0.143562297985,0.27537363768,0.950440291907,-0.0149150161165
2021/03/16/15:18:38.601604,64342,1615904318,602450132,mocap,-2.80944970703,10.0445361328,1.89639294434,0.143737740917,0.275742203432,0.95029637112,-0.0155722384271
2021/03/16/15:18:38.612258,64343,1615904318,612450123,mocap,-2.81055175781,10.0379169922,1.89606359863,0.144544817514,0.276290782692,0.949996951061,-0.0166130157945
2021/03/16/15:18:38.620903,64344,1615904318,622450113,mocap,-2.81169580078,10.0312128906,1.8957442627,0.144171463604,0.276663353012,0.949937728673,-0.0170377085063
2021/03/16/15:18:38.631241,64345,1615904318,632450104,mocap,-2.81284936523,10.0244960938,1.89567724609,0.143022864906,0.278089807462,0.949684844947,-0.0175848668283
2021/03/16/15:18:38.642111,64346,1615904318,642450094,mocap,-2.8140715332,10.017734375,1.89584313965,0.143118379543,0.27888726637,0.949423575574,-0.018272935841
2021/03/16/15:18:38.650703,64347,1615904318,652450085,mocap,-2.81540478516,10.0110009766,1.89642651367,0.143947777988,0.281058389518,0.948640576638,-0.0191382951936
2021/03/16/15:18:38.662298,64348,1615904318,662450075,mocap,-2.81661816406,10.0041162109,1.89705895996,0.142918439233,0.281610486337,0.94861101389,-0.0201744089838
2021/03/16/15:18:38.670844,64349,1615904318,672450066,mocap,-2.81788720703,9.99713476563,1.89781115723,0.143211106066,0.282726642806,0.948212997349,-0.021173875581
2021/03/16/15:18:38.680995,64350,1615904318,682450056,mocap,-2.81914306641,9.99016601563,1.89879821777,0.143051095392,0.284608072977,0.94765508452,-0.0220106927057
2021/03/16/15:18:38.692082,64351,1615904318,692450047,mocap,-2.82037988281,9.98300976563,1.89962658691,0.143174972329,0.285128105466,0.94744588179,-0.0234348839786
2021/03/16/15:18:38.701098,64352,1615904318,702450037,mocap,-2.82166259766,9.9758671875,1.9007434082,0.143347262085,0.285931228047,0.947154866458,-0.0243425447556
2021/03/16/15:18:38.712061,64353,1615904318,712450027,mocap,-2.82290625,9.96871386719,1.90211767578,0.14453639623,0.287760196214,0.946384240119,-0.0256936495586
2021/03/16/15:18:38.720730,64354,1615904318,722450256,mocap,-2.82416333008,9.96137011719,1.90328442383,0.144699737562,0.288058175725,0.946229159228,-0.0271080867521
2021/03/16/15:18:38.732224,64355,1615904318,732450247,mocap,-2.82543383789,9.95403027344,1.90471435547,0.145103260907,0.28831951266,0.946057262709,-0.0281522029348
2021/03/16/15:18:38.740863,64356,1615904318,742450237,mocap,-2.82668188477,9.94669921875,1.90628466797,0.145399967374,0.289372813415,0.945647322258,-0.0295528137873
2021/03/16/15:18:38.752150,64357,1615904318,752450228,mocap,-2.82787426758,9.93922558594,1.90772973633,0.144602150361,0.289636127482,0.945671643848,-0.0301041475059
2021/03/16/15:18:38.762023,64358,1615904318,762450218,mocap,-2.82909057617,9.93169921875,1.90902612305,0.144862879392,0.289184907762,0.945726713747,-0.0314296497709
2021/03/16/15:18:38.770567,64359,1615904318,772450209,mocap,-2.83016967773,9.92418554687,1.91028808594,0.14521963599,0.289554982734,0.945526658382,-0.0323806134646
2021/03/16/15:18:38.780946,64360,1615904318,782450199,mocap,-2.83134301758,9.916640625,1.91134521484,0.146097577601,0.289164254504,0.945475485442,-0.0334011697101
2021/03/16/15:18:38.790825,64361,1615904318,792450190,mocap,-2.83234985352,9.90909960937,1.91224267578,0.146389110073,0.289003055809,0.945454295219,-0.0341120838976
2021/03/16/15:18:38.801881,64362,1615904318,802450180,mocap,-2.83346044922,9.90164550781,1.91309326172,0.147779238201,0.288716322173,0.945281177979,-0.035322320808
2021/03/16/15:18:38.810851,64363,1615904318,812450171,mocap,-2.83443457031,9.89404199219,1.91358325195,0.14760021422,0.288030336056,0.945498708245,-0.0358455299935
2021/03/16/15:18:38.820784,64364,1615904318,822450161,mocap,-2.83543432617,9.88649804687,1.91403100586,0.148034426579,0.287852932357,0.9454565963,-0.0365831953106
2021/03/16/15:18:38.830754,64365,1615904318,832450151,mocap,-2.8364296875,9.87905566406,1.91452563477,0.148337244937,0.287301433941,0.945559122687,-0.0370392968412
2021/03/16/15:18:38.840469,64366,1615904318,842450142,mocap,-2.83740917969,9.87166308594,1.91492858887,0.149149821512,0.287750310136,0.945266557003,-0.0377521244918
2021/03/16/15:18:38.852006,64367,1615904318,852450132,mocap,-2.83830371094,9.86416699219,1.91510449219,0.149859850956,0.287581970228,0.945175350108,-0.0384992124933
2021/03/16/15:18:38.861641,64368,1615904318,862450123,mocap,-2.83917260742,9.85667089844,1.9151307373,0.148776373073,0.287014844974,0.945511442326,-0.0386803589914
2021/03/16/15:18:38.870743,64369,1615904318,872450113,mocap,-2.8400480957,9.84923828125,1.91516882324,0.149245440478,0.287012202915,0.945401928352,-0.0395599535537
2021/03/16/15:18:38.881830,64370,1615904318,882450104,mocap,-2.84086938477,9.84181933594,1.91524804687,0.149965502062,0.286988552277,0.945273083267,-0.0400838447843
2021/03/16/15:18:38.893138,64371,1615904318,892450094,mocap,-2.84171655273,9.83439550781,1.91528833008,0.149770293234,0.286797582655,0.945329476827,-0.0408435325724
2021/03/16/15:18:38.900605,64372,1615904318,902450085,mocap,-2.84245678711,9.82695703125,1.91530395508,0.149875436268,0.286585702074,0.945333724926,-0.0418345925343
2021/03/16/15:18:38.912013,64373,1615904318,912450075,mocap,-2.84316503906,9.81948242187,1.91536853027,0.149917535095,0.286426897041,0.945345775555,-0.0424938499653
2021/03/16/15:18:38.921644,64374,1615904318,922450066,mocap,-2.84398388672,9.81203125,1.91551721191,0.150039115314,0.286055240256,0.945387569316,-0.0436234448734
2021/03/16/15:18:38.930711,64375,1615904318,932450056,mocap,-2.84459179688,9.80457421875,1.91576281738,0.14914558039,0.285568588387,0.945641224036,-0.0443718724749
2021/03/16/15:18:38.942731,64376,1615904318,942450047,mocap,-2.84525585937,9.79705078125,1.91606665039,0.148914444016,0.2851556197,0.945756311509,-0.0453404565354
2021/03/16/15:18:38.950843,64377,1615904318,952450037,mocap,-2.84594213867,9.78949609375,1.91647949219,0.148262612004,0.283977497738,0.946158873556,-0.0464582314573
2021/03/16/15:18:38.962424,64378,1615904318,962450027,mocap,-2.84651782227,9.78186035156,1.91695874023,0.147291373059,0.283756437517,0.946339908017,-0.0472050677303
2021/03/16/15:18:38.970965,64379,1615904318,972450256,mocap,-2.84709960937,9.77429101562,1.91763647461,0.147017568351,0.28255481609,0.946674965039,-0.048529506176
2021/03/16/15:18:38.982780,64380,1615904318,982450247,mocap,-2.84765014648,9.76663574219,1.91827099609,0.146651225874,0.281590510808,0.946949904221,-0.049860592843
2021/03/16/15:18:38.990659,64381,1615904318,992450237,mocap,-2.84807470703,9.75888769531,1.91879016113,0.14573482722,0.280757917682,0.947286145489,-0.0508459889268
2021/03/16/15:18:39.002572,64382,1615904319,2450228,mocap,-2.84850317383,9.75116699219,1.9194029541,0.145238084977,0.279486475825,0.947667687419,-0.0521455437207
2021/03/16/15:18:39.010738,64383,1615904319,12450218,mocap,-2.84889282227,9.74343652344,1.9199921875,0.144833560549,0.278205936278,0.948017624135,-0.0537333315076
2021/03/16/15:18:39.022346,64384,1615904319,22450209,mocap,-2.84923413086,9.73567285156,1.92047375488,0.144382795079,0.27712776144,0.948334969284,-0.0549055006299
2021/03/16/15:18:39.031264,64385,1615904319,32450199,mocap,-2.84950097656,9.72792480469,1.92085693359,0.143773235833,0.275772561732,0.948738777411,-0.0563336738308
2021/03/16/15:18:39.042809,64386,1615904319,42450190,mocap,-2.84981787109,9.72033691406,1.92143212891,0.143757097963,0.275201472769,0.948808871969,-0.0579634933491
2021/03/16/15:18:39.050862,64387,1615904319,52450180,mocap,-2.85000292969,9.71253710938,1.92146801758,0.144225080371,0.273751112755,0.949043940707,-0.059791830763
2021/03/16/15:18:39.062194,64388,1615904319,62450171,mocap,-2.85013134766,9.70476171875,1.92150598145,0.143959568611,0.27314632484,0.949168513974,-0.061203336853
2021/03/16/15:18:39.070519,64389,1615904319,72450161,mocap,-2.85028369141,9.69702832031,1.9214128418,0.142866673726,0.273876199713,0.94907224961,-0.0619903428111
2021/03/16/15:18:39.082139,64390,1615904319,82450151,mocap,-2.85037548828,9.68930957031,1.92127893066,0.143320118242,0.272646072211,0.949244149579,-0.0637104015315
2021/03/16/15:18:39.090789,64391,1615904319,92450142,mocap,-2.8504284668,9.68158984375,1.92098815918,0.143810437513,0.272664620675,0.949061094151,-0.0652349506209
2021/03/16/15:18:39.102300,64392,1615904319,102450132,mocap,-2.85041259766,9.67381445313,1.92058911133,0.143882028779,0.27297414796,0.948877791404,-0.0664380774872
2021/03/16/15:18:39.110731,64393,1615904319,112450123,mocap,-2.85036914062,9.66603417969,1.92010656738,0.144205249094,0.273054027122,0.948720047482,-0.0676506531284
2021/03/16/15:18:39.122085,64394,1615904319,122450113,mocap,-2.85030493164,9.65823535156,1.91966052246,0.144166309862,0.27376397956,0.948435951181,-0.0688375844192
2021/03/16/15:18:39.130860,64395,1615904319,132450104,mocap,-2.85013208008,9.65027148438,1.91875463867,0.14470221626,0.274173260501,0.948154551486,-0.0699516519751
2021/03/16/15:18:39.142086,64396,1615904319,142450094,mocap,-2.84999389648,9.64238378906,1.91809460449,0.145337434818,0.27400774426,0.947995767682,-0.0714199890243
2021/03/16/15:18:39.150766,64397,1615904319,152450085,mocap,-2.84980444336,9.63446875,1.91747119141,0.145295939253,0.275157533725,0.947608783348,-0.0722150413231
2021/03/16/15:18:39.162272,64398,1615904319,162450075,mocap,-2.84958227539,9.62639257812,1.91644836426,0.145338272729,0.275944749705,0.947303983561,-0.0731192760098
2021/03/16/15:18:39.170821,64399,1615904319,172450066,mocap,-2.84934521484,9.61836230469,1.91557543945,0.146333062183,0.276150856472,0.9469906516,-0.0744046280057
2021/03/16/15:18:39.181808,64400,1615904319,182450056,mocap,-2.849078125,9.61025097656,1.91457568359,0.146577570448,0.276450237352,0.946798756177,-0.0752488372103
2021/03/16/15:18:39.190799,64401,1615904319,192450047,mocap,-2.84878149414,9.60207519531,1.91345166016,0.147835164052,0.277348947098,0.946234151312,-0.0765719406034
2021/03/16/15:18:39.201971,64402,1615904319,202450037,mocap,-2.84849145508,9.59379003906,1.91217370605,0.148789619914,0.277384847004,0.945993556443,-0.0775595030318
2021/03/16/15:18:39.210788,64403,1615904319,212450027,mocap,-2.84819238281,9.58552246094,1.91104309082,0.148833907888,0.278802133803,0.945532371235,-0.0780153173636
2021/03/16/15:18:39.220760,64404,1615904319,222450256,mocap,-2.84786938477,9.57716308594,1.90976647949,0.149385093891,0.279038265886,0.945309181838,-0.0788180284429
2021/03/16/15:18:39.230718,64405,1615904319,232450247,mocap,-2.84755908203,9.56879394531,1.90847595215,0.150193409135,0.279740180885,0.944932230608,-0.0793123344848
2021/03/16/15:18:39.241856,64406,1615904319,242450237,mocap,-2.84718017578,9.56032128906,1.90708666992,0.150542534184,0.280387193583,0.94463264041,-0.0799321497411
2021/03/16/15:18:39.250821,64407,1615904319,252450228,mocap,-2.84683227539,9.55185058594,1.90570007324,0.151226532629,0.281049066228,0.944268540795,-0.0806155632586
2021/03/16/15:18:39.260652,64408,1615904319,262450218,mocap,-2.84647314453,9.54332128906,1.90430395508,0.151398559961,0.281808307549,0.943997958748,-0.0808109832388
2021/03/16/15:18:39.270780,64409,1615904319,272450209,mocap,-2.84611303711,9.53479394531,1.90292749023,0.151724629823,0.28261720182,0.9436728547,-0.0811707417975
2021/03/16/15:18:39.281603,64410,1615904319,282450199,mocap,-2.84570117188,9.52620800781,1.90158166504,0.151377591663,0.283464739726,0.943478270753,-0.0811252922489
2021/03/16/15:18:39.290736,64411,1615904319,292450190,mocap,-2.84532641602,9.51756347656,1.90024682617,0.152234274636,0.283784703623,0.943209334105,-0.0815298373452
2021/03/16/15:18:39.302634,64412,1615904319,302450180,mocap,-2.84491894531,9.50895117187,1.89921813965,0.151597784955,0.285310784988,0.942900330749,-0.0809620229129
2021/03/16/15:18:39.310750,64413,1615904319,312450171,mocap,-2.84451171875,9.50020507812,1.8982076416,0.151665600621,0.286181400866,0.942638010841,-0.0808166769215
2021/03/16/15:18:39.322854,64414,1615904319,322450161,mocap,-2.84409057617,9.49143164063,1.89731262207,0.151003810602,0.286871877557,0.942568556116,-0.0804170317692
2021/03/16/15:18:39.330911,64415,1615904319,332450151,mocap,-2.84365527344,9.48257617187,1.89651794434,0.151179163336,0.287712222654,0.942325404499,-0.0799335135934
2021/03/16/15:18:39.340764,64416,1615904319,342450142,mocap,-2.84319091797,9.47368652344,1.89587854004,0.15087948632,0.288198360955,0.942261983606,-0.0794948257507
2021/03/16/15:18:39.350647,64417,1615904319,352450132,mocap,-2.84268115234,9.46474414062,1.89532507324,0.150589350149,0.288700963709,0.942214413159,-0.0787819246124
2021/03/16/15:18:39.362578,64418,1615904319,362450123,mocap,-2.8421862793,9.45576074219,1.89491992187,0.150336704258,0.289243590969,0.942154970446,-0.0779809621098
2021/03/16/15:18:39.371023,64419,1615904319,372450113,mocap,-2.84164233398,9.44677929688,1.89469055176,0.149869224352,0.289819383477,0.942136584119,-0.0769583209738
2021/03/16/15:18:39.381769,64420,1615904319,382450104,mocap,-2.84107397461,9.43778417969,1.89478527832,0.149110441091,0.290729702663,0.942076535436,-0.0757239838616
2021/03/16/15:18:39.392953,64421,1615904319,392450094,mocap,-2.840515625,9.42876660156,1.89520349121,0.148070031791,0.291407332463,0.942127726922,-0.0745142211826
2021/03/16/15:18:39.400849,64422,1615904319,402450085,mocap,-2.83993896484,9.41970214844,1.89593493652,0.148361470869,0.292432853236,0.941838161429,-0.0735716090955
2021/03/16/15:18:39.410753,64423,1615904319,412450075,mocap,-2.83933398438,9.41062207031,1.8968203125,0.147819290954,0.292978326691,0.941839482512,-0.0724675037813
2021/03/16/15:18:39.422426,64424,1615904319,422450066,mocap,-2.83869165039,9.4014609375,1.89779455566,0.147721737904,0.293376047093,0.94182189693,-0.0712762339931
2021/03/16/15:18:39.431419,64425,1615904319,432450056,mocap,-2.83798950195,9.39226074219,1.89883728027,0.146722925587,0.293375141054,0.942094867575,-0.069718602525
2021/03/16/15:18:39.441043,64426,1615904319,442450047,mocap,-2.83727001953,9.38311816406,1.90010778809,0.146874243391,0.293535096521,0.942118988266,-0.0683880661789
2021/03/16/15:18:39.450984,64427,1615904319,452450037,mocap,-2.83654052734,9.37399609375,1.90152075195,0.146980960571,0.293969901157,0.942057941949,-0.0671202450691
2021/03/16/15:18:39.462414,64428,1615904319,462450027,mocap,-2.83579467773,9.36483691406,1.90294433594,0.147168002782,0.29384501447,0.942143764714,-0.0660440167125
2021/03/16/15:18:39.470918,64429,1615904319,472450256,mocap,-2.8350534668,9.35568164063,1.90442956543,0.147329046706,0.293631116134,0.942254495532,-0.0650490502988
2021/03/16/15:18:39.482453,64430,1615904319,482450247,mocap,-2.83432714844,9.3465,1.90581005859,0.147749618215,0.293185529519,0.942385982844,-0.0641946817041
2021/03/16/15:18:39.492432,64431,1615904319,492450237,mocap,-2.83358422852,9.33736230469,1.90720251465,0.148750190591,0.29249601914,0.942504700996,-0.0632799574731
2021/03/16/15:18:39.500610,64432,1615904319,502450228,mocap,-2.83281811523,9.32823730469,1.90837451172,0.149074552508,0.291481479108,0.942841855845,-0.0621656110901
2021/03/16/15:18:39.511355,64433,1615904319,512450218,mocap,-2.8321105957,9.31908203125,1.90932897949,0.150058707482,0.29073598621,0.94295372149,-0.0615894259677
2021/03/16/15:18:39.520995,64434,1615904319,522450209,mocap,-2.83147167969,9.31011035156,1.91025292969,0.151102190515,0.29020357391,0.943004367601,-0.0607683328422
2021/03/16/15:18:39.533879,64435,1615904319,532450199,mocap,-2.83086328125,9.30111621094,1.91090600586,0.151884986022,0.289803545083,0.943038838586,-0.0601882107049
2021/03/16/15:18:39.540796,64436,1615904319,542450190,mocap,-2.83032177734,9.29223339844,1.91151953125,0.152953027074,0.289611771689,0.942975481479,-0.0593937536752
2021/03/16/15:18:39.551333,64437,1615904319,552450180,mocap,-2.82983886719,9.28340820312,1.9120715332,0.153931481698,0.289622352992,0.942873733019,-0.0584218342165
2021/03/16/15:18:39.562450,64438,1615904319,562450171,mocap,-2.8294074707,9.27461035156,1.91256066895,0.154468770699,0.289530977959,0.942881492743,-0.0573210910955
2021/03/16/15:18:39.570648,64439,1615904319,572450161,mocap,-2.82902514648,9.26585449219,1.91304516602,0.155488331446,0.289580059256,0.942758783638,-0.0563261653287
2021/03/16/15:18:39.581300,64440,1615904319,582450151,mocap,-2.82869677734,9.25713476563,1.91357836914,0.155978273761,0.289363571768,0.94281257752,-0.0551719438604
2021/03/16/15:18:39.592191,64441,1615904319,592450142,mocap,-2.82846557617,9.24838476562,1.91410681152,0.156721072717,0.289067691122,0.942849212819,-0.0539790273601
2021/03/16/15:18:39.602077,64442,1615904319,602450132,mocap,-2.82826513672,9.23959082031,1.91462792969,0.157062242484,0.288709126622,0.942976627143,-0.0526647708592
2021/03/16/15:18:39.612310,64443,1615904319,612450123,mocap,-2.82816992187,9.23083984375,1.91520092773,0.157648874919,0.288207109495,0.943112848582,-0.0512019819925
2021/03/16/15:18:39.622102,64444,1615904319,622450113,mocap,-2.82810131836,9.22206738281,1.91586193848,0.157854185645,0.28746486995,0.943382981599,-0.0497449473888
2021/03/16/15:18:39.630758,64445,1615904319,632450104,mocap,-2.82813696289,9.21330566406,1.91652258301,0.158092461918,0.286582511204,0.943686616108,-0.0482991408697
2021/03/16/15:18:39.641069,64446,1615904319,642450094,mocap,-2.82817822266,9.20444824219,1.91716564941,0.158838827522,0.285616101684,0.943914475224,-0.0471076673732
2021/03/16/15:18:39.651023,64447,1615904319,652450085,mocap,-2.82829418945,9.19566210938,1.91788171387,0.159070796607,0.284303041237,0.944337649576,-0.0457675906857
2021/03/16/15:18:39.662104,64448,1615904319,662450075,mocap,-2.82848217773,9.1868359375,1.9185201416,0.159393320662,0.282958650397,0.94475165983,-0.0444124466047
2021/03/16/15:18:39.672037,64449,1615904319,672450066,mocap,-2.82869042969,9.17800683594,1.91910839844,0.159501429591,0.281282879591,0.945298257831,-0.0430168453636
2021/03/16/15:18:39.680688,64450,1615904319,682450056,mocap,-2.82890234375,9.16916210937,1.91968395996,0.159419694489,0.2797204888,0.945831707954,-0.0417634727151
2021/03/16/15:18:39.691826,64451,1615904319,692450047,mocap,-2.82915551758,9.16027734375,1.92016271973,0.159496299955,0.277888070816,0.946405866124,-0.04068274094
2021/03/16/15:18:39.702724,64452,1615904319,702450037,mocap,-2.82957861328,9.15151855469,1.92065393066,0.159497953993,0.276222615867,0.946940675038,-0.0395578878306
2021/03/16/15:18:39.710674,64453,1615904319,712450027,mocap,-2.83001831055,9.14269824219,1.92100402832,0.159722533491,0.274658436991,0.947396220221,-0.0386246170868
2021/03/16/15:18:39.722622,64454,1615904319,722450256,mocap,-2.83044921875,9.13388964844,1.92129956055,0.159302784044,0.272976856064,0.94798618715,-0.0377946942922
2021/03/16/15:18:39.730582,64455,1615904319,732450247,mocap,-2.83093188477,9.12514257813,1.92157202148,0.158898899101,0.271471833082,0.948532672864,-0.0366053670182
2021/03/16/15:18:39.741808,64456,1615904319,742450237,mocap,-2.83147607422,9.11636816406,1.92164404297,0.15885931637,0.269850081585,0.949018527919,-0.0361728640634
2021/03/16/15:18:39.750773,64457,1615904319,752450228,mocap,-2.83209472656,9.10762109375,1.92163757324,0.158355692954,0.268695389827,0.949465597889,-0.0352324949816
2021/03/16/15:18:39.762672,64458,1615904319,762450218,mocap,-2.83263134766,9.09895898438,1.92159143066,0.157884416144,0.267536446921,0.949911931937,-0.0341187553285
2021/03/16/15:18:39.770646,64459,1615904319,772450209,mocap,-2.83325097656,9.09030664063,1.92143652344,0.158078755041,0.26692823039,0.950061753424,-0.0338097648675
2021/03/16/15:18:39.782420,64460,1615904319,782450199,mocap,-2.83395849609,9.08168261719,1.921046875,0.157491233748,0.266742284989,0.950243361573,-0.0329030875474
2021/03/16/15:18:39.790364,64461,1615904319,792450190,mocap,-2.83448413086,9.073078125,1.92064001465,0.157111537511,0.26632269387,0.950449471429,-0.0321558647803
2021/03/16/15:18:39.802859,64462,1615904319,802450180,mocap,-2.83518652344,9.06445800781,1.92001428223,0.156731011242,0.266442331883,0.950497515493,-0.0315966981051
2021/03/16/15:18:39.810849,64463,1615904319,812450171,mocap,-2.8358527832,9.05585546875,1.91943103027,0.156909800224,0.266446893489,0.950486415954,-0.0309990646893
2021/03/16/15:18:39.822795,64464,1615904319,822450161,mocap,-2.83645507813,9.04723535156,1.9186550293,0.155800984249,0.266532621312,0.950669667162,-0.0302257919735
2021/03/16/15:18:39.830572,64465,1615904319,832450151,mocap,-2.83722192383,9.03862402344,1.91780749512,0.156292287277,0.267051755028,0.950454402152,-0.0298748368795
