time,.header.seq,.header.stamp.secs,.header.stamp.nsecs,.header.frame_id,.pose.position.x,.pose.position.y,.pose.position.z,.pose.orientation.x,.pose.orientation.y,.pose.orientation.z,.pose.orientation.w
2021/03/16/13:49:29.316297,669422,1615898969,318171024,mocap,-2.78404174805,10.4114267578,1.93257763672,0.164351477251,0.254443821405,0.952884698499,0.0160526163505
2021/03/16/13:49:29.327278,669423,1615898969,328171015,mocap,-2.78411645508,10.4115097656,1.93276696777,0.162195492152,0.256466973753,0.952678841775,0.0178983987203
2021/03/16/13:49:29.335779,669424,1615898969,338171005,mocap,-2.78407885742,10.4115273438,1.93278833008,0.161617483369,0.257906285208,0.9523771119,0.0184924369397
2021/03/16/13:49:29.346204,669425,1615898969,348170996,mocap,-2.78396606445,10.4115078125,1.93277966309,0.161170245139,0.259033695402,0.952135784359,0.0190564091064
2021/03/16/13:49:29.358011,669426,1615898969,358170986,mocap,-2.78385839844,10.4114121094,1.93275158691,0.160977714603,0.260015781065,0.951892618879,0.0194527810427
2021/03/16/13:49:29.366014,669427,1615898969,368170977,mocap,-2.78370800781,10.4112558594,1.93271826172,0.160839321362,0.260680286503,0.951728368187,0.0197387970218
2021/03/16/13:49:29.376490,669428,1615898969,378171206,mocap,-2.78357592773,10.4110693359,1.93268261719,0.160882837607,0.261210397007,0.951571527448,0.019936833426
2021/03/16/13:49:29.386295,669429,1615898969,388171196,mocap,-2.78337719727,10.4108291016,1.93268762207,0.160736019665,0.261568520579,0.951493203094,0.0201623410613
2021/03/16/13:49:29.397624,669430,1615898969,398171186,mocap,-2.7830793457,10.4105048828,1.93250415039,0.162062332113,0.261135897636,0.951406555677,0.0192198879161
2021/03/16/13:49:29.405747,669431,1615898969,408171177,mocap,-2.78280200195,10.4100927734,1.93226123047,0.163463636273,0.260563643881,0.951335250641,0.0186403782158
2021/03/16/13:49:29.416314,669432,1615898969,418171167,mocap,-2.78269677734,10.4098623047,1.93241259766,0.162040425249,0.261223170993,0.951378848765,0.0195869822373
2021/03/16/13:49:29.425731,669433,1615898969,428171158,mocap,-2.78255688477,10.4097265625,1.93261816406,0.160659240704,0.262421753348,0.951264167397,0.020492235744
2021/03/16/13:49:29.435824,669434,1615898969,438171148,mocap,-2.78237573242,10.4094794922,1.93256896973,0.160611119309,0.262747799485,0.951180248498,0.0205865257889
2021/03/16/13:49:29.445671,669435,1615898969,448171139,mocap,-2.78219287109,10.4092294922,1.93247265625,0.160675393196,0.26333941736,0.951006473518,0.0205535999199
2021/03/16/13:49:29.457573,669436,1615898969,458171129,mocap,-2.78200488281,10.4090068359,1.93237304688,0.160819431607,0.264016632161,0.950793298662,0.0206019751725
2021/03/16/13:49:29.465979,669437,1615898969,468171120,mocap,-2.78180664063,10.4087509766,1.93229431152,0.160582452299,0.264423793239,0.950719189088,0.0206483105407
2021/03/16/13:49:29.476207,669438,1615898969,478171110,mocap,-2.78163476562,10.4084755859,1.93216015625,0.161255601212,0.265157428664,0.950402506775,0.0205729711618
2021/03/16/13:49:29.486077,669439,1615898969,488171101,mocap,-2.7814519043,10.4082138672,1.93207666016,0.161329543684,0.265675661908,0.950242985219,0.0206756402154
2021/03/16/13:49:29.495978,669440,1615898969,498171091,mocap,-2.78131176758,10.4079316406,1.93200170898,0.161770928895,0.266222340882,0.95001500488,0.0206716985595
2021/03/16/13:49:29.506157,669441,1615898969,508171082,mocap,-2.78114575195,10.4076298828,1.93184924316,0.162162792103,0.266862412756,0.949769013645,0.0206519987853
2021/03/16/13:49:29.515839,669442,1615898969,518171072,mocap,-2.78100927734,10.4073535156,1.93174267578,0.162336527123,0.267447799502,0.949575882905,0.0205955449019
2021/03/16/13:49:29.527128,669443,1615898969,528171062,mocap,-2.78090087891,10.4070742187,1.93163537598,0.162622487765,0.268194665736,0.949317134264,0.020555376069
2021/03/16/13:49:29.535930,669444,1615898969,538171053,mocap,-2.78078833008,10.4067998047,1.93154125977,0.162687084915,0.268794934509,0.949135152644,0.0206070100584
2021/03/16/13:49:29.547170,669445,1615898969,548171043,mocap,-2.78070117188,10.4065566406,1.93147888184,0.162917299862,0.269487332475,0.948900397019,0.0205564212201
2021/03/16/13:49:29.555917,669446,1615898969,558171034,mocap,-2.78062036133,10.4062822266,1.93134777832,0.162890750588,0.270300738341,0.94867335848,0.0205664398311
2021/03/16/13:49:29.567884,669447,1615898969,568171024,mocap,-2.780578125,10.4060244141,1.93126940918,0.163362542241,0.271082971527,0.948372546113,0.0204013333334
2021/03/16/13:49:29.575871,669448,1615898969,578171015,mocap,-2.78051269531,10.4057841797,1.93117260742,0.163351345871,0.272025297969,0.948104864169,0.0203896850121
2021/03/16/13:49:29.585864,669449,1615898969,588171005,mocap,-2.78048266602,10.4055791016,1.93109008789,0.163423113309,0.272916808632,0.947840958321,0.020170002171
2021/03/16/13:49:29.596789,669450,1615898969,598170996,mocap,-2.78042993164,10.4053808594,1.93093505859,0.163348222514,0.273924238371,0.947567488562,0.0199681467408
2021/03/16/13:49:29.605762,669451,1615898969,608170986,mocap,-2.78042041016,10.4052363281,1.93080639648,0.163262153434,0.275178402213,0.947223819715,0.0197322144865
2021/03/16/13:49:29.617840,669452,1615898969,618170977,mocap,-2.78045214844,10.4051855469,1.93076623535,0.163147145784,0.276451837265,0.946876123321,0.0195704596221
2021/03/16/13:49:29.625926,669453,1615898969,628171206,mocap,-2.78042285156,10.4051523438,1.93065356445,0.16318671983,0.278029826102,0.946414699029,0.0192024248376
2021/03/16/13:49:29.637774,669454,1615898969,638171196,mocap,-2.78045874023,10.4051152344,1.93058789063,0.163016844151,0.279623994657,0.945976008705,0.0191131102272
2021/03/16/13:49:29.645797,669455,1615898969,648171186,mocap,-2.78046289062,10.4051552734,1.93051196289,0.163135334027,0.281504865425,0.945404056182,0.0187895375281
2021/03/16/13:49:29.657617,669456,1615898969,658171177,mocap,-2.78051464844,10.4051992188,1.9304675293,0.163310660336,0.283082922751,0.944909049078,0.0184545719524
2021/03/16/13:49:29.665756,669457,1615898969,668171167,mocap,-2.78054956055,10.4052324219,1.93039538574,0.163224024905,0.284834549092,0.944400978413,0.0182751768143
2021/03/16/13:49:29.677765,669458,1615898969,678171158,mocap,-2.78061743164,10.4052753906,1.93035412598,0.163142162834,0.286475057891,0.943919645308,0.0182312027217
2021/03/16/13:49:29.685920,669459,1615898969,688171148,mocap,-2.78053833008,10.4052451172,1.93007104492,0.164458482373,0.287627907698,0.943365014101,0.0169130878096
2021/03/16/13:49:29.697597,669460,1615898969,698171139,mocap,-2.78069042969,10.4052607422,1.93008483887,0.163954358093,0.288887964831,0.943063424959,0.0171490115497
2021/03/16/13:49:29.705993,669461,1615898969,708171129,mocap,-2.78080639648,10.40528125,1.92993884277,0.163609988148,0.290130559624,0.942738457018,0.0173270856027
2021/03/16/13:49:29.717687,669462,1615898969,718171120,mocap,-2.78097802734,10.4052382812,1.92987145996,0.163231661422,0.291216281613,0.942459822755,0.0178320212544
2021/03/16/13:49:29.725947,669463,1615898969,728171110,mocap,-2.78118554688,10.4051923828,1.92987817383,0.162779501499,0.292107982293,0.94225430576,0.018236829702
2021/03/16/13:49:29.737601,669464,1615898969,738171101,mocap,-2.78140527344,10.4050917969,1.92984863281,0.162131251472,0.292990276957,0.942080893108,0.0188080024162
2021/03/16/13:49:29.745996,669465,1615898969,748171091,mocap,-2.78162915039,10.4049169922,1.92982702637,0.161885321171,0.293522289416,0.941949007269,0.0192319841915
2021/03/16/13:49:29.757267,669466,1615898969,758171082,mocap,-2.78187939453,10.404703125,1.92981616211,0.161323285385,0.293586511193,0.942018610493,0.0195628321555
2021/03/16/13:49:29.765757,669467,1615898969,768171072,mocap,-2.78210913086,10.4044765625,1.92984069824,0.160971207503,0.293607534292,0.942063422755,0.0199847350912
2021/03/16/13:49:29.777176,669468,1615898969,778171062,mocap,-2.78235888672,10.4042119141,1.92991784668,0.160391567301,0.293332156591,0.942239321522,0.0203926263702
2021/03/16/13:49:29.785966,669469,1615898969,788171053,mocap,-2.78258056641,10.4038730469,1.92996154785,0.160055840444,0.293047120802,0.942379286369,0.0206588015951
2021/03/16/13:49:29.796281,669470,1615898969,798171043,mocap,-2.78281567383,10.4035615234,1.93006958008,0.15952451051,0.292298204919,0.942697241316,0.020871273631
2021/03/16/13:49:29.807933,669471,1615898969,808171034,mocap,-2.78302490234,10.4031904297,1.93015783691,0.159277885519,0.291664045376,0.942932514104,0.0209978896778
2021/03/16/13:49:29.815967,669472,1615898969,818171024,mocap,-2.78320996094,10.4027939453,1.9302064209,0.158581243643,0.290565088444,0.943386733012,0.0211041995998
2021/03/16/13:49:29.827557,669473,1615898969,828171015,mocap,-2.78337841797,10.4024306641,1.93031311035,0.158280728302,0.289644989938,0.943716096269,0.0212819417825
2021/03/16/13:49:29.835811,669474,1615898969,838171005,mocap,-2.78370263672,10.4021474609,1.93060534668,0.156650840135,0.288920978011,0.944185065414,0.0223547861749
2021/03/16/13:49:29.847826,669475,1615898969,848170996,mocap,-2.78384887695,10.4017900391,1.93065686035,0.156514242808,0.287864517524,0.944535495695,0.0221363004182
2021/03/16/13:49:29.856075,669476,1615898969,858170986,mocap,-2.78397021484,10.4014472656,1.93072546387,0.156075500767,0.286554921686,0.94501104356,0.0219283881471
2021/03/16/13:49:29.867511,669477,1615898969,868170977,mocap,-2.78406005859,10.4011474609,1.93078955078,0.155691476849,0.28541493524,0.945424869259,0.0216863051194
2021/03/16/13:49:29.876046,669478,1615898969,878171206,mocap,-2.78414428711,10.4008916016,1.93085754395,0.155686036343,0.284280823261,0.945780220655,0.0211200500064
2021/03/16/13:49:29.885935,669479,1615898969,888171196,mocap,-2.78416430664,10.4006777344,1.93089355469,0.155614207382,0.283385714742,0.946069359248,0.0207249777403
2021/03/16/13:49:29.897379,669480,1615898969,898171186,mocap,-2.78417016602,10.4005117187,1.9309432373,0.155619276387,0.282405127134,0.946370234517,0.0203313335087
2021/03/16/13:49:29.905915,669481,1615898969,908171177,mocap,-2.7841496582,10.4003701172,1.93098095703,0.155545851844,0.281567871357,0.946640453309,0.0199216457866
2021/03/16/13:49:29.917355,669482,1615898969,918171167,mocap,-2.78412939453,10.4002919922,1.93101599121,0.155815101991,0.280768759485,0.946842870073,0.0194714690504
2021/03/16/13:49:29.925552,669483,1615898969,928171158,mocap,-2.78408007813,10.4002607422,1.93103503418,0.155932062185,0.280192756474,0.947001996667,0.0190903633015
2021/03/16/13:49:29.936471,669484,1615898969,938171148,mocap,-2.78403417969,10.4002568359,1.93108984375,0.156114765606,0.27964084301,0.94714157236,0.0187622464964
2021/03/16/13:49:29.945953,669485,1615898969,948171139,mocap,-2.78399584961,10.4003027344,1.93114794922,0.156154736208,0.279164726253,0.947280073547,0.0185259392221
2021/03/16/13:49:29.957599,669486,1615898969,958171129,mocap,-2.78396118164,10.4003671875,1.93118139648,0.156470196024,0.278696587023,0.947371824938,0.018219046699
2021/03/16/13:49:29.965936,669487,1615898969,968171120,mocap,-2.78392333984,10.400453125,1.93123071289,0.156516101886,0.278435153209,0.947440605126,0.018245098318
2021/03/16/13:49:29.977229,669488,1615898969,978171110,mocap,-2.78388330078,10.4005703125,1.93130334473,0.1565651574,0.278250459771,0.947487095378,0.0182271736593
2021/03/16/13:49:29.987316,669489,1615898969,988171101,mocap,-2.7838605957,10.4006914063,1.93135095215,0.156517900168,0.277875673321,0.947605323838,0.0182044687379
2021/03/16/13:49:29.995591,669490,1615898969,998171091,mocap,-2.78384570312,10.4008164062,1.93141052246,0.156580707076,0.277692427989,0.947648095067,0.0182344707754
2021/03/16/13:49:30.006399,669491,1615898970,8171082,mocap,-2.78384008789,10.4009697266,1.93146630859,0.156475925966,0.277402473635,0.947747192673,0.0183957296038
2021/03/16/13:49:30.015723,669492,1615898970,18171072,mocap,-2.78384936523,10.4011328125,1.93155175781,0.156807126278,0.277373070911,0.947697342487,0.0185864745285
2021/03/16/13:49:30.026480,669493,1615898970,28171062,mocap,-2.78382128906,10.4013212891,1.93160803223,0.156746372221,0.277264352029,0.947733694625,0.0188651572919
2021/03/16/13:49:30.036145,669494,1615898970,38171053,mocap,-2.78378808594,10.4014619141,1.93159790039,0.156966029883,0.277279402592,0.947688647327,0.0190793999118
2021/03/16/13:49:30.045832,669495,1615898970,48171043,mocap,-2.78376586914,10.4016103516,1.93165002441,0.156941461619,0.277292466061,0.947681241441,0.0194557647881
2021/03/16/13:49:30.057158,669496,1615898970,58171034,mocap,-2.78372094727,10.4017373047,1.93165075684,0.157071303627,0.2772203458,0.947675580852,0.0197097699868
2021/03/16/13:49:30.065977,669497,1615898970,68171024,mocap,-2.78367700195,10.4018886719,1.93168920898,0.157236543404,0.277382883537,0.947590542156,0.0201882949961
2021/03/16/13:49:30.076322,669498,1615898970,78171015,mocap,-2.78361889648,10.4020087891,1.93172839355,0.157578691609,0.277256160004,0.94756767727,0.0203339195036
2021/03/16/13:49:30.086173,669499,1615898970,88171005,mocap,-2.78354052734,10.4021035156,1.93173852539,0.157741716559,0.27714888165,0.947564013176,0.0207002421613
2021/03/16/13:49:30.095964,669500,1615898970,98170996,mocap,-2.78347290039,10.4021855469,1.93177636719,0.15810294243,0.277035377645,0.947529250753,0.02105165068
2021/03/16/13:49:30.107006,669501,1615898970,108170986,mocap,-2.78341943359,10.4022587891,1.93183312988,0.158097640728,0.27689959914,0.947561261164,0.0214339571597
2021/03/16/13:49:30.118238,669502,1615898970,118170977,mocap,-2.78337597656,10.402328125,1.93188024902,0.158419244233,0.276729889078,0.947553012945,0.0216149635361
2021/03/16/13:49:30.125865,669503,1615898970,128171206,mocap,-2.78332202148,10.4023896484,1.9319395752,0.158239452968,0.2765265476,0.947635531219,0.0219145862165
2021/03/16/13:49:30.135871,669504,1615898970,138171196,mocap,-2.78328466797,10.4024970703,1.93201220703,0.158335376123,0.27640647662,0.947646522629,0.0222587845744
2021/03/16/13:49:30.146897,669505,1615898970,148171186,mocap,-2.78325732422,10.4025917969,1.93206335449,0.158190058682,0.276201549043,0.947725369291,0.0224775462142
2021/03/16/13:49:30.156180,669506,1615898970,158171177,mocap,-2.78321386719,10.4026845703,1.93211108398,0.158268892609,0.276118445869,0.947734134867,0.0225738908917
2021/03/16/13:49:30.165780,669507,1615898970,168171167,mocap,-2.78320605469,10.4028398437,1.93216918945,0.158291259004,0.276170177968,0.947710597342,0.0227712092924
2021/03/16/13:49:30.175726,669508,1615898970,178171158,mocap,-2.78320825195,10.4029609375,1.93225268555,0.158171336891,0.276159592367,0.947729064207,0.0229636290396
2021/03/16/13:49:30.185675,669509,1615898970,188171148,mocap,-2.78316943359,10.4030859375,1.93225634766,0.158070951086,0.276110084737,0.947758300708,0.0230435458057
2021/03/16/13:49:30.197737,669510,1615898970,198171139,mocap,-2.78316503906,10.4032333984,1.93231396484,0.157718042008,0.276175672701,0.947794634786,0.0231808198676
2021/03/16/13:49:30.205703,669511,1615898970,208171129,mocap,-2.78317016602,10.4033730469,1.93235559082,0.157369044872,0.276226256324,0.947831242593,0.0234513551698
2021/03/16/13:49:30.217727,669512,1615898970,218171120,mocap,-2.78314111328,10.4035136719,1.93235083008,0.157351803376,0.276381140459,0.947786231377,0.0235611948687
2021/03/16/13:49:30.226199,669513,1615898970,228171110,mocap,-2.78309545898,10.4036425781,1.93236120605,0.156969217062,0.276571281387,0.947787261172,0.0238388816411
2021/03/16/13:49:30.237503,669514,1615898970,238171101,mocap,-2.78310058594,10.4037880859,1.93239050293,0.156733442401,0.276575705438,0.947825331357,0.0238253971079
2021/03/16/13:49:30.246135,669515,1615898970,248171091,mocap,-2.78304150391,10.4039169922,1.93239807129,0.156375679464,0.276826727274,0.94780445308,0.0240901989498
2021/03/16/13:49:30.257518,669516,1615898970,258171082,mocap,-2.78301953125,10.4040419922,1.93243615723,0.155986202432,0.276771933333,0.947883608874,0.0241299721955
2021/03/16/13:49:30.266082,669517,1615898970,268171072,mocap,-2.78296289062,10.4041669922,1.93242248535,0.15585092553,0.277075809504,0.947815308898,0.0241995309917
2021/03/16/13:49:30.277830,669518,1615898970,278171062,mocap,-2.78290673828,10.4042587891,1.93244592285,0.155576804744,0.277214752892,0.947818225248,0.0242580172996
2021/03/16/13:49:30.285815,669519,1615898970,288171053,mocap,-2.78281591797,10.4043476562,1.93244592285,0.155375201244,0.277347644487,0.94781404331,0.0241944527993
2021/03/16/13:49:30.297463,669520,1615898970,298171043,mocap,-2.78271264648,10.4044316406,1.93246911621,0.155078501132,0.27768842426,0.947761783243,0.0242363322095
2021/03/16/13:49:30.305951,669521,1615898970,308171034,mocap,-2.78260205078,10.4044873047,1.93244458008,0.154836102556,0.277900194867,0.947741123685,0.024166496007
2021/03/16/13:49:30.316095,669522,1615898970,318171024,mocap,-2.7824831543,10.4045078125,1.93246606445,0.154749597113,0.278057757414,0.947713671247,0.0239843078352
2021/03/16/13:49:30.326614,669523,1615898970,328171015,mocap,-2.78236010742,10.4045253906,1.93250488281,0.154674049722,0.278172073065,0.947697468276,0.023785395468
2021/03/16/13:49:30.337968,669524,1615898970,338171005,mocap,-2.78221289062,10.4044931641,1.93249438477,0.154655484474,0.278333249694,0.947655674179,0.0236859469447
2021/03/16/13:49:30.345986,669525,1615898970,348170996,mocap,-2.78206445312,10.4044091797,1.93251733398,0.154371195321,0.278399908636,0.947684456955,0.0236049577773
2021/03/16/13:49:30.357444,669526,1615898970,358170986,mocap,-2.78190454102,10.4043222656,1.9325402832,0.154462144736,0.278491429197,0.94764681353,0.0234409299562
2021/03/16/13:49:30.365781,669527,1615898970,368170977,mocap,-2.7817565918,10.4041855469,1.93253271484,0.154401339538,0.278611552551,0.947623210938,0.0233683759117
2021/03/16/13:49:30.375910,669528,1615898970,378171206,mocap,-2.78158251953,10.4040283203,1.93253369141,0.15427550987,0.278618641882,0.947643542853,0.0232900022117
2021/03/16/13:49:30.386443,669529,1615898970,388171196,mocap,-2.78142041016,10.4038271484,1.93252185059,0.154249164817,0.27872559513,0.94762030185,0.0231300622869
2021/03/16/13:49:30.397305,669530,1615898970,398171186,mocap,-2.78123901367,10.4035917969,1.93249633789,0.154320107546,0.27894581363,0.947547784056,0.0229721258374
2021/03/16/13:49:30.406120,669531,1615898970,408171177,mocap,-2.7810534668,10.4033515625,1.93249621582,0.154247210959,0.279051616159,0.947532946434,0.0227884233052
2021/03/16/13:49:30.415948,669532,1615898970,418171167,mocap,-2.78086328125,10.4030810547,1.93247253418,0.154137589608,0.279151464158,0.947524399166,0.0226622396116
2021/03/16/13:49:30.426484,669533,1615898970,428171158,mocap,-2.78066748047,10.40275,1.93243676758,0.154276531943,0.279240189008,0.947480600091,0.0224537869512
2021/03/16/13:49:30.435680,669534,1615898970,438171148,mocap,-2.78043896484,10.4024140625,1.93239916992,0.154186661516,0.279366272141,0.947459855764,0.0223783531501
2021/03/16/13:49:30.447110,669535,1615898970,448171139,mocap,-2.78023486328,10.4019873047,1.93238647461,0.153825268633,0.279361785861,0.947518116443,0.0224540370981
2021/03/16/13:49:30.457042,669536,1615898970,458171129,mocap,-2.77999536133,10.4015224609,1.93230932617,0.153747494015,0.27953767269,0.947473334123,0.0226865368411
2021/03/16/13:49:30.466155,669537,1615898970,468171120,mocap,-2.77976049805,10.4010322266,1.93223669434,0.153779367748,0.279383734666,0.947512321203,0.0227385538919
2021/03/16/13:49:30.476275,669538,1615898970,478171110,mocap,-2.77947094727,10.4005166016,1.93219604492,0.153783745964,0.279240915932,0.947550654051,0.0228653053676
2021/03/16/13:49:30.486602,669539,1615898970,488171101,mocap,-2.77917163086,10.3999140625,1.93214343262,0.153683329462,0.279065471797,0.947615655154,0.0229883803543
2021/03/16/13:49:30.495961,669540,1615898970,498171091,mocap,-2.77883666992,10.3993125,1.93206652832,0.153756926332,0.27902777854,0.947608020684,0.0232669633957
2021/03/16/13:49:30.505785,669541,1615898970,508171082,mocap,-2.77854931641,10.3986220703,1.93202746582,0.153895100337,0.278867491622,0.947629720972,0.0233912127
2021/03/16/13:49:30.516061,669542,1615898970,518171072,mocap,-2.77823120117,10.3979199219,1.93197021484,0.153952817626,0.278834216308,0.947619413397,0.0238210156377
2021/03/16/13:49:30.526745,669543,1615898970,528171062,mocap,-2.77788793945,10.3971728516,1.93185656738,0.154094390561,0.278761462196,0.94760929441,0.0241575571102
2021/03/16/13:49:30.535924,669544,1615898970,538171053,mocap,-2.7775378418,10.3963662109,1.93175488281,0.15416735857,0.278575579987,0.947646192417,0.024387789647
2021/03/16/13:49:30.545979,669545,1615898970,548171043,mocap,-2.77713354492,10.3954560547,1.93166894531,0.154103732664,0.278361500399,0.947712169674,0.024668866509
2021/03/16/13:49:30.557258,669546,1615898970,558171034,mocap,-2.77672314453,10.3945957031,1.93159765625,0.15394853226,0.27773854939,0.947917635187,0.0247650541897
2021/03/16/13:49:30.565803,669547,1615898970,568171024,mocap,-2.77629858398,10.3936582031,1.93153320313,0.153642157253,0.277418075428,0.948053720369,0.0250485131899
2021/03/16/13:49:30.578013,669548,1615898970,578171015,mocap,-2.77585229492,10.392625,1.93139880371,0.153595989694,0.276990888025,0.948180403892,0.0252632392097
2021/03/16/13:49:30.585726,669549,1615898970,588171005,mocap,-2.77532202148,10.3916015625,1.93122631836,0.153235300622,0.276673012085,0.948321613164,0.0256340043199
2021/03/16/13:49:30.596727,669550,1615898970,598170996,mocap,-2.7748203125,10.3905732422,1.93113049316,0.153270934978,0.276197571098,0.948450256212,0.0257885630649
2021/03/16/13:49:30.606975,669551,1615898970,608170986,mocap,-2.77435571289,10.3894257813,1.93100854492,0.153206501897,0.275953955153,0.948530607037,0.0258237745281
2021/03/16/13:49:30.615944,669552,1615898970,618170977,mocap,-2.77381591797,10.3882714844,1.93076501465,0.153176434028,0.27581852014,0.948568105425,0.0260705393647
2021/03/16/13:49:30.625702,669553,1615898970,628171206,mocap,-2.77329541016,10.3870390625,1.93049279785,0.152913494713,0.275233579177,0.948772309736,0.0263638219749
2021/03/16/13:49:30.636575,669554,1615898970,638171196,mocap,-2.77274829102,10.3858017578,1.93029772949,0.152852429979,0.274856147075,0.948885156544,0.0265933452385
2021/03/16/13:49:30.647664,669555,1615898970,648171186,mocap,-2.77218286133,10.3845234375,1.93007214355,0.15267562316,0.274466897421,0.949021095136,0.0267775784926
2021/03/16/13:49:30.656056,669556,1615898970,658171177,mocap,-2.77153198242,10.3832050781,1.92974707031,0.152369823049,0.274086463442,0.949163262586,0.0273708205463
2021/03/16/13:49:30.666591,669557,1615898970,668171167,mocap,-2.77092163086,10.3817558594,1.92943347168,0.152071538286,0.273438854395,0.949391321892,0.0275963706314
2021/03/16/13:49:30.676227,669558,1615898970,678171158,mocap,-2.77032836914,10.3803232422,1.92911987305,0.152183217754,0.272840256527,0.949543053756,0.0276848780403
2021/03/16/13:49:30.686784,669559,1615898970,688171148,mocap,-2.76968945312,10.3788398438,1.92873669434,0.152013661036,0.27216569314,0.949757348618,0.0279047903378
2021/03/16/13:49:30.697501,669560,1615898970,698171139,mocap,-2.7690534668,10.3772832031,1.92828015137,0.152440657259,0.271461936421,0.949885106982,0.0280811850842
2021/03/16/13:49:30.707334,669561,1615898970,708171129,mocap,-2.76841601563,10.3757099609,1.92773144531,0.151790683442,0.270564423287,0.950232384518,0.0285111415466
2021/03/16/13:49:30.716430,669562,1615898970,718171120,mocap,-2.76771313477,10.3741503906,1.92711413574,0.152195965053,0.269777613467,0.950388262487,0.0286107910721
2021/03/16/13:49:30.726508,669563,1615898970,728171110,mocap,-2.76704638672,10.3725214844,1.92633911133,0.152161251396,0.269268474388,0.950534669784,0.0287275125247
2021/03/16/13:49:30.735852,669564,1615898970,738171101,mocap,-2.7664206543,10.3709414062,1.92546069336,0.152073640903,0.268671972862,0.95071100745,0.0289405467422
2021/03/16/13:49:30.746532,669565,1615898970,748171091,mocap,-2.76575366211,10.3693105469,1.92451879883,0.152101410772,0.268045129856,0.950878411362,0.0291069873142
2021/03/16/13:49:30.756519,669566,1615898970,758171082,mocap,-2.76512353516,10.3677197266,1.92355847168,0.151966405841,0.267632070894,0.95100882384,0.0293513432979
2021/03/16/13:49:30.767308,669567,1615898970,768171072,mocap,-2.76452880859,10.3660869141,1.92258166504,0.152220165474,0.267335641887,0.951039393166,0.0297446184435
2021/03/16/13:49:30.775826,669568,1615898970,778171062,mocap,-2.76385644531,10.3642734375,1.92142565918,0.153414285919,0.266298158972,0.951153709974,0.0292569255859
2021/03/16/13:49:30.786160,669569,1615898970,788171053,mocap,-2.76327758789,10.3625917969,1.92064672852,0.152955046904,0.265676938736,0.951389530666,0.029639195752
2021/03/16/13:49:30.796227,669570,1615898970,798171043,mocap,-2.76271313477,10.3609326172,1.92007922363,0.153170802362,0.265956117533,0.951270574192,0.0298387977478
2021/03/16/13:49:30.807346,669571,1615898970,808171034,mocap,-2.76222485352,10.3590419922,1.91947387695,0.15270875766,0.265173602516,0.951542509899,0.0304935850735
2021/03/16/13:49:30.815766,669572,1615898970,818171024,mocap,-2.76173583984,10.3572783203,1.91926074219,0.151559565019,0.265250212434,0.951675281825,0.0314036579967
2021/03/16/13:49:30.826206,669573,1615898970,828171015,mocap,-2.76123876953,10.35540625,1.91904821777,0.151935637847,0.264675528048,0.951771228116,0.031527203605
2021/03/16/13:49:30.836565,669574,1615898970,838171005,mocap,-2.76060449219,10.3533007813,1.91864453125,0.153730898629,0.263268555398,0.95189467741,0.0308707945922
2021/03/16/13:49:30.847131,669575,1615898970,848170996,mocap,-2.7600534668,10.3512578125,1.9185625,0.153990589883,0.262147865618,0.952172569556,0.0305417194027
2021/03/16/13:49:30.856097,669576,1615898970,858170986,mocap,-2.7595012207,10.3491728516,1.9186348877,0.155358345748,0.261028549425,0.952276633998,0.0299517124357
2021/03/16/13:49:30.867306,669577,1615898970,868170977,mocap,-2.75888989258,10.3470332031,1.91868688965,0.156938256421,0.259303535254,0.952524347682,0.0287998698255
2021/03/16/13:49:30.875960,669578,1615898970,878171206,mocap,-2.75844238281,10.3448974609,1.91906420898,0.158068782689,0.258149856143,0.952665476167,0.028308973869
2021/03/16/13:49:30.886109,669579,1615898970,888171196,mocap,-2.75803515625,10.3428232422,1.91959094238,0.158128917342,0.257683887866,0.952776008563,0.0284980364268
2021/03/16/13:49:30.896012,669580,1615898970,898171186,mocap,-2.7576784668,10.3406865234,1.92008874512,0.158415137612,0.256475088356,0.953058826776,0.0283557765423
2021/03/16/13:49:30.905727,669581,1615898970,908171177,mocap,-2.75729785156,10.3384150391,1.92034216309,0.15998586429,0.254421655613,0.953374095323,0.0274221262645
2021/03/16/13:49:30.915766,669582,1615898970,918171167,mocap,-2.75706420898,10.3362929687,1.92083203125,0.160619896405,0.253450678472,0.953536421671,0.0270609352857
2021/03/16/13:49:30.927081,669583,1615898970,928171158,mocap,-2.75684887695,10.3341552734,1.92124243164,0.160460816574,0.252908677833,0.953707259197,0.0270551914086
2021/03/16/13:49:30.937855,669584,1615898970,938171148,mocap,-2.7567199707,10.3321005859,1.92170556641,0.160570891976,0.252775468186,0.953727344229,0.0269391309908
2021/03/16/13:49:30.945858,669585,1615898970,948171139,mocap,-2.75669628906,10.3302011719,1.9223137207,0.159906478532,0.25370422407,0.953582935075,0.0272703298473
2021/03/16/13:49:30.957719,669586,1615898970,958171129,mocap,-2.75658666992,10.3280751953,1.92243310547,0.160913646358,0.253386656436,0.953513152398,0.0267334855376
2021/03/16/13:49:30.965545,669587,1615898970,968171120,mocap,-2.75657910156,10.3260537109,1.92265234375,0.160538552465,0.254025291221,0.953406730038,0.026723012227
2021/03/16/13:49:30.976757,669588,1615898970,978171110,mocap,-2.75660351563,10.3240078125,1.92278918457,0.1602190445,0.255189094301,0.953142853867,0.0269646938461
2021/03/16/13:49:30.985821,669589,1615898970,988171101,mocap,-2.75663793945,10.321953125,1.92284130859,0.160207965497,0.256420586544,0.952813934157,0.0269720899246
2021/03/16/13:49:30.997933,669590,1615898970,998171091,mocap,-2.75676611328,10.3198261719,1.92287963867,0.1599804552,0.2577073178,0.952500740799,0.0271208168048
2021/03/16/13:49:31.005759,669591,1615898971,8171082,mocap,-2.7568984375,10.3177373047,1.92299267578,0.158962716116,0.260248566114,0.95195575036,0.0279602621745
2021/03/16/13:49:31.017824,669592,1615898971,18171072,mocap,-2.75707495117,10.3155029297,1.92288244629,0.158756131365,0.262015976298,0.951497572452,0.0282221274203
2021/03/16/13:49:31.026302,669593,1615898971,28171062,mocap,-2.75730712891,10.3130664062,1.92261157227,0.157784693605,0.263055435799,0.951359747911,0.0286436661549
2021/03/16/13:49:31.037592,669594,1615898971,38171053,mocap,-2.75749072266,10.3106220703,1.92229321289,0.157430038486,0.264928931088,0.950897733438,0.0286694822079
2021/03/16/13:49:31.046705,669595,1615898971,48171043,mocap,-2.7578269043,10.3081064453,1.92217626953,0.155742628066,0.267156039968,0.950506012509,0.0301694302772
2021/03/16/13:49:31.056414,669596,1615898971,58171034,mocap,-2.75811547852,10.3054121094,1.92177758789,0.155049548962,0.268820998084,0.950137513962,0.0305549863324
2021/03/16/13:49:31.065988,669597,1615898971,68171024,mocap,-2.75832666016,10.3025478516,1.92116137695,0.155807432662,0.269882491075,0.94973519487,0.0298419080279
2021/03/16/13:49:31.076404,669598,1615898971,78171015,mocap,-2.7587434082,10.2995576172,1.92078295898,0.154014319961,0.271986300333,0.9493817319,0.0312630648952
2021/03/16/13:49:31.086020,669599,1615898971,88171005,mocap,-2.759109375,10.2964355469,1.92025549316,0.153996542938,0.273313858308,0.948995658184,0.0314934366846
2021/03/16/13:49:31.096571,669600,1615898971,98170996,mocap,-2.7594753418,10.2931855469,1.91962878418,0.1532680292,0.274914166533,0.948631183261,0.0320936374849
2021/03/16/13:49:31.106330,669601,1615898971,108170986,mocap,-2.75985717773,10.2897734375,1.91896374512,0.152693737702,0.275960611816,0.94840378175,0.0325674192649
2021/03/16/13:49:31.117588,669602,1615898971,118170977,mocap,-2.76025439453,10.2861875,1.91826416016,0.152174026202,0.276899030967,0.948204189054,0.0328453474578
2021/03/16/13:49:31.127340,669603,1615898971,128171206,mocap,-2.76066235352,10.2825126953,1.91757775879,0.151814980834,0.278015805257,0.947926571903,0.0330853415865
2021/03/16/13:49:31.135781,669604,1615898971,138171196,mocap,-2.76101806641,10.2785898437,1.91671508789,0.15166305353,0.278227472058,0.947886509293,0.0331504351018
2021/03/16/13:49:31.147187,669605,1615898971,148171186,mocap,-2.76137915039,10.2745839844,1.91590673828,0.151527091572,0.279055869204,0.947665564671,0.0331260809971
2021/03/16/13:49:31.156211,669606,1615898971,158171177,mocap,-2.76180249023,10.2704384766,1.91518884277,0.151501785074,0.279528781946,0.947536414071,0.0329486752774
2021/03/16/13:49:31.167223,669607,1615898971,168171167,mocap,-2.76215795898,10.26615625,1.91444921875,0.151253373445,0.28004732799,0.947414598844,0.0331886239063
2021/03/16/13:49:31.175989,669608,1615898971,178171158,mocap,-2.7625925293,10.2617392578,1.91375622559,0.15119955007,0.280316611585,0.947343205687,0.0331986117624
2021/03/16/13:49:31.186989,669609,1615898971,188171148,mocap,-2.76291430664,10.2570908203,1.91297338867,0.15127008895,0.280991714878,0.947128655668,0.0332916522206
2021/03/16/13:49:31.195991,669610,1615898971,198171139,mocap,-2.76331860352,10.2524355469,1.91232885742,0.151497540036,0.281014839184,0.94709807025,0.0329303815417
2021/03/16/13:49:31.207064,669611,1615898971,208171129,mocap,-2.76365454102,10.2476044922,1.91160974121,0.15185105843,0.281154632538,0.94700208321,0.0328693510157
2021/03/16/13:49:31.216020,669612,1615898971,218171120,mocap,-2.7640715332,10.2426015625,1.91086889648,0.152240865979,0.281300469137,0.946903064992,0.0326703877264
2021/03/16/13:49:31.227002,669613,1615898971,228171110,mocap,-2.76444677734,10.2375117187,1.91015454102,0.152407353909,0.28131246608,0.946878468158,0.0325031489639
2021/03/16/13:49:31.235884,669614,1615898971,238171101,mocap,-2.76484082031,10.2322949219,1.90941992188,0.152751495094,0.281196964518,0.946867680285,0.0321999488048
2021/03/16/13:49:31.246040,669615,1615898971,248171091,mocap,-2.76530493164,10.2269892578,1.90868847656,0.153087194516,0.281081281843,0.946857175565,0.0319236113499
2021/03/16/13:49:31.256300,669616,1615898971,258171082,mocap,-2.76575927734,10.221484375,1.90790539551,0.153062164588,0.2811429062,0.946844467451,0.0318778732493
2021/03/16/13:49:31.265717,669617,1615898971,268171072,mocap,-2.76630639648,10.2159980469,1.90715539551,0.15325634926,0.281202702214,0.946799078815,0.0317654259622
2021/03/16/13:49:31.276998,669618,1615898971,278171062,mocap,-2.76682421875,10.2103798828,1.90641394043,0.153507038732,0.281161327167,0.946784764576,0.0313448256648
2021/03/16/13:49:31.285944,669619,1615898971,288171053,mocap,-2.76742553711,10.2046376953,1.90560571289,0.153424716579,0.281510981627,0.946694396518,0.0313389968219
2021/03/16/13:49:31.297855,669620,1615898971,298171043,mocap,-2.76806787109,10.198890625,1.9049597168,0.153585188386,0.281874040029,0.94656457817,0.031210925717
2021/03/16/13:49:31.306046,669621,1615898971,308171034,mocap,-2.76874755859,10.1929404297,1.90422460937,0.153569619831,0.282120261861,0.946504802539,0.030873895641
2021/03/16/13:49:31.316127,669622,1615898971,318171024,mocap,-2.7694387207,10.1869921875,1.90355883789,0.153637086269,0.282582413186,0.946359086571,0.0307781003584
2021/03/16/13:49:31.327963,669623,1615898971,328171015,mocap,-2.77018359375,10.1808955078,1.90278601074,0.153495133731,0.283053752055,0.946246938486,0.0306030738825
2021/03/16/13:49:31.335864,669624,1615898971,338171005,mocap,-2.77099291992,10.1747226562,1.90201940918,0.153853867634,0.283726326335,0.945999754781,0.0302129238599
2021/03/16/13:49:31.346868,669625,1615898971,348170996,mocap,-2.77182177734,10.1685351562,1.90140307617,0.153408286948,0.284115790849,0.945965289302,0.0298964644814
2021/03/16/13:49:31.356154,669626,1615898971,358170986,mocap,-2.77268408203,10.1622148438,1.9006875,0.153457182148,0.284722548197,0.945779677093,0.0297449000981
2021/03/16/13:49:31.366717,669627,1615898971,368170977,mocap,-2.77361376953,10.1558417969,1.90000927734,0.153175488962,0.285456470497,0.945615964053,0.0293651352286
2021/03/16/13:49:31.375989,669628,1615898971,378171206,mocap,-2.77456396484,10.1493662109,1.89940148926,0.152932084266,0.286377921933,0.945382824954,0.0291683185944
2021/03/16/13:49:31.387740,669629,1615898971,388171196,mocap,-2.77553393555,10.1428066406,1.89883605957,0.152743395133,0.287111802637,0.945200550922,0.0288475698726
2021/03/16/13:49:31.397474,669630,1615898971,398171186,mocap,-2.77660571289,10.1362998047,1.8986484375,0.150997251763,0.288199557789,0.945144567469,0.0290273754119
2021/03/16/13:49:31.406217,669631,1615898971,408171177,mocap,-2.7777199707,10.1296611328,1.8985748291,0.151191828016,0.289471102032,0.944734861895,0.0286974780393
2021/03/16/13:49:31.417607,669632,1615898971,418171167,mocap,-2.77878759766,10.1228935547,1.89867028809,0.149807062757,0.290760424884,0.94455922277,0.0287069958533
2021/03/16/13:49:31.425992,669633,1615898971,428171158,mocap,-2.77998803711,10.1160908203,1.89909448242,0.149542630606,0.292212523303,0.944157793665,0.0285464510469
2021/03/16/13:49:31.437649,669634,1615898971,438171148,mocap,-2.78105834961,10.1091113281,1.89947241211,0.148920612837,0.293361326192,0.943906629272,0.0283204414643
2021/03/16/13:49:31.445958,669635,1615898971,448171139,mocap,-2.78220410156,10.102078125,1.90002075195,0.148885322664,0.294116680858,0.943700448371,0.0275318579668
2021/03/16/13:49:31.457435,669636,1615898971,458171129,mocap,-2.78332421875,10.0949121094,1.90071679688,0.148952360034,0.294664489144,0.943544184114,0.0266532384624
2021/03/16/13:49:31.466025,669637,1615898971,468171120,mocap,-2.78446240234,10.0876982422,1.90158581543,0.149269287064,0.295013596494,0.943416467365,0.0255150379013
2021/03/16/13:49:31.477421,669638,1615898971,478171110,mocap,-2.7855456543,10.0804462891,1.90259985352,0.149156817311,0.29522686761,0.943391455822,0.0246152355467
2021/03/16/13:49:31.485904,669639,1615898971,488171101,mocap,-2.78669360352,10.0730478516,1.90371386719,0.149671980242,0.295568779641,0.943231870197,0.0234741017186
2021/03/16/13:49:31.497394,669640,1615898971,498171091,mocap,-2.78784643555,10.0656884766,1.90508312988,0.149678538311,0.295226790251,0.943365709114,0.0223299071209
2021/03/16/13:49:31.506265,669641,1615898971,508171082,mocap,-2.78897338867,10.0582470703,1.90649279785,0.150347095352,0.294666944141,0.943464261497,0.0210318134692
2021/03/16/13:49:31.517480,669642,1615898971,518171072,mocap,-2.79007446289,10.0507841797,1.90795837402,0.150744471534,0.29409625423,0.943601881176,0.0199745099805
2021/03/16/13:49:31.525644,669643,1615898971,528171062,mocap,-2.79111401367,10.0431962891,1.90919702148,0.14864168744,0.293344153036,0.944182603413,0.0193407747973
2021/03/16/13:49:31.537118,669644,1615898971,538171053,mocap,-2.79218725586,10.035671875,1.91053747559,0.149507180169,0.292110252653,0.944454276433,0.0180369529273
2021/03/16/13:49:31.545698,669645,1615898971,548171043,mocap,-2.79322631836,10.0281796875,1.9118145752,0.149954549064,0.290671857892,0.94484810417,0.0168988226363
2021/03/16/13:49:31.557546,669646,1615898971,558171034,mocap,-2.7942512207,10.0207558594,1.9129876709,0.15109798716,0.289249771586,0.94513042525,0.0152460776357
2021/03/16/13:49:31.565764,669647,1615898971,568171024,mocap,-2.79524023438,10.0134482422,1.91410119629,0.15184047687,0.287900022202,0.945437974721,0.0143207179674
2021/03/16/13:49:31.575877,669648,1615898971,578171015,mocap,-2.79623852539,10.0061357422,1.91503234863,0.152780695528,0.286922945406,0.94559989848,0.0131949650772
2021/03/16/13:49:31.587303,669649,1615898971,588171005,mocap,-2.79726977539,9.99899023438,1.91590209961,0.153791283569,0.285867750257,0.945770231668,0.0121054357263
2021/03/16/13:49:31.595753,669650,1615898971,598170996,mocap,-2.79823266602,9.99194042969,1.91668225098,0.15460942009,0.284965681266,0.94591617225,0.0115359445618
2021/03/16/13:49:31.607252,669651,1615898971,608170986,mocap,-2.79927880859,9.98495410156,1.91733239746,0.154800088643,0.284672416853,0.945980568943,0.0109231476543
2021/03/16/13:49:31.616149,669652,1615898971,618170977,mocap,-2.80029248047,9.97808300781,1.91793347168,0.155888061643,0.284369475337,0.945897977184,0.010484796633
2021/03/16/13:49:31.627131,669653,1615898971,628171206,mocap,-2.80133837891,9.97124609375,1.91828820801,0.15611339846,0.284304924919,0.945883854106,0.0101514180229
2021/03/16/13:49:31.635779,669654,1615898971,638171196,mocap,-2.80240673828,9.96444921875,1.91851989746,0.156723714257,0.284517100202,0.945723680653,0.00971772809159
2021/03/16/13:49:31.646944,669655,1615898971,648171186,mocap,-2.80345239258,9.95771875,1.91876635742,0.156755089791,0.28457245175,0.945704308012,0.00947211308506
2021/03/16/13:49:31.656201,669656,1615898971,658171177,mocap,-2.80455224609,9.95104199219,1.91893615723,0.156744652205,0.285223458721,0.945511410806,0.00932058354101
2021/03/16/13:49:31.665953,669657,1615898971,668171167,mocap,-2.80559130859,9.944359375,1.91915148926,0.157357688694,0.285491935211,0.945331108288,0.00905577906008
2021/03/16/13:49:31.675973,669658,1615898971,678171158,mocap,-2.80668530273,9.93761132812,1.91933837891,0.157087941869,0.285797640301,0.945287782961,0.00860739979662
2021/03/16/13:49:31.687081,669659,1615898971,688171148,mocap,-2.80770288086,9.93089453125,1.9196159668,0.15706446996,0.285692552427,0.945326300591,0.0082885639508
2021/03/16/13:49:31.695693,669660,1615898971,698171139,mocap,-2.80875366211,9.92411035156,1.91995483398,0.157037185892,0.285770547131,0.945312484237,0.00766959873094
2021/03/16/13:49:31.706984,669661,1615898971,708171129,mocap,-2.80968408203,9.91728808594,1.92034008789,0.156769517085,0.285493975281,0.945443617185,0.00727166444941
2021/03/16/13:49:31.716133,669662,1615898971,718171120,mocap,-2.81064306641,9.91040527344,1.92079199219,0.15672282182,0.285046393064,0.945589679089,0.00683131776717
2021/03/16/13:49:31.727881,669663,1615898971,728171110,mocap,-2.81151708984,9.90349902344,1.92133105469,0.156636469253,0.284430830355,0.945794471322,0.00607683556141
2021/03/16/13:49:31.735862,669664,1615898971,738171101,mocap,-2.81226904297,9.89656933594,1.92190991211,0.156491556353,0.283925596023,0.945973322958,0.00557870078159
2021/03/16/13:49:31.748658,669665,1615898971,748171091,mocap,-2.81309106445,9.88959960938,1.92253918457,0.15663773765,0.283167265645,0.946181512632,0.00463337604567
2021/03/16/13:49:31.755823,669666,1615898971,758171082,mocap,-2.81380786133,9.88262011719,1.92315185547,0.156584074689,0.282384421134,0.946427649082,0.00389536329664
2021/03/16/13:49:31.767926,669667,1615898971,768171072,mocap,-2.81439428711,9.87564550781,1.92377368164,0.1563593864,0.281447128462,0.946747219163,0.0029942371863
2021/03/16/13:49:31.775865,669668,1615898971,778171062,mocap,-2.81499658203,9.86861914063,1.92432519531,0.156476358075,0.280650696534,0.94696678875,0.00205760073758
2021/03/16/13:49:31.787653,669669,1615898971,788171053,mocap,-2.81555102539,9.86153808594,1.9247923584,0.156737179753,0.280034060056,0.947107809233,0.0010807894121
2021/03/16/13:49:31.796669,669670,1615898971,798171043,mocap,-2.8159675293,9.85449902344,1.92517810059,0.156678286002,0.279060786198,0.947405374188,0.000222641258305
2021/03/16/13:49:31.807425,669671,1615898971,808171034,mocap,-2.81632104492,9.84745898438,1.92549780273,0.156996495482,0.278573254359,0.947495823841,-0.000837040051096
2021/03/16/13:49:31.815845,669672,1615898971,818171024,mocap,-2.81664282227,9.84038378906,1.92564746094,0.15737410563,0.278277974803,0.947518124306,-0.0020386108848
2021/03/16/13:49:31.827788,669673,1615898971,828171015,mocap,-2.81689428711,9.83328027344,1.92571936035,0.157505076505,0.27777295173,0.947641821026,-0.00305310744423
2021/03/16/13:49:31.836084,669674,1615898971,838171005,mocap,-2.81708691406,9.82618066406,1.92570922852,0.157601020736,0.277571387918,0.947681949012,-0.00387103243331
2021/03/16/13:49:31.847867,669675,1615898971,848170996,mocap,-2.81719506836,9.81903222656,1.92554724121,0.158407459188,0.27739955907,0.94759406462,-0.00469495859728
2021/03/16/13:49:31.855970,669676,1615898971,858170986,mocap,-2.81731030273,9.81185058594,1.92538415527,0.159106926919,0.27726987575,0.947509679128,-0.00563981565491
2021/03/16/13:49:31.867571,669677,1615898971,868170977,mocap,-2.81738110352,9.80462207031,1.92504638672,0.159635220517,0.277461266048,0.94735689805,-0.00683792926129
2021/03/16/13:49:31.876161,669678,1615898971,878171206,mocap,-2.81735180664,9.79733789063,1.92464587402,0.160312046189,0.277542605042,0.947212461572,-0.0076613075576
2021/03/16/13:49:31.886488,669679,1615898971,888171196,mocap,-2.81726391602,9.78996191406,1.92416442871,0.160797199461,0.277640942874,0.947092830983,-0.00865609082279
2021/03/16/13:49:31.896052,669680,1615898971,898171186,mocap,-2.81718457031,9.7825625,1.92364697266,0.161284977487,0.277734917953,0.946974908323,-0.0094332003027
2021/03/16/13:49:31.907460,669681,1615898971,908171177,mocap,-2.8170859375,9.77503222656,1.92297265625,0.161995110816,0.277745390355,0.946839895636,-0.0104549183679
2021/03/16/13:49:31.915861,669682,1615898971,918171167,mocap,-2.81695678711,9.76746484375,1.92225524902,0.162404347447,0.277718953042,0.946767506934,-0.011326449634
2021/03/16/13:49:31.927315,669683,1615898971,928171158,mocap,-2.81683520508,9.75974316406,1.9213671875,0.16295634746,0.277913771566,0.946603217006,-0.0123087407687
2021/03/16/13:49:31.935988,669684,1615898971,938171148,mocap,-2.81664331055,9.75205859375,1.92054016113,0.163198660718,0.277770089357,0.946591387031,-0.0132187320279
2021/03/16/13:49:31.947302,669685,1615898971,948171139,mocap,-2.81644824219,9.74426757812,1.91950170898,0.163743328132,0.277946420484,0.946433695004,-0.0140419275199
2021/03/16/13:49:31.955779,669686,1615898971,958171129,mocap,-2.8161887207,9.73643359375,1.91839770508,0.16391818399,0.278123144349,0.94634162434,-0.0146920671762
2021/03/16/13:49:31.967433,669687,1615898971,968171120,mocap,-2.81592724609,9.72853808594,1.9172052002,0.164134119392,0.278325399508,0.946234985948,-0.0153070217471
2021/03/16/13:49:31.976122,669688,1615898971,978171110,mocap,-2.81562573242,9.72058691406,1.9159263916,0.164591677314,0.278591955575,0.946067382546,-0.0158939796551
2021/03/16/13:49:31.987396,669689,1615898971,988171101,mocap,-2.81535717773,9.71261035156,1.91458703613,0.164605767302,0.279022574161,0.945928916464,-0.0164265137548
2021/03/16/13:49:31.995749,669690,1615898971,998171091,mocap,-2.81503979492,9.70453027344,1.91310974121,0.165110709653,0.279437640398,0.945709082275,-0.0169523424701
2021/03/16/13:49:32.006412,669691,1615898972,8171082,mocap,-2.81469848633,9.69640527344,1.91159375,0.165451851897,0.279951654865,0.945490520834,-0.017332959601
2021/03/16/13:49:32.015726,669692,1615898972,18171072,mocap,-2.81430249023,9.68827636719,1.90999987793,0.165375150447,0.280466357102,0.945346737076,-0.0175851963146
2021/03/16/13:49:32.026115,669693,1615898972,28171062,mocap,-2.81393164062,9.68006152344,1.90843920898,0.165416445258,0.281016747069,0.945173481894,-0.0177224435306
2021/03/16/13:49:32.037227,669694,1615898972,38171053,mocap,-2.81346606445,9.67182519531,1.9067434082,0.165477060353,0.281724674771,0.944950988308,-0.0177812617242
2021/03/16/13:49:32.045861,669695,1615898972,48171043,mocap,-2.81303637695,9.66355078125,1.9050489502,0.165750915162,0.282678694804,0.944621061815,-0.0176196929047
2021/03/16/13:49:32.057247,669696,1615898972,58171034,mocap,-2.81256665039,9.65531933594,1.90337011719,0.165799055503,0.283681156819,0.944312275824,-0.0176064564439
2021/03/16/13:49:32.066189,669697,1615898972,68171024,mocap,-2.81204467773,9.64697753906,1.9017310791,0.165086014982,0.284854916231,0.944092088871,-0.0171585059533
2021/03/16/13:49:32.076932,669698,1615898972,78171015,mocap,-2.81151489258,9.63859277344,1.90008654785,0.165331610749,0.286159464368,0.943660759022,-0.0168100026706
2021/03/16/13:49:32.086046,669699,1615898972,88171005,mocap,-2.81097167969,9.63014453125,1.89859289551,0.165217389462,0.28732694153,0.943332995565,-0.0164100090254
2021/03/16/13:49:32.097026,669700,1615898972,98170996,mocap,-2.81037792969,9.62156738281,1.89724633789,0.164932908615,0.288485585469,0.943039083505,-0.0158266665327
2021/03/16/13:49:32.105655,669701,1615898972,108170986,mocap,-2.80972631836,9.61293554688,1.89608959961,0.164776369116,0.289252398173,0.942841018205,-0.0152516224556
2021/03/16/13:49:32.116919,669702,1615898972,118170977,mocap,-2.80906225586,9.60418847656,1.89505566406,0.164405193704,0.28956106342,0.942818211989,-0.01480304291
2021/03/16/13:49:32.125880,669703,1615898972,128171206,mocap,-2.8083684082,9.59532714844,1.89418591309,0.164894942882,0.289996529196,0.942604118017,-0.0144621354288
2021/03/16/13:49:32.135785,669704,1615898972,138171196,mocap,-2.80763476563,9.58646386719,1.89356274414,0.16456347754,0.290088389193,0.942641472773,-0.0139512306806
2021/03/16/13:49:32.146134,669705,1615898972,148171186,mocap,-2.80685302734,9.57755664062,1.89303588867,0.164139624674,0.2902304653,0.942680715012,-0.0133241860854
2021/03/16/13:49:32.157708,669706,1615898972,158171177,mocap,-2.80609008789,9.56861035156,1.89283410645,0.163908724712,0.290404743552,0.942677419201,-0.0125812413473
2021/03/16/13:49:32.166083,669707,1615898972,168171167,mocap,-2.80531030273,9.55964160156,1.89297827148,0.163648556999,0.290734542642,0.94263104742,-0.0118027268036
2021/03/16/13:49:32.176916,669708,1615898972,178171158,mocap,-2.80448339844,9.55065527344,1.8935447998,0.163344517887,0.291440777977,0.942476756103,-0.0108818551637
2021/03/16/13:49:32.186027,669709,1615898972,188171148,mocap,-2.80364794922,9.54157128906,1.89454199219,0.16287078479,0.291300095159,0.94261471756,-0.00973940125804
2021/03/16/13:49:32.198083,669710,1615898972,198171139,mocap,-2.80279443359,9.53247265625,1.89592614746,0.162881509154,0.290797382601,0.942778667264,-0.00865455925482
2021/03/16/13:49:32.205825,669711,1615898972,208171129,mocap,-2.80190722656,9.52328125,1.89739953613,0.162658878711,0.290200170222,0.943009163434,-0.00772384624844
2021/03/16/13:49:32.217637,669712,1615898972,218171120,mocap,-2.80108056641,9.5140546875,1.89904711914,0.162867284732,0.289430579548,0.943216593424,-0.00683062733798
2021/03/16/13:49:32.225716,669713,1615898972,228171110,mocap,-2.80018725586,9.50486523437,1.90089868164,0.162923579893,0.288584372412,0.943472466492,-0.00588723996775
2021/03/16/13:49:32.235606,669714,1615898972,238171101,mocap,-2.79927294922,9.49577734375,1.90289111328,0.163150170298,0.287787997847,0.943682155318,-0.00490786966788
2021/03/16/13:49:32.247642,669715,1615898972,248171091,mocap,-2.7984074707,9.48670996094,1.90490588379,0.163637152049,0.287092721556,0.943814169995,-0.00393246286497
2021/03/16/13:49:32.255930,669716,1615898972,258171082,mocap,-2.79755126953,9.47771484375,1.90689575195,0.16400451838,0.28612280475,0.944047688592,-0.00319591071519
2021/03/16/13:49:32.266590,669717,1615898972,268171072,mocap,-2.7967668457,9.46884082031,1.90888000488,0.164727436388,0.285241578078,0.944190368163,-0.00258183361024
2021/03/16/13:49:32.275898,669718,1615898972,278171062,mocap,-2.79592797852,9.45991894531,1.9105880127,0.165116743227,0.284223483546,0.944431067392,-0.00185400857541
2021/03/16/13:49:32.287540,669719,1615898972,288171053,mocap,-2.79516772461,9.45113964844,1.91220349121,0.165847788283,0.283445862006,0.944537231073,-0.00154034780577
2021/03/16/13:49:32.295669,669720,1615898972,298171043,mocap,-2.79444458008,9.44238769531,1.91348303223,0.166803175244,0.282515194312,0.944648367513,-0.00115858641132
2021/03/16/13:49:32.307618,669721,1615898972,308171034,mocap,-2.79375341797,9.43380371094,1.9147109375,0.167457234325,0.281552044106,0.944820544016,-0.000811636678304
2021/03/16/13:49:32.316504,669722,1615898972,318171024,mocap,-2.79312548828,9.42530175781,1.9156361084,0.167914425888,0.281258973071,0.944826923534,-0.000467323719961
2021/03/16/13:49:32.327466,669723,1615898972,328171015,mocap,-2.79257861328,9.4169609375,1.91641723633,0.168617285597,0.281148656722,0.944734688393,-7.35014941406e-06
2021/03/16/13:49:32.335873,669724,1615898972,338171005,mocap,-2.79203417969,9.4087109375,1.91697937012,0.169942104737,0.281161489784,0.94449345913,-1.09254903006e-06
2021/03/16/13:49:32.347310,669725,1615898972,348170996,mocap,-2.79158300781,9.40063183594,1.91753527832,0.17035371571,0.281770956429,0.944237428752,0.000654162584159
2021/03/16/13:49:32.356003,669726,1615898972,358170986,mocap,-2.79122119141,9.39262304688,1.91799499512,0.170722342232,0.282718112059,0.943886974639,0.00131894422658
2021/03/16/13:49:32.367541,669727,1615898972,368170977,mocap,-2.79091333008,9.3846640625,1.91839038086,0.17027258366,0.284048595551,0.943565812042,0.00268161528148
2021/03/16/13:49:32.375789,669728,1615898972,378171206,mocap,-2.79063549805,9.37676269531,1.91867993164,0.170585376131,0.285253881532,0.943143326244,0.0033946713531
2021/03/16/13:49:32.387443,669729,1615898972,388171196,mocap,-2.79040771484,9.36891210937,1.91897558594,0.170835851903,0.286353758671,0.942760806792,0.00432524263175
2021/03/16/13:49:32.396159,669730,1615898972,398171186,mocap,-2.79023242187,9.36102832031,1.9192611084,0.170893757839,0.287428743961,0.942418863664,0.00516921908262
2021/03/16/13:49:32.406348,669731,1615898972,408171177,mocap,-2.79011669922,9.35310351562,1.9194732666,0.170675302465,0.28838182515,0.942160490228,0.00628333208987
2021/03/16/13:49:32.415862,669732,1615898972,418171167,mocap,-2.79007275391,9.34516601563,1.91976123047,0.170999219269,0.28923636018,0.941831801221,0.00737861229163
2021/03/16/13:49:32.426314,669733,1615898972,428171158,mocap,-2.79007446289,9.33716894531,1.92013171387,0.170822787311,0.289545687181,0.94176057028,0.00836018346722
2021/03/16/13:49:32.436058,669734,1615898972,438171148,mocap,-2.7900859375,9.32906835938,1.92045251465,0.170893343839,0.289381270285,0.941789675621,0.00928155889257
2021/03/16/13:49:32.446227,669735,1615898972,448171139,mocap,-2.79015136719,9.3209921875,1.92091699219,0.1710954371,0.289215215476,0.941795964915,0.0100633998512
2021/03/16/13:49:32.457090,669736,1615898972,458171129,mocap,-2.79019287109,9.31276171875,1.92123657227,0.171883070179,0.288179657943,0.941965783698,0.0104474657478
2021/03/16/13:49:32.465930,669737,1615898972,468171120,mocap,-2.79031469727,9.30449707031,1.92167224121,0.171607190126,0.287291112787,0.942276042365,0.0114304423224
2021/03/16/13:49:32.475840,669738,1615898972,478171110,mocap,-2.79044726563,9.29622070312,1.92216455078,0.17125811432,0.285570019498,0.9428520339,0.0122665087598
2021/03/16/13:49:32.486142,669739,1615898972,488171101,mocap,-2.7906105957,9.28786328125,1.92257885742,0.171117073457,0.283936055698,0.943360780829,0.0130270157648
2021/03/16/13:49:32.496971,669740,1615898972,498171091,mocap,-2.7908190918,9.2795234375,1.92301062012,0.171222332915,0.282188380101,0.943859299589,0.0135001201031
2021/03/16/13:49:32.505732,669741,1615898972,508171082,mocap,-2.79116748047,9.27117871094,1.92352209473,0.1706858139,0.280596442804,0.944416662038,0.0144619063787
2021/03/16/13:49:32.518003,669742,1615898972,518171072,mocap,-2.79143139648,9.26283691406,1.92380725098,0.170733119322,0.278665960922,0.944970991381,0.0150100752104
2021/03/16/13:49:32.525905,669743,1615898972,528171062,mocap,-2.79176611328,9.25453417969,1.92416271973,0.170570795252,0.276871842194,0.945522143234,0.0153451022786
2021/03/16/13:49:32.538132,669744,1615898972,538171053,mocap,-2.79211572266,9.24623925781,1.92436315918,0.170482278262,0.275395678194,0.945956302553,0.0161151255188
2021/03/16/13:49:32.545770,669745,1615898972,548171043,mocap,-2.792484375,9.23793359375,1.92447033691,0.169949967415,0.274299330734,0.946355173736,0.0169929692672
2021/03/16/13:49:32.556853,669746,1615898972,558171034,mocap,-2.79294091797,9.22964941406,1.92446740723,0.169207583894,0.273195394446,0.946797072159,0.0175606460621
2021/03/16/13:49:32.565921,669747,1615898972,568171024,mocap,-2.79337768555,9.22150585938,1.92446203613,0.16921874844,0.272260564067,0.947054566142,0.0180787942489
2021/03/16/13:49:32.577622,669748,1615898972,578171015,mocap,-2.79381665039,9.21326953125,1.92426831055,0.168532006226,0.272025252949,0.947227194095,0.0189699868999
2021/03/16/13:49:32.585744,669749,1615898972,588171005,mocap,-2.79424536133,9.20504492188,1.92393554687,0.168280263414,0.271810612817,0.947322041513,0.0195368545773
2021/03/16/13:49:32.597875,669750,1615898972,598170996,mocap,-2.79475170898,9.196890625,1.9235501709,0.167660036375,0.27146015012,0.947522960198,0.019993358891
2021/03/16/13:49:32.606097,669751,1615898972,608170986,mocap,-2.79525952148,9.1886640625,1.92308557129,0.167576343812,0.271675020473,0.947463229304,0.0205977849314
2021/03/16/13:49:32.617671,669752,1615898972,618170977,mocap,-2.79577978516,9.18038085937,1.92245080566,0.167103122712,0.271673366305,0.947537011667,0.0210649369367
2021/03/16/13:49:32.626217,669753,1615898972,628171206,mocap,-2.79629296875,9.17210839844,1.92179089355,0.166944100067,0.272072296177,0.947447124279,0.0212200032798
2021/03/16/13:49:32.637614,669754,1615898972,638171196,mocap,-2.7969074707,9.16379003906,1.92105688477,0.166854192955,0.272248939585,0.947399924285,0.021761728954
2021/03/16/13:49:32.646586,669755,1615898972,648171186,mocap,-2.79746435547,9.15535058594,1.92015783691,0.166385337771,0.272543928055,0.947389205265,0.0221230697798
2021/03/16/13:49:32.656079,669756,1615898972,658171177,mocap,-2.79811645508,9.14691308594,1.91924707031,0.166010006833,0.272929103307,0.947335112864,0.0225070783293
2021/03/16/13:49:32.667415,669757,1615898972,668171167,mocap,-2.79878149414,9.13839550781,1.91828063965,0.165663962369,0.273071474326,0.947352619699,0.0225929669198
2021/03/16/13:49:32.675994,669758,1615898972,678171158,mocap,-2.79946289063,9.12984960938,1.91717297363,0.164814052049,0.273437077115,0.947387852599,0.0229074533261
2021/03/16/13:49:32.687633,669759,1615898972,688171148,mocap,-2.80023461914,9.12127832031,1.91609887695,0.164921509346,0.273587767765,0.94732474703,0.0229444203396
2021/03/16/13:49:32.695826,669760,1615898972,698171139,mocap,-2.80097607422,9.11258984375,1.91489648438,0.164471420533,0.273990629492,0.947283605031,0.0230664633534
2021/03/16/13:49:32.707529,669761,1615898972,708171129,mocap,-2.80176879883,9.10386328125,1.91360241699,0.163912794099,0.274117722027,0.947351424274,0.0227454525135
2021/03/16/13:49:32.715964,669762,1615898972,718171120,mocap,-2.80258081055,9.0951484375,1.9122902832,0.163840805589,0.274156711435,0.947351762454,0.0227800979641
2021/03/16/13:49:32.725927,669763,1615898972,728171110,mocap,-2.8034284668,9.08639941406,1.91096044922,0.163310037739,0.274040027288,0.947484563322,0.0224699911942
2021/03/16/13:49:32.736455,669764,1615898972,738171101,mocap,-2.80429736328,9.07753125,1.90948718262,0.163051673333,0.274397370622,0.947434573494,0.0220897269175
2021/03/16/13:49:32.745944,669765,1615898972,748171091,mocap,-2.8051887207,9.06879003906,1.9081328125,0.162845573996,0.274352765154,0.947494376966,0.0215932386504
2021/03/16/13:49:32.757435,669766,1615898972,758171082,mocap,-2.80611645508,9.05992382812,1.90676281738,0.162451112408,0.274674264442,0.947479695779,0.0211163238353
2021/03/16/13:49:32.765927,669767,1615898972,768171072,mocap,-2.80709375,9.05106738281,1.90549121094,0.162228178749,0.274786381391,0.94749320531,0.0207627693234
2021/03/16/13:49:32.777509,669768,1615898972,778171062,mocap,-2.80806445313,9.04217773438,1.90427172852,0.161941960535,0.275300422241,0.947410965614,0.0199232414215
2021/03/16/13:49:32.786216,669769,1615898972,788171053,mocap,-2.80908886719,9.03335351563,1.9032623291,0.161523805939,0.275445262039,0.947448571226,0.0195236686125
2021/03/16/13:49:32.795695,669770,1615898972,798171043,mocap,-2.81013256836,9.02433007813,1.90221240234,0.161633769678,0.275713477145,0.947368112899,0.0187151195924
2021/03/16/13:49:32.807231,669771,1615898972,808171034,mocap,-2.81119946289,9.01540136719,1.90137817383,0.161593859583,0.27609125706,0.947279758938,0.0179469262289
2021/03/16/13:49:32.815963,669772,1615898972,818171024,mocap,-2.81228320312,9.00638964844,1.90060791016,0.161220145753,0.276506054102,0.947233250645,0.017367731401
2021/03/16/13:49:32.827329,669773,1615898972,828171015,mocap,-2.81332177734,8.99743554687,1.89993066406,0.161426542936,0.276958290502,0.94708235236,0.0164495370445
2021/03/16/13:49:32.836161,669774,1615898972,838171005,mocap,-2.81442114258,8.98838671875,1.89930834961,0.161409148199,0.277360585839,0.946981084502,0.0156527531777
2021/03/16/13:49:32.847487,669775,1615898972,848170996,mocap,-2.81551904297,8.97938183594,1.89889978027,0.162304669964,0.277591164706,0.946781797826,0.0143024485876
2021/03/16/13:49:32.856245,669776,1615898972,858170986,mocap,-2.81663818359,8.97030078125,1.89853674316,0.16185912958,0.278059347103,0.946724396868,0.0140544139941
2021/03/16/13:49:32.867409,669777,1615898972,868170977,mocap,-2.81776953125,8.96121484375,1.89848278809,0.162231027634,0.279024931902,0.946388585828,0.013222501509
2021/03/16/13:49:32.877338,669778,1615898972,878171206,mocap,-2.81896240234,8.95211328125,1.89884191895,0.161954700367,0.279496185207,0.946300841141,0.0129341468171
2021/03/16/13:49:32.886194,669779,1615898972,888171196,mocap,-2.82018237305,8.94297949219,1.89954455566,0.162329364955,0.280121083636,0.946061287031,0.0122224723839
2021/03/16/13:49:32.896295,669780,1615898972,898171186,mocap,-2.82138378906,8.93381542969,1.90059106445,0.161818484009,0.280209524183,0.946125366728,0.0120080908765
2021/03/16/13:49:32.907333,669781,1615898972,908171177,mocap,-2.82260498047,8.92456347656,1.9017779541,0.162647658371,0.279845141821,0.946103049185,0.0110211931057
2021/03/16/13:49:32.916070,669782,1615898972,918171167,mocap,-2.82366870117,8.91521484375,1.90300964355,0.162730413123,0.279881867521,0.946085810608,0.0103245226586
2021/03/16/13:49:32.926027,669783,1615898972,928171158,mocap,-2.82476879883,8.90596289063,1.90443457031,0.163493069035,0.27983782105,0.945974016055,0.00969466877519
2021/03/16/13:49:32.936105,669784,1615898972,938171148,mocap,-2.82576831055,8.89672851562,1.90600512695,0.164681458571,0.27963378532,0.945836631241,0.00883331847643
