time,.header.seq,.header.stamp.secs,.header.stamp.nsecs,.header.frame_id,.pose.position.x,.pose.position.y,.pose.position.z,.pose.orientation.x,.pose.orientation.y,.pose.orientation.z,.pose.orientation.w
2021/03/16/15:14:56.070568,42135,1615904096,72450161,mocap,-2.85862060547,10.3449345703,1.93448803711,0.153971719433,0.235464996615,0.957658056406,-0.0611554521958
2021/03/16/15:14:56.080981,42136,1615904096,82450151,mocap,-2.85868603516,10.3450810547,1.93491210937,0.151856136467,0.237029060211,0.957689790504,-0.0598932376618
2021/03/16/15:14:56.091854,42137,1615904096,92450142,mocap,-2.85866308594,10.3450654297,1.93489978027,0.151934826076,0.237219721545,0.957620711673,-0.060043207357
2021/03/16/15:14:56.102074,42138,1615904096,102450132,mocap,-2.85860644531,10.3449511719,1.93471948242,0.152327175226,0.236619761929,0.957681092712,-0.0604520027114
2021/03/16/15:14:56.111855,42139,1615904096,112450123,mocap,-2.85848095703,10.3447744141,1.93448974609,0.153638123789,0.235859277362,0.95760610015,-0.0612885107701
2021/03/16/15:14:56.121742,42140,1615904096,122450113,mocap,-2.85847387695,10.3447353516,1.93453833008,0.153334863884,0.235974947546,0.957630701532,-0.0612183497203
2021/03/16/15:14:56.133213,42141,1615904096,132450104,mocap,-2.85845410156,10.3446240234,1.9344888916,0.15350089213,0.235902496609,0.957610083718,-0.0614037304294
2021/03/16/15:14:56.142966,42142,1615904096,142450094,mocap,-2.85844604492,10.3445361328,1.93451989746,0.153373879281,0.235879925768,0.957638100496,-0.0613707442931
2021/03/16/15:14:56.151107,42143,1615904096,152450085,mocap,-2.85844458008,10.3444501953,1.93453955078,0.153287541821,0.235646200112,0.957703334941,-0.0614664554558
2021/03/16/15:14:56.161608,42144,1615904096,162450075,mocap,-2.85839916992,10.3443398437,1.93451843262,0.153315768261,0.235521899599,0.957728252782,-0.0614841677073
2021/03/16/15:14:56.170813,42145,1615904096,172450066,mocap,-2.85838696289,10.34421875,1.93452246094,0.153308639878,0.235392952419,0.957752858805,-0.0616123087116
2021/03/16/15:14:56.181867,42146,1615904096,182450056,mocap,-2.85845483398,10.3442490234,1.93481311035,0.151868369615,0.236134347679,0.957856620345,-0.0607229332359
2021/03/16/15:14:56.191049,42147,1615904096,192450047,mocap,-2.8584465332,10.3441679687,1.93478051758,0.152024162764,0.23598912121,0.957852847819,-0.0609566533024
2021/03/16/15:14:56.202651,42148,1615904096,202450037,mocap,-2.85844140625,10.3440917969,1.9348137207,0.151942320923,0.23584242469,0.957900248331,-0.0609835697288
2021/03/16/15:14:56.211053,42149,1615904096,212450027,mocap,-2.85842700195,10.3440283203,1.9348067627,0.151745344296,0.235758610174,0.957946192075,-0.0610762537562
2021/03/16/15:14:56.221000,42150,1615904096,222450256,mocap,-2.85842895508,10.3439912109,1.93481994629,0.151766991062,0.235660486434,0.957958651807,-0.0612056702974
2021/03/16/15:14:56.232664,42151,1615904096,232450247,mocap,-2.85842749023,10.3439550781,1.93478540039,0.152009013453,0.235811881361,0.957866405507,-0.0614652619606
2021/03/16/15:14:56.240545,42152,1615904096,242450237,mocap,-2.85843920898,10.3439335938,1.93482873535,0.151687936238,0.235722614092,0.957931562183,-0.0615852038794
2021/03/16/15:14:56.251538,42153,1615904096,252450228,mocap,-2.85843481445,10.3439091797,1.93477697754,0.151733483663,0.235897772344,0.957867183338,-0.0618033601323
2021/03/16/15:14:56.260814,42154,1615904096,262450218,mocap,-2.85844433594,10.3439023438,1.93477038574,0.151810659269,0.235914274769,0.957823802763,-0.0622216580377
2021/03/16/15:14:56.270701,42155,1615904096,272450209,mocap,-2.85848071289,10.34390625,1.93482580566,0.151617783741,0.236162081677,0.957785398775,-0.0623429416269
2021/03/16/15:14:56.282449,42156,1615904096,282450199,mocap,-2.85848095703,10.34390625,1.93478222656,0.151475496982,0.236222057807,0.957768144872,-0.0627255102962
2021/03/16/15:14:56.290707,42157,1615904096,292450190,mocap,-2.85851196289,10.3439169922,1.93475805664,0.151529029474,0.236249501883,0.957732321415,-0.0630391335491
2021/03/16/15:14:56.300914,42158,1615904096,302450180,mocap,-2.85851831055,10.3439238281,1.93477392578,0.151281093734,0.236343812201,0.957728914033,-0.0633320373135
2021/03/16/15:14:56.312247,42159,1615904096,312450171,mocap,-2.85856738281,10.3439326172,1.93477197266,0.151072735612,0.236355869668,0.957735977725,-0.0636767582748
2021/03/16/15:14:56.322567,42160,1615904096,322450161,mocap,-2.85860009766,10.3439619141,1.93476904297,0.150918587673,0.236475668196,0.957714599784,-0.0639185188707
2021/03/16/15:14:56.331157,42161,1615904096,332450151,mocap,-2.85866967773,10.3439755859,1.93479199219,0.15082338426,0.236517848185,0.957690031676,-0.064353919048
2021/03/16/15:14:56.341545,42162,1615904096,342450142,mocap,-2.85862792969,10.3438994141,1.93459375,0.152014173682,0.235805980608,0.957611569772,-0.0653247086709
2021/03/16/15:14:56.351452,42163,1615904096,352450132,mocap,-2.8587746582,10.3440488281,1.93480175781,0.150567799675,0.236615127978,0.957675413431,-0.0648106251394
2021/03/16/15:14:56.360881,42164,1615904096,362450123,mocap,-2.85882324219,10.3440693359,1.93481921387,0.150314523664,0.236664679672,0.957690895227,-0.0649886620454
2021/03/16/15:14:56.372114,42165,1615904096,372450113,mocap,-2.85887646484,10.3441201172,1.93484765625,0.149940770179,0.236734135563,0.957723538435,-0.0651178480274
2021/03/16/15:14:56.380984,42166,1615904096,382450104,mocap,-2.85883691406,10.3440732422,1.93457836914,0.151273649162,0.235980080348,0.957633362364,-0.0660911192379
2021/03/16/15:14:56.391972,42167,1615904096,392450094,mocap,-2.85887451172,10.3441386719,1.93457751465,0.151243889533,0.235986406564,0.95762218215,-0.0662982582436
2021/03/16/15:14:56.400930,42168,1615904096,402450085,mocap,-2.85891699219,10.3441884766,1.93459216309,0.151150017074,0.235990330717,0.9576229913,-0.0664864404051
2021/03/16/15:14:56.411957,42169,1615904096,412450075,mocap,-2.85894873047,10.3442626953,1.93459313965,0.150856850779,0.236086468,0.957638186077,-0.0665919911995
2021/03/16/15:14:56.420936,42170,1615904096,422450066,mocap,-2.85898046875,10.3443662109,1.93459887695,0.151036449386,0.236263360743,0.957557128915,-0.0667229869602
2021/03/16/15:14:56.432129,42171,1615904096,432450056,mocap,-2.8589987793,10.3444482422,1.93457739258,0.150926409235,0.236309214232,0.957553845403,-0.0668566154728
2021/03/16/15:14:56.441002,42172,1615904096,442450047,mocap,-2.85901391602,10.3445283203,1.93457849121,0.150709045985,0.236407204974,0.957557191162,-0.0669526004706
2021/03/16/15:14:56.452027,42173,1615904096,452450037,mocap,-2.85902490234,10.3446601563,1.93457348633,0.150879948268,0.236625818772,0.957463093076,-0.0671408367172
2021/03/16/15:14:56.461415,42174,1615904096,462450027,mocap,-2.85902294922,10.3447539063,1.93457006836,0.151014152992,0.236802185689,0.957392815001,-0.0672193163417
2021/03/16/15:14:56.472464,42175,1615904096,472450256,mocap,-2.85911303711,10.3449560547,1.93484338379,0.149559756142,0.237784557645,0.957429164764,-0.066481371627
2021/03/16/15:14:56.480847,42176,1615904096,482450247,mocap,-2.85911474609,10.3450615234,1.93487963867,0.149820823451,0.238072209903,0.957314577787,-0.0665141884104
2021/03/16/15:14:56.493099,42177,1615904096,492450237,mocap,-2.85909692383,10.3451582031,1.93486315918,0.149812647877,0.238239389762,0.957273024556,-0.0665320591515
2021/03/16/15:14:56.500784,42178,1615904096,502450228,mocap,-2.85907250977,10.3452363281,1.93494274902,0.150035188689,0.238447117081,0.957166023885,-0.0668253261698
2021/03/16/15:14:56.512865,42179,1615904096,512450218,mocap,-2.85904785156,10.3453076172,1.93497033691,0.149966210065,0.23857142331,0.957155172927,-0.0666918140579
2021/03/16/15:14:56.520787,42180,1615904096,522450209,mocap,-2.8590144043,10.3453769531,1.93498962402,0.150253168208,0.238813038469,0.957044212098,-0.0667733597774
2021/03/16/15:14:56.532748,42181,1615904096,532450199,mocap,-2.85897338867,10.3454316406,1.93502563477,0.150357173471,0.238964332602,0.956981790004,-0.0668925591692
2021/03/16/15:14:56.541387,42182,1615904096,542450190,mocap,-2.85892602539,10.3454775391,1.93505566406,0.150211740061,0.239196432556,0.956953668369,-0.0667920151061
2021/03/16/15:14:56.552503,42183,1615904096,552450180,mocap,-2.85886010742,10.3454882813,1.93505419922,0.150368036503,0.239498006415,0.956852651007,-0.0668068705779
2021/03/16/15:14:56.560865,42184,1615904096,562450171,mocap,-2.85877685547,10.3455029297,1.93508215332,0.150482442685,0.239716987278,0.956784087982,-0.0667458306094
2021/03/16/15:14:56.572645,42185,1615904096,572450161,mocap,-2.85871313477,10.3455009766,1.93510864258,0.150374157574,0.239995343394,0.956733088855,-0.0667207168172
2021/03/16/15:14:56.581074,42186,1615904096,582450151,mocap,-2.85862670898,10.3454726562,1.93509191895,0.150595713751,0.24028713849,0.956622655411,-0.0667541705639
2021/03/16/15:14:56.592556,42187,1615904096,592450142,mocap,-2.85852539063,10.3454208984,1.93508398438,0.150675073371,0.240643240802,0.956525715803,-0.0666813066971
2021/03/16/15:14:56.600897,42188,1615904096,602450132,mocap,-2.85842675781,10.3453427734,1.9350847168,0.150609042864,0.240836414198,0.956493569189,-0.0665943008663
2021/03/16/15:14:56.612488,42189,1615904096,612450123,mocap,-2.85832202148,10.3452451172,1.93506835937,0.150903631517,0.241295637009,0.95633370806,-0.0665609240998
2021/03/16/15:14:56.620653,42190,1615904096,622450113,mocap,-2.85822705078,10.3451318359,1.93507470703,0.150926700041,0.241602229021,0.956258672164,-0.0664744462961
2021/03/16/15:14:56.632427,42191,1615904096,632450104,mocap,-2.85801708984,10.3448417969,1.93482971191,0.152302124038,0.241139796963,0.956103774653,-0.0672401646208
2021/03/16/15:14:56.641036,42192,1615904096,642450094,mocap,-2.85798046875,10.3447128906,1.93503552246,0.151085847956,0.242194038888,0.956096769036,-0.0662879308708
2021/03/16/15:14:56.652426,42193,1615904096,652450085,mocap,-2.85783276367,10.3444873047,1.93499060059,0.151376763042,0.242367325249,0.956004054723,-0.0663280282734
2021/03/16/15:14:56.660679,42194,1615904096,662450075,mocap,-2.85767382812,10.3441767578,1.93497839355,0.151480635874,0.242713131079,0.955905477942,-0.0662470415318
2021/03/16/15:14:56.672274,42195,1615904096,672450066,mocap,-2.85749951172,10.3438583984,1.93498352051,0.151526469125,0.242964502348,0.955845717444,-0.0660828449742
2021/03/16/15:14:56.680905,42196,1615904096,682450056,mocap,-2.85728100586,10.3435224609,1.93497119141,0.151835577897,0.243396676974,0.955698408659,-0.0659133681797
2021/03/16/15:14:56.692584,42197,1615904096,692450047,mocap,-2.85707495117,10.3431445312,1.93501257324,0.151572123421,0.243832499695,0.955648061064,-0.0656383244256
2021/03/16/15:14:56.702320,42198,1615904096,702450037,mocap,-2.85687329102,10.3427275391,1.93503088379,0.151667313524,0.244247075984,0.955533377457,-0.0655466084301
2021/03/16/15:14:56.710946,42199,1615904096,712450027,mocap,-2.85662646484,10.3422900391,1.9350189209,0.151819700571,0.244560616831,0.955445014366,-0.0653123656232
2021/03/16/15:14:56.722213,42200,1615904096,722450256,mocap,-2.8564206543,10.3418037109,1.93504431152,0.151927884886,0.244912497754,0.955355746245,-0.065047526167
2021/03/16/15:14:56.731014,42201,1615904096,732450247,mocap,-2.85619213867,10.341265625,1.93503918457,0.15185530987,0.245213815508,0.955313795848,-0.0646969862028
2021/03/16/15:14:56.742357,42202,1615904096,742450237,mocap,-2.85595214844,10.3406982422,1.93500720215,0.151852381868,0.245429184801,0.95526681296,-0.0645808342618
2021/03/16/15:14:56.751311,42203,1615904096,752450228,mocap,-2.85571118164,10.3400771484,1.93494628906,0.151884969174,0.245571797608,0.955237962263,-0.0643885193064
2021/03/16/15:14:56.761035,42204,1615904096,762450218,mocap,-2.85546630859,10.3394189453,1.93491955566,0.151675409896,0.245829761596,0.955237400683,-0.0639045847719
2021/03/16/15:14:56.770941,42205,1615904096,772450209,mocap,-2.85521899414,10.3387460938,1.93485717773,0.151517631345,0.245934934495,0.955255238467,-0.0636069765833
2021/03/16/15:14:56.782252,42206,1615904096,782450199,mocap,-2.85497753906,10.3380185547,1.9347902832,0.151466153901,0.246136614443,0.955236597312,-0.0632281958638
2021/03/16/15:14:56.790864,42207,1615904096,792450190,mocap,-2.85473486328,10.3372578125,1.93475415039,0.151428541552,0.246074345732,0.95527990819,-0.0629055677384
2021/03/16/15:14:56.802041,42208,1615904096,802450180,mocap,-2.8544230957,10.3364863281,1.93469567871,0.151162826125,0.245909641627,0.95539745305,-0.062401572625
2021/03/16/15:14:56.810712,42209,1615904096,812450171,mocap,-2.85412231445,10.3357226563,1.93463977051,0.150924044192,0.245820840773,0.955487957104,-0.0619419836952
2021/03/16/15:14:56.822050,42210,1615904096,822450161,mocap,-2.85378173828,10.3348613281,1.93458935547,0.150660607218,0.245778348802,0.955572573681,-0.0614445355456
2021/03/16/15:14:56.831010,42211,1615904096,832450151,mocap,-2.85340454102,10.3339511719,1.93444189453,0.149746653114,0.245357164793,0.955854034409,-0.0609825762325
2021/03/16/15:14:56.841983,42212,1615904096,842450142,mocap,-2.85300073242,10.3331367187,1.93441333008,0.1497971709,0.245205017547,0.955911230092,-0.0605725359156
2021/03/16/15:14:56.850705,42213,1615904096,852450132,mocap,-2.85260424805,10.3322226562,1.9343125,0.149419721816,0.245127367821,0.956016531973,-0.0601557687138
2021/03/16/15:14:56.862861,42214,1615904096,862450123,mocap,-2.85220019531,10.3313251953,1.93427172852,0.149881919604,0.245398679898,0.955895657118,-0.0598195961952
2021/03/16/15:14:56.870883,42215,1615904096,872450113,mocap,-2.85174047852,10.3304511719,1.9342265625,0.149734230793,0.245234818957,0.955986924541,-0.0594015531106
2021/03/16/15:14:56.883083,42216,1615904096,882450104,mocap,-2.85126782227,10.3295185547,1.93412939453,0.14940952896,0.245169103338,0.956081253633,-0.0589706596749
2021/03/16/15:14:56.890983,42217,1615904096,892450094,mocap,-2.85076147461,10.3284804687,1.93395861816,0.148897268967,0.244462887321,0.95636621062,-0.0585762521832
2021/03/16/15:14:56.902969,42218,1615904096,902450085,mocap,-2.85021411133,10.3275224609,1.93388806152,0.1487003838,0.244260989646,0.956483427242,-0.0580019706913
2021/03/16/15:14:56.910833,42219,1615904096,912450075,mocap,-2.84960986328,10.3264912109,1.93360791016,0.149851464214,0.243165208739,0.956555158568,-0.0584589414879
2021/03/16/15:14:56.920607,42220,1615904096,922450066,mocap,-2.84914819336,10.3255439453,1.93374133301,0.148337949532,0.244141187417,0.956614983785,-0.05725997035
2021/03/16/15:14:56.932997,42221,1615904096,932450056,mocap,-2.84854272461,10.32459375,1.93373327637,0.148842452406,0.244644508626,0.956427146049,-0.0569393165581
2021/03/16/15:14:56.940672,42222,1615904096,942450047,mocap,-2.84790551758,10.3235849609,1.93361474609,0.148881986373,0.244560867509,0.956453070863,-0.0567596457407
2021/03/16/15:14:56.951757,42223,1615904096,952450037,mocap,-2.84716455078,10.322359375,1.93316430664,0.14932027583,0.243071324416,0.956722287501,-0.0574651434266
2021/03/16/15:14:56.961726,42224,1615904096,962450027,mocap,-2.84660058594,10.3213945313,1.93334887695,0.147669057286,0.243755528441,0.956876399689,-0.0562551678491
2021/03/16/15:14:56.970756,42225,1615904096,972450256,mocap,-2.84598193359,10.3203564453,1.93329064941,0.147469251501,0.243549746261,0.956963602906,-0.0561872357629
2021/03/16/15:14:56.983053,42226,1615904096,982450247,mocap,-2.84527050781,10.3192050781,1.93312683105,0.147318809122,0.243712838008,0.956966942943,-0.0558166611871
2021/03/16/15:14:56.990957,42227,1615904096,992450237,mocap,-2.84455786133,10.3180927734,1.9330567627,0.14724344861,0.243614836524,0.956998489753,-0.0559022888082
2021/03/16/15:14:57.002748,42228,1615904097,2450228,mocap,-2.8438684082,10.3170771484,1.93317907715,0.147143837169,0.24499135141,0.956685552636,-0.0555038281366
2021/03/16/15:14:57.011239,42229,1615904097,12450218,mocap,-2.84306396484,10.3157880859,1.93281433105,0.147017739843,0.243479504298,0.957068041659,-0.0558952797397
2021/03/16/15:14:57.022557,42230,1615904097,22450209,mocap,-2.84225439453,10.3144853516,1.93244934082,0.147950468789,0.24247544736,0.95713470834,-0.0566521602266
2021/03/16/15:14:57.030895,42231,1615904097,32450199,mocap,-2.84156958008,10.3133554688,1.93254174805,0.14626871971,0.243295367679,0.957240249234,-0.055712961067
2021/03/16/15:14:57.042523,42232,1615904097,42450190,mocap,-2.84076293945,10.3120888672,1.93239733887,0.146074541421,0.242973621514,0.957344338722,-0.0558378585763
2021/03/16/15:14:57.051156,42233,1615904097,52450180,mocap,-2.83986328125,10.3107519531,1.93209851074,0.147570281499,0.242827833104,0.957109946305,-0.0565528133108
2021/03/16/15:14:57.060929,42234,1615904097,62450171,mocap,-2.83917089844,10.309546875,1.93225244141,0.146141851177,0.243335255723,0.957258750189,-0.0555535905849
2021/03/16/15:14:57.071376,42235,1615904097,72450161,mocap,-2.83830786133,10.3081738281,1.93197241211,0.145367110329,0.242586448488,0.957572962755,-0.0554459273492
2021/03/16/15:14:57.080815,42236,1615904097,82450151,mocap,-2.83734545898,10.3066806641,1.93152307129,0.146511021982,0.241522288516,0.957610021475,-0.0564319525921
2021/03/16/15:14:57.092518,42237,1615904097,92450142,mocap,-2.83649072266,10.3052900391,1.93149841309,0.145595443518,0.24154996359,0.957765725567,-0.0560391440197
2021/03/16/15:14:57.101040,42238,1615904097,102450132,mocap,-2.83569458008,10.3039990234,1.93154968262,0.145534919061,0.242443914613,0.957586205402,-0.0554004572271
2021/03/16/15:14:57.110931,42239,1615904097,112450123,mocap,-2.83470800781,10.3024111328,1.93103381348,0.145757108124,0.24097877577,0.957897767135,-0.0558208313988
2021/03/16/15:14:57.121551,42240,1615904097,122450113,mocap,-2.83383520508,10.3009580078,1.93092224121,0.145594726624,0.24173866597,0.957755908259,-0.0553913264732
2021/03/16/15:14:57.132507,42241,1615904097,132450104,mocap,-2.83287329102,10.2994287109,1.93059997559,0.144935816194,0.240927033987,0.958065758371,-0.0552971647138
2021/03/16/15:14:57.140919,42242,1615904097,142450094,mocap,-2.83196533203,10.2979394531,1.93033520508,0.145625734463,0.2409920773,0.957952577513,-0.0551616905282
2021/03/16/15:14:57.150902,42243,1615904097,152450085,mocap,-2.83103637695,10.2963574219,1.92995581055,0.144060787506,0.240249666651,0.958428791033,-0.0542294564268
2021/03/16/15:14:57.161120,42244,1615904097,162450075,mocap,-2.830109375,10.2947490234,1.92958618164,0.144435634138,0.24030564399,0.958367376483,-0.0540694956233
2021/03/16/15:14:57.170979,42245,1615904097,172450066,mocap,-2.82910693359,10.2932275391,1.92918786621,0.144808061219,0.239216876846,0.958567612283,-0.0543511306095
2021/03/16/15:14:57.181196,42246,1615904097,182450056,mocap,-2.82821020508,10.291625,1.92881152344,0.144245741477,0.239165733835,0.958712405235,-0.0535111306929
2021/03/16/15:14:57.191046,42247,1615904097,192450047,mocap,-2.82723999023,10.2899560547,1.9281751709,0.144346666581,0.239307694676,0.958701944813,-0.0527867610103
2021/03/16/15:14:57.200929,42248,1615904097,202450037,mocap,-2.82633007812,10.2883291016,1.92767993164,0.144188027917,0.239279260598,0.958770969055,-0.0520910884625
2021/03/16/15:14:57.210912,42249,1615904097,212450027,mocap,-2.82537402344,10.2867138672,1.92717431641,0.14427102603,0.239805698461,0.958658772994,-0.0515019628808
2021/03/16/15:14:57.221206,42250,1615904097,222450256,mocap,-2.82437597656,10.2849628906,1.92642663574,0.143840510956,0.239295115323,0.958879686534,-0.0509656961207
2021/03/16/15:14:57.230977,42251,1615904097,232450247,mocap,-2.82341625977,10.2831757812,1.92574523926,0.143333673812,0.239584872677,0.958938853937,-0.0499081620418
2021/03/16/15:14:57.242080,42252,1615904097,242450237,mocap,-2.82246875,10.2814365234,1.92519641113,0.14401071414,0.239480740746,0.958887192411,-0.0494494515877
2021/03/16/15:14:57.250992,42253,1615904097,252450228,mocap,-2.82152734375,10.2796318359,1.9246809082,0.143749459874,0.239784355896,0.958897316704,-0.0485333491312
2021/03/16/15:14:57.260870,42254,1615904097,262450218,mocap,-2.82050048828,10.2777050781,1.92407971191,0.143629207904,0.239520575675,0.959015513612,-0.0478517461309
2021/03/16/15:14:57.270753,42255,1615904097,272450209,mocap,-2.81949047852,10.2757529297,1.9235456543,0.144002344421,0.239078332064,0.959086604992,-0.0475157975243
2021/03/16/15:14:57.281961,42256,1615904097,282450199,mocap,-2.81861108398,10.2738095703,1.92314001465,0.144140003879,0.239209017537,0.959062289551,-0.0469278794037
2021/03/16/15:14:57.290796,42257,1615904097,292450190,mocap,-2.81763842773,10.2717646484,1.92265222168,0.143965997866,0.238764653984,0.959237968338,-0.0461275448933
2021/03/16/15:14:57.302986,42258,1615904097,302450180,mocap,-2.816625,10.2697109375,1.92228601074,0.144696380604,0.238485096967,0.959213695572,-0.0457919669434
2021/03/16/15:14:57.310732,42259,1615904097,312450171,mocap,-2.81568139648,10.2676181641,1.92185620117,0.145419702057,0.238461273361,0.959123372184,-0.0455158285066
2021/03/16/15:14:57.321696,42260,1615904097,322450161,mocap,-2.81472412109,10.2654287109,1.92148425293,0.146199113364,0.237768691553,0.959179650526,-0.0454561952657
2021/03/16/15:14:57.332706,42261,1615904097,332450151,mocap,-2.81376464844,10.2632402344,1.92123156738,0.146609948627,0.237337238009,0.959241269387,-0.0450860556094
2021/03/16/15:14:57.341003,42262,1615904097,342450142,mocap,-2.81282055664,10.2610146484,1.92100097656,0.147340747126,0.236829414047,0.95927083851,-0.0447436227868
2021/03/16/15:14:57.351712,42263,1615904097,352450132,mocap,-2.81201708984,10.2586552734,1.92082543945,0.148029680362,0.236478278286,0.959257704557,-0.0446082464129
2021/03/16/15:14:57.362872,42264,1615904097,362450123,mocap,-2.81121044922,10.2563027344,1.92078515625,0.148534508341,0.235718120901,0.959381285532,-0.0442946103322
2021/03/16/15:14:57.370857,42265,1615904097,372450113,mocap,-2.81034570312,10.2539023437,1.9208248291,0.148792033029,0.235163282757,0.959490725903,-0.044008157354
2021/03/16/15:14:57.382862,42266,1615904097,382450104,mocap,-2.80948632813,10.2514003906,1.92084753418,0.149370751276,0.234604773932,0.959544560114,-0.0438544253158
2021/03/16/15:14:57.390905,42267,1615904097,392450094,mocap,-2.80874243164,10.2488330078,1.92091137695,0.150234042345,0.233819503081,0.959588577218,-0.0441354402124
2021/03/16/15:14:57.402685,42268,1615904097,402450085,mocap,-2.80804663086,10.2463017578,1.92117529297,0.151310506062,0.233439271377,0.959513493026,-0.0441032782428
2021/03/16/15:14:57.410912,42269,1615904097,412450075,mocap,-2.80733959961,10.2436142578,1.92113977051,0.151472557672,0.231878904602,0.95987046709,-0.0440105470408
2021/03/16/15:14:57.422349,42270,1615904097,422450066,mocap,-2.80666137695,10.2409482422,1.92130895996,0.152109563671,0.23111212254,0.959954053169,-0.0440236228624
2021/03/16/15:14:57.430701,42271,1615904097,432450056,mocap,-2.8060246582,10.2383115234,1.92149523926,0.152952285741,0.231024615051,0.959855035973,-0.0437211741256
2021/03/16/15:14:57.442528,42272,1615904097,442450047,mocap,-2.80548999023,10.2355986328,1.92157104492,0.153138801535,0.229810396112,0.960104100213,-0.0439977031585
2021/03/16/15:14:57.450709,42273,1615904097,452450037,mocap,-2.80499145508,10.2328769531,1.92162634277,0.153335023877,0.229481798836,0.960143808233,-0.0441626482806
2021/03/16/15:14:57.462290,42274,1615904097,462450027,mocap,-2.80456347656,10.2301816406,1.92180480957,0.153611582037,0.229624012939,0.960078204144,-0.0438875756069
2021/03/16/15:14:57.471020,42275,1615904097,472450256,mocap,-2.80414624023,10.22740625,1.92175744629,0.152938858825,0.228901513717,0.960361672597,-0.0438093170995
2021/03/16/15:14:57.481302,42276,1615904097,482450247,mocap,-2.8037980957,10.2245947266,1.92176184082,0.153262376081,0.228940499279,0.960293391143,-0.0439715463092
2021/03/16/15:14:57.491411,42277,1615904097,492450237,mocap,-2.8035168457,10.2218232422,1.92189233398,0.153775495467,0.229450176867,0.960092700441,-0.0439058249805
2021/03/16/15:14:57.502307,42278,1615904097,502450228,mocap,-2.8032421875,10.2189433594,1.92181201172,0.152824622739,0.229101166808,0.960330166442,-0.0438549362611
2021/03/16/15:14:57.511194,42279,1615904097,512450218,mocap,-2.80301782227,10.2160742188,1.92183532715,0.152550900268,0.229100829072,0.960371680492,-0.0439007487138
2021/03/16/15:14:57.522054,42280,1615904097,522450209,mocap,-2.8028815918,10.2131279297,1.92179846191,0.152542000521,0.229405155705,0.960294663561,-0.0440270258456
2021/03/16/15:14:57.530825,42281,1615904097,532450199,mocap,-2.80270947266,10.2101347656,1.92177075195,0.152052277708,0.229705696165,0.960302732513,-0.0439778806577
2021/03/16/15:14:57.541365,42282,1615904097,542450190,mocap,-2.80260839844,10.2071484375,1.92171008301,0.151989667959,0.230808819332,0.960046098876,-0.0440216991906
2021/03/16/15:14:57.551443,42283,1615904097,552450180,mocap,-2.80252880859,10.2040068359,1.92156286621,0.151311680884,0.230607576633,0.960191266358,-0.0442454264328
2021/03/16/15:14:57.561179,42284,1615904097,562450171,mocap,-2.80246142578,10.2008662109,1.92146838379,0.151215226004,0.23118918122,0.96006328856,-0.0443169817194
2021/03/16/15:14:57.570907,42285,1615904097,572450161,mocap,-2.8024375,10.1976904297,1.92138989258,0.151046499314,0.232198637395,0.959848112071,-0.0442758771367
2021/03/16/15:14:57.580986,42286,1615904097,582450151,mocap,-2.80236376953,10.1943291016,1.92106787109,0.150089772532,0.232237252059,0.959985657041,-0.0443447885122
2021/03/16/15:14:57.592178,42287,1615904097,592450142,mocap,-2.8023605957,10.191,1.92088842773,0.149974662965,0.232830760642,0.959866205704,-0.0442075728724
2021/03/16/15:14:57.600811,42288,1615904097,602450132,mocap,-2.80237841797,10.1876083984,1.92072595215,0.149787374198,0.233406310135,0.959762824446,-0.0440518337554
2021/03/16/15:14:57.611007,42289,1615904097,612450123,mocap,-2.80239819336,10.1841416016,1.92052392578,0.149648663173,0.23454673055,0.959521125948,-0.04373001542
2021/03/16/15:14:57.620687,42290,1615904097,622450113,mocap,-2.80237353516,10.1805244141,1.92013769531,0.149284666383,0.234889686343,0.959500176033,-0.0435927991602
2021/03/16/15:14:57.631879,42291,1615904097,632450104,mocap,-2.80243432617,10.1769501953,1.91996203613,0.149787641016,0.235826665141,0.959187402618,-0.0436918608839
2021/03/16/15:14:57.640931,42292,1615904097,642450094,mocap,-2.80249438477,10.1731201172,1.91946313477,0.149519648567,0.235966356777,0.95918428004,-0.0439233903752
2021/03/16/15:14:57.650774,42293,1615904097,652450085,mocap,-2.80255566406,10.1692978516,1.91908947754,0.149660124313,0.236628344788,0.958997155316,-0.0439695587142
2021/03/16/15:14:57.661852,42294,1615904097,662450075,mocap,-2.80261621094,10.1654130859,1.91873791504,0.149566126202,0.237211271544,0.95886887828,-0.0439461138665
2021/03/16/15:14:57.670874,42295,1615904097,672450066,mocap,-2.8026862793,10.1613876953,1.91827319336,0.149701534749,0.238080567195,0.958633234257,-0.04392528082
2021/03/16/15:14:57.682998,42296,1615904097,682450056,mocap,-2.80280615234,10.15734375,1.91796520996,0.150284663873,0.23892360198,0.958317697784,-0.0442405401211
2021/03/16/15:14:57.690894,42297,1615904097,692450047,mocap,-2.80286694336,10.1531845703,1.91762329102,0.148028790148,0.238755210677,0.958740071179,-0.0435993811808
2021/03/16/15:14:57.702816,42298,1615904097,702450037,mocap,-2.80294628906,10.1488564453,1.91706140137,0.147654038121,0.239675082269,0.958572547883,-0.0435063618887
2021/03/16/15:14:57.710856,42299,1615904097,712450027,mocap,-2.80318481445,10.1444960937,1.91665356445,0.147829252197,0.24028446887,0.958389011956,-0.0435934244521
2021/03/16/15:14:57.722534,42300,1615904097,722450256,mocap,-2.80343481445,10.1400517578,1.91620275879,0.148346592242,0.240934092125,0.958137946667,-0.0437690046441
2021/03/16/15:14:57.730779,42301,1615904097,732450247,mocap,-2.80369506836,10.1355214844,1.9157989502,0.148181920756,0.241450656468,0.958037668554,-0.0436750443862
2021/03/16/15:14:57.742544,42302,1615904097,742450237,mocap,-2.80397973633,10.1309169922,1.91543212891,0.149173980206,0.242587132877,0.957588228352,-0.0438566251712
2021/03/16/15:14:57.750952,42303,1615904097,752450228,mocap,-2.80425634766,10.1261767578,1.91507214355,0.148441412371,0.243122693893,0.957582431811,-0.0435014393138
2021/03/16/15:14:57.762469,42304,1615904097,762450218,mocap,-2.80455688477,10.1212675781,1.91448413086,0.148073965777,0.243115644244,0.957632693267,-0.043686390951
2021/03/16/15:14:57.771005,42305,1615904097,772450209,mocap,-2.80498413086,10.116390625,1.91417602539,0.148087228107,0.243526246659,0.957523585208,-0.0437460493544
2021/03/16/15:14:57.782434,42306,1615904097,782450199,mocap,-2.80532568359,10.1112792969,1.9136159668,0.148540503429,0.243574186764,0.957424199924,-0.0441160418657
2021/03/16/15:14:57.791053,42307,1615904097,792450190,mocap,-2.80574023437,10.1062197266,1.91332849121,0.147977198521,0.244034101807,0.9574208537,-0.0435363322192
2021/03/16/15:14:57.802637,42308,1615904097,802450180,mocap,-2.80610620117,10.1009912109,1.91292480469,0.148284758061,0.2446529217,0.95720624297,-0.0437354547417
2021/03/16/15:14:57.810879,42309,1615904097,812450171,mocap,-2.80656396484,10.0956826172,1.91249243164,0.148495007322,0.245074901912,0.957064071404,-0.0437709486599
2021/03/16/15:14:57.822551,42310,1615904097,822450161,mocap,-2.80704199219,10.0903847656,1.91224060059,0.149759353621,0.245875498512,0.956651215127,-0.0439980200874
2021/03/16/15:14:57.830691,42311,1615904097,832450151,mocap,-2.80753540039,10.0850458984,1.91209448242,0.14888271972,0.246545434734,0.956648933185,-0.0432678194467
2021/03/16/15:14:57.842332,42312,1615904097,842450142,mocap,-2.80791552734,10.0793955078,1.91148413086,0.149025501644,0.246411513473,0.956638029632,-0.0437772953025
2021/03/16/15:14:57.850952,42313,1615904097,852450132,mocap,-2.80841650391,10.0737988281,1.91115698242,0.149915950444,0.246571667104,0.956440794056,-0.0441432431712
2021/03/16/15:14:57.862137,42314,1615904097,862450123,mocap,-2.80898413086,10.0682080078,1.91083850098,0.149723107449,0.247558248757,0.956233708237,-0.0437607175606
2021/03/16/15:14:57.870605,42315,1615904097,872450113,mocap,-2.80940185547,10.0624736328,1.91041833496,0.150247535458,0.247971928113,0.956031736697,-0.0440330374999
2021/03/16/15:14:57.882872,42316,1615904097,882450104,mocap,-2.81003369141,10.056765625,1.91039086914,0.150699237586,0.249646569211,0.955526172725,-0.0440006403234
2021/03/16/15:14:57.891220,42317,1615904097,892450094,mocap,-2.8105715332,10.0508691406,1.9099362793,0.1519272213,0.249778834662,0.955257718728,-0.0448478990804
2021/03/16/15:14:57.901615,42318,1615904097,902450085,mocap,-2.81113452148,10.0449257813,1.90973205566,0.151270438242,0.250106792483,0.955288542053,-0.0445829220056
2021/03/16/15:14:57.910736,42319,1615904097,912450075,mocap,-2.81171289062,10.038890625,1.90963562012,0.152219745447,0.251141185178,0.95482854566,-0.045384109342
2021/03/16/15:14:57.921040,42320,1615904097,922450066,mocap,-2.81241040039,10.0329394531,1.9099753418,0.151130382162,0.25266572015,0.954611642886,-0.0451249330201
2021/03/16/15:14:57.932315,42321,1615904097,932450056,mocap,-2.81308203125,10.0268515625,1.91044921875,0.151141999595,0.253618861077,0.954346163738,-0.045353878066
2021/03/16/15:14:57.942248,42322,1615904097,942450047,mocap,-2.8137331543,10.0205458984,1.91070959473,0.152615846537,0.254136990192,0.953913464156,-0.0466036320628
2021/03/16/15:14:57.950979,42323,1615904097,952450037,mocap,-2.81445581055,10.0143212891,1.91141125488,0.152699501776,0.255713728951,0.953439613698,-0.0473946884188
2021/03/16/15:14:57.960939,42324,1615904097,962450027,mocap,-2.81515698242,10.0080507813,1.91217346191,0.152438091614,0.256882547929,0.953145050401,-0.0478382614717
2021/03/16/15:14:57.971089,42325,1615904097,972450256,mocap,-2.81588110352,10.0015478516,1.91267858887,0.153371455072,0.257184200227,0.952846572419,-0.0491619294959
2021/03/16/15:14:57.982094,42326,1615904097,982450247,mocap,-2.81664013672,9.99506640625,1.91346533203,0.152890550315,0.257680092287,0.952755316973,-0.0498273208126
2021/03/16/15:14:57.990885,42327,1615904097,992450237,mocap,-2.81745336914,9.98870410156,1.91473278809,0.152495078979,0.259494718648,0.95230536317,-0.0502219207217
2021/03/16/15:14:58.001897,42328,1615904098,2450228,mocap,-2.81829003906,9.98208691406,1.91579296875,0.151991765788,0.259940121203,0.952210785218,-0.0512273745076
2021/03/16/15:14:58.010849,42329,1615904098,12450218,mocap,-2.81909912109,9.97544824219,1.91701708984,0.152265466055,0.261048984249,0.951825749419,-0.0519268924236
2021/03/16/15:14:58.022251,42330,1615904098,22450209,mocap,-2.81991870117,9.96881835937,1.91835571289,0.152680194948,0.261449961859,0.951587836707,-0.0530401122192
2021/03/16/15:14:58.030814,42331,1615904098,32450199,mocap,-2.82072607422,9.96201367188,1.9194083252,0.152059904556,0.261307030133,0.951668705518,-0.054065682026
2021/03/16/15:14:58.041167,42332,1615904098,42450190,mocap,-2.82146826172,9.95517480469,1.92038232422,0.15216369471,0.261006034854,0.951668744663,-0.0552145798192
2021/03/16/15:14:58.052188,42333,1615904098,52450180,mocap,-2.82216796875,9.94832226563,1.92111315918,0.152911385151,0.260460624292,0.95161372894,-0.0566540711316
2021/03/16/15:14:58.060902,42334,1615904098,62450171,mocap,-2.82290551758,9.94150292969,1.92174279785,0.153135395926,0.259758089447,0.951701187337,-0.057793994786
2021/03/16/15:14:58.071885,42335,1615904098,72450161,mocap,-2.82360424805,9.93457226563,1.92210217285,0.152284366608,0.258601401787,0.952101220158,-0.0586348213201
2021/03/16/15:14:58.080900,42336,1615904098,82450151,mocap,-2.82431665039,9.92787011719,1.92265625,0.15226257324,0.259222077667,0.951893401591,-0.0593209443791
2021/03/16/15:14:58.092008,42337,1615904098,92450142,mocap,-2.82499291992,9.92106738281,1.92284997559,0.151814599179,0.258458016501,0.952124484812,-0.0600894844266
2021/03/16/15:14:58.100850,42338,1615904098,102450132,mocap,-2.82567285156,9.91426660156,1.92294836426,0.151709134628,0.258076256274,0.95220765541,-0.0606759075632
2021/03/16/15:14:58.111166,42339,1615904098,112450123,mocap,-2.82626831055,9.90747363281,1.92291052246,0.151301958094,0.257641552919,0.952343440506,-0.0614045039915
2021/03/16/15:14:58.121993,42340,1615904098,122450113,mocap,-2.82683691406,9.90070019531,1.92276879883,0.15099976282,0.257596708326,0.952354839157,-0.0621551611907
2021/03/16/15:14:58.132785,42341,1615904098,132450104,mocap,-2.82739697266,9.89398046875,1.92261694336,0.150420144869,0.257369114828,0.952483594545,-0.0625294234474
2021/03/16/15:14:58.141270,42342,1615904098,142450094,mocap,-2.82788256836,9.88723730469,1.92239770508,0.150033301507,0.257626377014,0.952444568458,-0.0629919996482
2021/03/16/15:14:58.151704,42343,1615904098,152450085,mocap,-2.82830615234,9.88049511719,1.92214086914,0.149282061076,0.257814698834,0.952482538539,-0.0634308017287
2021/03/16/15:14:58.161018,42344,1615904098,162450075,mocap,-2.82867285156,9.8738046875,1.92189001465,0.149032426911,0.25815484259,0.952382564614,-0.0641316827659
2021/03/16/15:14:58.172635,42345,1615904098,172450066,mocap,-2.82899023437,9.86703125,1.92166381836,0.148463397352,0.258489954767,0.952349323698,-0.0645935999221
2021/03/16/15:14:58.181005,42346,1615904098,182450056,mocap,-2.82922485352,9.86025878906,1.92155249023,0.14809409538,0.258607238024,0.952315690439,-0.0654618766318
2021/03/16/15:14:58.191466,42347,1615904098,192450047,mocap,-2.8293984375,9.8534609375,1.92139892578,0.147802096433,0.258896239312,0.952225917696,-0.0662803580357
2021/03/16/15:14:58.202638,42348,1615904098,202450037,mocap,-2.8295324707,9.84661425781,1.92147644043,0.148112247947,0.258492597287,0.952200660252,-0.0675147933884
2021/03/16/15:14:58.211129,42349,1615904098,212450027,mocap,-2.8295390625,9.83965136719,1.92151599121,0.147764813284,0.258682691453,0.952146528193,-0.0683067840536
2021/03/16/15:14:58.221510,42350,1615904098,222450256,mocap,-2.82954174805,9.832703125,1.92167993164,0.147015776551,0.258471478737,0.952250931921,-0.0692605568317
2021/03/16/15:14:58.230928,42351,1615904098,232450247,mocap,-2.82951464844,9.82567773438,1.92202978516,0.14670601352,0.258083996174,0.952333864594,-0.0702154473001
2021/03/16/15:14:58.242561,42352,1615904098,242450237,mocap,-2.82937719727,9.81849609375,1.92232543945,0.14609561394,0.258177950689,0.952341734999,-0.071031152158
2021/03/16/15:14:58.250878,42353,1615904098,252450228,mocap,-2.82919433594,9.81132519531,1.92275805664,0.145487930066,0.257524584919,0.952535227928,-0.0720485866068
2021/03/16/15:14:58.262395,42354,1615904098,262450218,mocap,-2.82897265625,9.80414746094,1.92329907227,0.145044316515,0.256523420648,0.952779722992,-0.0732713160826
2021/03/16/15:14:58.271118,42355,1615904098,272450209,mocap,-2.82864624023,9.79683007812,1.92376098633,0.144467310058,0.255663684256,0.953011287097,-0.0743960001675
2021/03/16/15:14:58.282132,42356,1615904098,282450199,mocap,-2.82826171875,9.78949707031,1.92418139648,0.144888386132,0.254274315503,0.953203080841,-0.0758671187984
2021/03/16/15:14:58.291028,42357,1615904098,292450190,mocap,-2.82782275391,9.78216113281,1.9245201416,0.144328477965,0.253761270283,0.953343639936,-0.0768791941558
2021/03/16/15:14:58.302323,42358,1615904098,302450180,mocap,-2.82730102539,9.77474023438,1.9247677002,0.144296791553,0.252799153549,0.953498642023,-0.0781751485301
2021/03/16/15:14:58.310996,42359,1615904098,312450171,mocap,-2.82673876953,9.76740527344,1.9250480957,0.144628397789,0.25201514815,0.953541102024,-0.0795635494134
2021/03/16/15:14:58.322259,42360,1615904098,322450161,mocap,-2.8261340332,9.76014355469,1.92524365234,0.144175706795,0.251879725519,0.95355969819,-0.0805844956678
2021/03/16/15:14:58.330697,42361,1615904098,332450151,mocap,-2.82547924805,9.75278710937,1.92515588379,0.146077473412,0.2506294084,0.953423140751,-0.0826472751844
2021/03/16/15:14:58.342352,42362,1615904098,342450142,mocap,-2.82482104492,9.74537011719,1.92496374512,0.145550749002,0.251005825004,0.95335096276,-0.0832646614763
2021/03/16/15:14:58.351063,42363,1615904098,352450132,mocap,-2.82413842773,9.73806933594,1.92478491211,0.146384420727,0.251255094893,0.95305090757,-0.0844774897989
2021/03/16/15:14:58.362181,42364,1615904098,362450123,mocap,-2.82342993164,9.73074511719,1.92443347168,0.146843356602,0.251435689007,0.952848847829,-0.0854177531083
2021/03/16/15:14:58.371669,42365,1615904098,372450113,mocap,-2.82262158203,9.72325878906,1.9238182373,0.148111883285,0.251366028086,0.95252718704,-0.0870054144305
2021/03/16/15:14:58.380754,42366,1615904098,382450104,mocap,-2.82192749023,9.71600585938,1.92356359863,0.14815473678,0.252111975765,0.95224586184,-0.0878495242635
2021/03/16/15:14:58.392084,42367,1615904098,392450094,mocap,-2.82109667969,9.70856347656,1.92285693359,0.148372512077,0.252709516629,0.951969853795,-0.0887519077655
2021/03/16/15:14:58.400938,42368,1615904098,402450085,mocap,-2.82025854492,9.70098730469,1.92196801758,0.148972724403,0.254014634011,0.95145507607,-0.0895373650353
2021/03/16/15:14:58.411037,42369,1615904098,412450075,mocap,-2.81944287109,9.69345410156,1.9210546875,0.149277831062,0.254683374767,0.951159765022,-0.0902641242569
2021/03/16/15:14:58.422169,42370,1615904098,422450066,mocap,-2.81864013672,9.68602050781,1.92033972168,0.149998691204,0.255783451346,0.950686062426,-0.0909463238108
2021/03/16/15:14:58.431003,42371,1615904098,432450056,mocap,-2.81780639648,9.67832226563,1.91912939453,0.151022334597,0.255999865602,0.950398626266,-0.0916448490561
2021/03/16/15:14:58.440937,42372,1615904098,442450047,mocap,-2.81693847656,9.67055566406,1.91783605957,0.1511591439,0.257640916657,0.949907531755,-0.0919117029945
2021/03/16/15:14:58.451156,42373,1615904098,452450037,mocap,-2.81610253906,9.66289648438,1.91677111816,0.152049715549,0.258053366106,0.949576337986,-0.0927044721814
2021/03/16/15:14:58.460896,42374,1615904098,462450027,mocap,-2.81521679688,9.65504980469,1.91538232422,0.15250792075,0.259275249484,0.949103886126,-0.0933782718107
2021/03/16/15:14:58.470703,42375,1615904098,472450256,mocap,-2.81428808594,9.64708300781,1.9138203125,0.152507577885,0.26056405498,0.948720196694,-0.0936898614406
2021/03/16/15:14:58.481627,42376,1615904098,482450247,mocap,-2.81344287109,9.63925292969,1.91244274902,0.153184701094,0.260837248034,0.948477200301,-0.094283501924
2021/03/16/15:14:58.492626,42377,1615904098,492450237,mocap,-2.81258691406,9.6313203125,1.91090270996,0.153063411277,0.262367659817,0.948045099207,-0.0945795779263
2021/03/16/15:14:58.501020,42378,1615904098,502450228,mocap,-2.81168237305,9.62313183594,1.90901525879,0.153622805078,0.262784146111,0.947790562797,-0.0950661002624
2021/03/16/15:14:58.512285,42379,1615904098,512450218,mocap,-2.81080371094,9.61508691406,1.90749536133,0.153777231453,0.264112523113,0.947379115277,-0.0952362715129
2021/03/16/15:14:58.521876,42380,1615904098,522450209,mocap,-2.80990649414,9.60691113281,1.90580151367,0.154473695952,0.264306346109,0.947173092442,-0.0956199669836
2021/03/16/15:14:58.532109,42381,1615904098,532450199,mocap,-2.80903320312,9.59861523437,1.90429418945,0.153908078571,0.265854622631,0.946869710398,-0.0952437657264
2021/03/16/15:14:58.540944,42382,1615904098,542450190,mocap,-2.80812670898,9.59017382812,1.90279907227,0.154271093372,0.265719959209,0.94683219196,-0.0954050526687
2021/03/16/15:14:58.552308,42383,1615904098,552450180,mocap,-2.80721191406,9.5817578125,1.90162976074,0.154435108872,0.265943480083,0.946751775687,-0.0953149335451
2021/03/16/15:14:58.560974,42384,1615904098,562450171,mocap,-2.80632836914,9.57322363281,1.9006418457,0.153855057492,0.266349407479,0.946782726412,-0.0948107809748
2021/03/16/15:14:58.572374,42385,1615904098,572450161,mocap,-2.8053269043,9.56440527344,1.89950964355,0.15388192702,0.266087897966,0.946890845339,-0.0944209074632
2021/03/16/15:14:58.581066,42386,1615904098,582450151,mocap,-2.80438549805,9.5558125,1.89892321777,0.153327892551,0.265620869925,0.947153316801,-0.0940037362714
2021/03/16/15:14:58.591004,42387,1615904098,592450142,mocap,-2.8034152832,9.5470625,1.89827575684,0.154054140397,0.26475648662,0.947321278618,-0.0935613327396
2021/03/16/15:14:58.602356,42388,1615904098,602450132,mocap,-2.80242651367,9.53831640625,1.89798364258,0.153187849713,0.264909727318,0.94752686821,-0.0924615877751
2021/03/16/15:14:58.611002,42389,1615904098,612450123,mocap,-2.80140405273,9.52944238281,1.89764794922,0.152923037773,0.264656907649,0.947726304813,-0.0915757562144
2021/03/16/15:14:58.621899,42390,1615904098,622450113,mocap,-2.80032104492,9.520625,1.89752526855,0.153206339065,0.263964166523,0.947951738875,-0.0907646659368
2021/03/16/15:14:58.630891,42391,1615904098,632450104,mocap,-2.79927001953,9.51179492187,1.89794128418,0.152557379973,0.264165860167,0.948127228892,-0.0894281529167
2021/03/16/15:14:58.640947,42392,1615904098,642450094,mocap,-2.79828271484,9.50304589844,1.89882214355,0.151770645821,0.265019538515,0.948180749633,-0.0876560943212
2021/03/16/15:14:58.652109,42393,1615904098,652450085,mocap,-2.7972199707,9.49409375,1.89966833496,0.151777083187,0.26432993273,0.948498810007,-0.0862752511471
2021/03/16/15:14:58.660867,42394,1615904098,662450075,mocap,-2.79613061523,9.48522949219,1.90086169434,0.15104173772,0.26470022914,0.948677693704,-0.0844441207987
2021/03/16/15:14:58.672171,42395,1615904098,672450066,mocap,-2.79500268555,9.47625878906,1.90199023437,0.150676868643,0.264723308392,0.948879416765,-0.0827398916328
2021/03/16/15:14:58.680839,42396,1615904098,682450056,mocap,-2.79393969727,9.46739550781,1.90341491699,0.150652294958,0.264769276477,0.94897497053,-0.081532933341
2021/03/16/15:14:58.691858,42397,1615904098,692450047,mocap,-2.79279223633,9.45847753906,1.90476098633,0.150944545511,0.264472012811,0.94915702211,-0.0798200368464
2021/03/16/15:14:58.700792,42398,1615904098,702450037,mocap,-2.79170581055,9.44974121094,1.90653686523,0.149970280413,0.265354999093,0.949220649498,-0.0779474174248
2021/03/16/15:14:58.712891,42399,1615904098,712450027,mocap,-2.79066699219,9.44096679687,1.90817858887,0.149668211989,0.265496929814,0.949354444624,-0.0763999703965
2021/03/16/15:14:58.720947,42400,1615904098,722450256,mocap,-2.78956420898,9.43211425781,1.9097220459,0.149858730864,0.265611756043,0.949428998166,-0.0746816229483
2021/03/16/15:14:58.732540,42401,1615904098,732450247,mocap,-2.78848852539,9.42324804688,1.91111987305,0.14928069415,0.265832473428,0.949585557244,-0.0730454544855
2021/03/16/15:14:58.740908,42402,1615904098,742450237,mocap,-2.78745605469,9.41450097656,1.91241711426,0.149496827914,0.265486267332,0.949740003783,-0.0718446652256
2021/03/16/15:14:58.752567,42403,1615904098,752450228,mocap,-2.78638378906,9.40573828125,1.91350634766,0.150170762589,0.264965709505,0.949869309709,-0.0706414426886
2021/03/16/15:14:58.761196,42404,1615904098,762450218,mocap,-2.78531518555,9.39695214844,1.91436376953,0.150208981927,0.264841621827,0.950002511548,-0.069220000712
2021/03/16/15:14:58.772461,42405,1615904098,772450209,mocap,-2.78434399414,9.38834765625,1.91511071777,0.150838666265,0.264566651606,0.950040210638,-0.0683797157203
2021/03/16/15:14:58.781005,42406,1615904098,782450199,mocap,-2.78338647461,9.37986621094,1.91578344727,0.150973358038,0.264649276716,0.950086558,-0.0671069137948
2021/03/16/15:14:58.792396,42407,1615904098,792450190,mocap,-2.78245947266,9.37127832031,1.91623522949,0.151299359015,0.264697828824,0.950115063249,-0.0657641955803
2021/03/16/15:14:58.800993,42408,1615904098,802450180,mocap,-2.78149169922,9.36276757813,1.91662316895,0.15186191871,0.264644908306,0.950131013269,-0.0644366878486
2021/03/16/15:14:58.812823,42409,1615904098,812450171,mocap,-2.78068969727,9.35440917969,1.91703735352,0.152641714321,0.265081695442,0.949951438541,-0.0634387888947
2021/03/16/15:14:58.820754,42410,1615904098,822450161,mocap,-2.77989038086,9.3460234375,1.91732189941,0.153189197971,0.265218488895,0.949910080883,-0.0621535657676
2021/03/16/15:14:58.832021,42411,1615904098,832450151,mocap,-2.77916088867,9.33753710938,1.91751135254,0.153484783574,0.265225489908,0.949952622851,-0.0607278759515
2021/03/16/15:14:58.840845,42412,1615904098,842450142,mocap,-2.77852148438,9.32920996094,1.91782421875,0.154021345853,0.26525708998,0.949953689513,-0.0591952603843
2021/03/16/15:14:58.852665,42413,1615904098,852450132,mocap,-2.77786816406,9.32089257812,1.91814929199,0.154548856331,0.265232482097,0.949970614769,-0.0576384964728
2021/03/16/15:14:58.860770,42414,1615904098,862450123,mocap,-2.77724633789,9.3125,1.91849157715,0.15495552717,0.264814495229,0.950121462109,-0.0559577993291
2021/03/16/15:14:58.871363,42415,1615904098,872450113,mocap,-2.77669702148,9.30401953125,1.91871911621,0.155286754485,0.264479026046,0.950262994502,-0.0541951011701
2021/03/16/15:14:58.881009,42416,1615904098,882450104,mocap,-2.77625756836,9.29565722656,1.91909277344,0.155747000915,0.263651542282,0.950497264657,-0.0527796008908
2021/03/16/15:14:58.891094,42417,1615904098,892450094,mocap,-2.77583422852,9.28725878906,1.91961816406,0.155686369338,0.26277734354,0.950851018159,-0.0509132323029
2021/03/16/15:14:58.901388,42418,1615904098,902450085,mocap,-2.77551049805,9.27888183594,1.92013354492,0.156563348058,0.261647677134,0.951094434276,-0.0494751395869
2021/03/16/15:14:58.911139,42419,1615904098,912450075,mocap,-2.77517700195,9.27037695312,1.92060864258,0.157044385287,0.260342210057,0.951452758174,-0.0479233331151
2021/03/16/15:14:58.922605,42420,1615904098,922450066,mocap,-2.77491455078,9.26196484375,1.92109216309,0.157760458099,0.258647249088,0.951857787545,-0.0466903505719
2021/03/16/15:14:58.931056,42421,1615904098,932450056,mocap,-2.77463574219,9.25378417969,1.92164221191,0.157881155182,0.257391033201,0.952228718821,-0.0456492670682
2021/03/16/15:14:58.941227,42422,1615904098,942450047,mocap,-2.77448291016,9.24542675781,1.92219067383,0.158047702496,0.255804761427,0.952707027029,-0.0439792863526
2021/03/16/15:14:58.952208,42423,1615904098,952450037,mocap,-2.77438842773,9.23697265625,1.9226550293,0.158336529103,0.25416823298,0.953178130686,-0.0421842586357
2021/03/16/15:14:58.961240,42424,1615904098,962450027,mocap,-2.77435229492,9.22866601563,1.92324291992,0.158851957791,0.252775019624,0.953527014015,-0.0407072445808
2021/03/16/15:14:58.971206,42425,1615904098,972450256,mocap,-2.77439746094,9.22045800781,1.92376074219,0.158721893203,0.251255186186,0.954012934025,-0.0392112753953
2021/03/16/15:14:58.982324,42426,1615904098,982450247,mocap,-2.77450073242,9.21217578125,1.9241184082,0.159104202722,0.24984718658,0.954377399034,-0.0377625040109
2021/03/16/15:14:58.991155,42427,1615904098,992450237,mocap,-2.77461108398,9.20380566406,1.92443615723,0.159131903033,0.248377766405,0.954810988623,-0.0363525358912
2021/03/16/15:14:59.001259,42428,1615904099,2450228,mocap,-2.77479541016,9.19555859375,1.92459875488,0.158597718403,0.247378500882,0.955215849824,-0.034832604261
2021/03/16/15:14:59.011229,42429,1615904099,12450218,mocap,-2.77505078125,9.18746484375,1.92482763672,0.158662765447,0.24638954632,0.955508285416,-0.0334997436481
2021/03/16/15:14:59.021254,42430,1615904099,22450209,mocap,-2.77526367187,9.1791953125,1.92488793945,0.158479802898,0.245400865858,0.955841570627,-0.032085338012
2021/03/16/15:14:59.032096,42431,1615904099,32450199,mocap,-2.77552587891,9.17095410156,1.92480371094,0.15807946703,0.244793583279,0.956108216452,-0.030725484497
2021/03/16/15:14:59.040906,42432,1615904099,42450190,mocap,-2.77590185547,9.16287792969,1.92471643066,0.158208283203,0.244540203061,0.956186318615,-0.0296301886871
2021/03/16/15:14:59.052155,42433,1615904099,52450180,mocap,-2.77625463867,9.15482324219,1.9245657959,0.158296188248,0.244240249684,0.956272805634,-0.0288329146442
2021/03/16/15:14:59.060842,42434,1615904099,62450171,mocap,-2.7766418457,9.14658105469,1.92407348633,0.157810581047,0.24437348137,0.956352834221,-0.0276890525112
2021/03/16/15:14:59.070889,42435,1615904099,72450161,mocap,-2.77702441406,9.13843457031,1.92374804687,0.157631702317,0.244119254018,0.956481339639,-0.0264855245564
2021/03/16/15:14:59.081826,42436,1615904099,82450151,mocap,-2.77751367187,9.13026660156,1.92316381836,0.157427323446,0.244697334326,0.956392246151,-0.0255681504535
2021/03/16/15:14:59.090966,42437,1615904099,92450142,mocap,-2.77802392578,9.12207226563,1.92257067871,0.157656715118,0.24457026913,0.956400005256,-0.0250754419455
2021/03/16/15:14:59.101927,42438,1615904099,102450132,mocap,-2.77855859375,9.11381542969,1.92175891113,0.157175645341,0.245213918531,0.956342075316,-0.0239956799328
2021/03/16/15:14:59.110933,42439,1615904099,112450123,mocap,-2.77912646484,9.10557324219,1.92087683105,0.156920229543,0.245549315158,0.956312859719,-0.0233943283141
2021/03/16/15:14:59.120919,42440,1615904099,122450113,mocap,-2.77979418945,9.09733496094,1.92003771973,0.157018932689,0.246067460086,0.956178814912,-0.0227579888306
2021/03/16/15:14:59.130883,42441,1615904099,132450104,mocap,-2.78041064453,9.08902539063,1.91888989258,0.156735057172,0.24701230252,0.955996346959,-0.0221364414714
2021/03/16/15:14:59.141897,42442,1615904099,142450094,mocap,-2.78113842773,9.08075585937,1.91777124023,0.156464467922,0.247729853241,0.955864432461,-0.0217250838628
2021/03/16/15:14:59.151141,42443,1615904099,152450085,mocap,-2.78186914063,9.07236035156,1.91650183105,0.156039976539,0.248931415318,0.955634892913,-0.0211334997556
2021/03/16/15:14:59.161015,42444,1615904099,162450075,mocap,-2.78261450195,9.06400097656,1.91525219727,0.155849160868,0.249845005167,0.955431219566,-0.0209686294052
2021/03/16/15:14:59.173029,42445,1615904099,172450066,mocap,-2.78349511719,9.05565625,1.91396130371,0.1561005765,0.250921894114,0.95511069369,-0.0208418170894
2021/03/16/15:14:59.181402,42446,1615904099,182450056,mocap,-2.78431201172,9.04716992187,1.91248742676,0.155937453113,0.252069317602,0.954843332337,-0.0204638489658
2021/03/16/15:14:59.192565,42447,1615904099,192450047,mocap,-2.78520556641,9.03868359375,1.91098046875,0.1555989545,0.252920876611,0.954670614352,-0.0205916403782
2021/03/16/15:14:59.200845,42448,1615904099,202450037,mocap,-2.78611450195,9.03016894531,1.90947058105,0.155297527026,0.254443590266,0.954319525882,-0.0203807650805
2021/03/16/15:14:59.211641,42449,1615904099,212450027,mocap,-2.78713378906,9.02160253906,1.90811315918,0.155525002448,0.255335161252,0.954039393013,-0.0206096309233
2021/03/16/15:14:59.220870,42450,1615904099,222450256,mocap,-2.7881171875,9.01285253906,1.90666894531,0.155756564696,0.256124159502,0.953785136139,-0.0208379857919
2021/03/16/15:14:59.232827,42451,1615904099,232450247,mocap,-2.78911181641,9.00415527344,1.90548034668,0.15513458839,0.256744330775,0.9537064311,-0.0214395719742
2021/03/16/15:14:59.241028,42452,1615904099,242450237,mocap,-2.79021069336,8.9953515625,1.90444873047,0.155472180821,0.257222737643,0.953516645169,-0.0216997975944
2021/03/16/15:14:59.252750,42453,1615904099,252450228,mocap,-2.79126782227,8.9863671875,1.90348498535,0.155664026557,0.257474878767,0.953389271855,-0.0228973438071
2021/03/16/15:14:59.260866,42454,1615904099,262450218,mocap,-2.79242236328,8.97735742188,1.90271948242,0.156221961368,0.257479739705,0.953284000205,-0.0234200256888
2021/03/16/15:14:59.272519,42455,1615904099,272450209,mocap,-2.79357714844,8.96840039062,1.90213684082,0.156196421103,0.257402584971,0.953281272522,-0.0245235562686
2021/03/16/15:14:59.280558,42456,1615904099,282450199,mocap,-2.79477294922,8.95932324219,1.90160827637,0.157060039558,0.257336850401,0.953125031268,-0.0257401624037
2021/03/16/15:14:59.292382,42457,1615904099,292450190,mocap,-2.79593164063,8.95014453125,1.90116906738,0.157813588851,0.257047518447,0.95304761635,-0.0268640118861
2021/03/16/15:14:59.300973,42458,1615904099,302450180,mocap,-2.79723608398,8.94105957031,1.90095324707,0.158224116423,0.256964194351,0.952968271846,-0.0280359197257
2021/03/16/15:14:59.311660,42459,1615904099,312450171,mocap,-2.7984831543,8.93193066406,1.9009552002,0.158811279439,0.256796116697,0.952887005093,-0.0290015928223
2021/03/16/15:14:59.320952,42460,1615904099,322450161,mocap,-2.79987402344,8.92275292969,1.90142382812,0.158798374695,0.256607229489,0.952910250563,-0.029964224544
2021/03/16/15:14:59.333671,42461,1615904099,332450151,mocap,-2.8012878418,8.91358203125,1.90217602539,0.159197037494,0.256519417161,0.952830550566,-0.031113261426
2021/03/16/15:14:59.341933,42462,1615904099,342450142,mocap,-2.80270068359,8.9045,1.90322131348,0.160089368242,0.256307966621,0.952693802586,-0.0324365750319
2021/03/16/15:14:59.351129,42463,1615904099,352450132,mocap,-2.80411181641,8.89525195312,1.90431359863,0.159946950267,0.255404530713,0.952914308493,-0.0337612626518
2021/03/16/15:14:59.361655,42464,1615904099,362450123,mocap,-2.80555053711,8.88605566406,1.90555517578,0.160345812594,0.255548539183,0.952768141745,-0.034885905912
2021/03/16/15:14:59.370994,42465,1615904099,372450113,mocap,-2.80707080078,8.87701171875,1.9071003418,0.160803261756,0.255345141301,0.952701474506,-0.0360704084127
2021/03/16/15:14:59.381348,42466,1615904099,382450104,mocap,-2.80850097656,8.8679921875,1.90881469727,0.162111121247,0.255080608825,0.95248195969,-0.0378414169758
2021/03/16/15:14:59.390995,42467,1615904099,392450094,mocap,-2.80999169922,8.85903222656,1.91053918457,0.162186775832,0.255078619556,0.952425332522,-0.0389401839792
2021/03/16/15:14:59.402100,42468,1615904099,402450085,mocap,-2.81140698242,8.85000976562,1.91207763672,0.162729607885,0.254630084828,0.952379020745,-0.040703838802
2021/03/16/15:14:59.410729,42469,1615904099,412450075,mocap,-2.81282397461,8.84108789062,1.91368444824,0.163083154079,0.253434502538,0.95258271315,-0.0419643517282
2021/03/16/15:14:59.421277,42470,1615904099,422450066,mocap,-2.81415258789,8.83212792969,1.91489086914,0.163422519124,0.252929478525,0.952578974489,-0.0437385050073
2021/03/16/15:14:59.432104,42471,1615904099,432450056,mocap,-2.81553051758,8.82331738281,1.91613696289,0.163780485128,0.252148130133,0.952655762717,-0.0452135181967
2021/03/16/15:14:59.440931,42472,1615904099,442450047,mocap,-2.81685546875,8.81452929687,1.91720715332,0.164469065046,0.251272291981,0.952687061256,-0.0468990248011
2021/03/16/15:14:59.450864,42473,1615904099,452450037,mocap,-2.8181796875,8.80588085937,1.91815991211,0.163837677744,0.250433763537,0.952949359219,-0.0482458367895
2021/03/16/15:14:59.461134,42474,1615904099,462450027,mocap,-2.8194987793,8.79733203125,1.91893725586,0.163831126395,0.250009371044,0.95300711231,-0.0493164424249
2021/03/16/15:14:59.471969,42475,1615904099,472450256,mocap,-2.82079882813,8.78878808594,1.91961425781,0.163744391513,0.249594790541,0.953057177272,-0.0507172303968
2021/03/16/15:14:59.481011,42476,1615904099,482450247,mocap,-2.8220625,8.78034472656,1.92027246094,0.16335234175,0.249710473381,0.953054527116,-0.0514564638199
2021/03/16/15:14:59.491054,42477,1615904099,492450237,mocap,-2.82329492188,8.77202441406,1.92092236328,0.162786821112,0.249674284262,0.95311460333,-0.0523044788375
2021/03/16/15:14:59.500703,42478,1615904099,502450228,mocap,-2.82440869141,8.76379199219,1.92150427246,0.162038169954,0.25010593455,0.953075524907,-0.0532699705011
2021/03/16/15:14:59.511026,42479,1615904099,512450218,mocap,-2.82557421875,8.75556640625,1.92204748535,0.161246967931,0.250637590647,0.953054144055,-0.0535539275661
2021/03/16/15:14:59.521068,42480,1615904099,522450209,mocap,-2.82662524414,8.74739550781,1.92260766602,0.161283156535,0.251637852936,0.952734187002,-0.0544400477022
2021/03/16/15:14:59.533068,42481,1615904099,532450199,mocap,-2.82756689453,8.73936914062,1.9232635498,0.160193924865,0.251921315258,0.952800984887,-0.0551710074718
2021/03/16/15:14:59.540849,42482,1615904099,542450190,mocap,-2.82855688477,8.73128027344,1.92381469727,0.159976436803,0.253016446675,0.952499051219,-0.055998003553
2021/03/16/15:14:59.550933,42483,1615904099,552450180,mocap,-2.82934863281,8.72311132813,1.92435473633,0.15902390589,0.254171868732,0.952311395247,-0.0566661476393
2021/03/16/15:14:59.562845,42484,1615904099,562450171,mocap,-2.8301875,8.71509570312,1.92509423828,0.158683496262,0.254937024107,0.952101619254,-0.0576990196723
2021/03/16/15:14:59.570854,42485,1615904099,572450161,mocap,-2.83082446289,8.70710546875,1.92586499023,0.15771229976,0.254876938513,0.952196865317,-0.0590398289505
2021/03/16/15:14:59.582916,42486,1615904099,582450151,mocap,-2.83152856445,8.69894140625,1.9265604248,0.157218499588,0.255682204435,0.95201557504,-0.0597938549239
2021/03/16/15:14:59.590915,42487,1615904099,592450142,mocap,-2.83220947266,8.69079101563,1.92728393555,0.156594911244,0.255638067686,0.952065840831,-0.0608099434503
2021/03/16/15:14:59.602044,42488,1615904099,602450132,mocap,-2.83276000977,8.68271777344,1.92810327148,0.156544539152,0.255789370671,0.951947986337,-0.0621341571402
2021/03/16/15:14:59.610722,42489,1615904099,612450123,mocap,-2.83320825195,8.67450683594,1.92885717773,0.156239824652,0.254873508377,0.952164048287,-0.0633422022706
2021/03/16/15:14:59.622877,42490,1615904099,622450113,mocap,-2.83365600586,8.66629394531,1.92959240723,0.156119632843,0.254334786766,0.952243851014,-0.0645919737066
2021/03/16/15:14:59.630930,42491,1615904099,632450104,mocap,-2.83408374023,8.6580859375,1.93030212402,0.155389880526,0.253396032934,0.952528860926,-0.0658270353661
2021/03/16/15:14:59.642565,42492,1615904099,642450094,mocap,-2.83439575195,8.64985644531,1.93082727051,0.154988510105,0.25273671519,0.952678302149,-0.0671326072104
2021/03/16/15:14:59.651083,42493,1615904099,652450085,mocap,-2.83463525391,8.64165625,1.9314230957,0.154823385964,0.251642767203,0.952919726858,-0.0681881302401
2021/03/16/15:14:59.662783,42494,1615904099,662450075,mocap,-2.8348425293,8.63346484375,1.93198815918,0.154754482206,0.250393347739,0.95315191356,-0.0696824391376
2021/03/16/15:14:59.670745,42495,1615904099,672450066,mocap,-2.835046875,8.62523925781,1.93228710938,0.155988499594,0.249308470718,0.953116057307,-0.0712927292243
2021/03/16/15:14:59.682725,42496,1615904099,682450056,mocap,-2.83515527344,8.61711425781,1.93252392578,0.155652029556,0.248500017667,0.953287657945,-0.0725452809796
2021/03/16/15:14:59.690856,42497,1615904099,692450047,mocap,-2.83518310547,8.60905664063,1.93268811035,0.155610924478,0.247731465934,0.953390326857,-0.0739001469526
2021/03/16/15:14:59.702511,42498,1615904099,702450037,mocap,-2.83518701172,8.6010390625,1.93271044922,0.15620071953,0.247081169284,0.953359786023,-0.0752153594377
