time,.header.seq,.header.stamp.secs,.header.stamp.nsecs,.header.frame_id,.pose.position.x,.pose.position.y,.pose.position.z,.pose.orientation.x,.pose.orientation.y,.pose.orientation.z,.pose.orientation.w
2021/03/16/15:43:54.460063,193429,1615905834,462450027,mocap,-2.80088427734,10.3729316406,1.93354711914,0.151334941768,0.236892849607,0.959655286186,-0.00642232589002
2021/03/16/15:43:54.471483,193430,1615905834,472450256,mocap,-2.80080615234,10.373140625,1.93358398438,0.151847398183,0.236988086285,0.959549754688,-0.00657953482766
2021/03/16/15:43:54.480082,193431,1615905834,482450247,mocap,-2.80063549805,10.3732636719,1.93340026855,0.150847107704,0.237052986665,0.959693879305,-0.00621914048471
2021/03/16/15:43:54.491729,193432,1615905834,492450237,mocap,-2.80053808594,10.3734443359,1.93339831543,0.150955044975,0.237134658783,0.95965645852,-0.00626282048276
2021/03/16/15:43:54.500194,193433,1615905834,502450228,mocap,-2.80046118164,10.3737060547,1.9335592041,0.152122369325,0.237376195286,0.95941011259,-0.0065998215381
2021/03/16/15:43:54.511302,193434,1615905834,512450218,mocap,-2.80034472656,10.3739208984,1.93353405762,0.152251149512,0.237589471041,0.959337344347,-0.00653284005576
2021/03/16/15:43:54.520025,193435,1615905834,522450209,mocap,-2.80023681641,10.3741220703,1.93352539063,0.152305444831,0.237791260527,0.959277611241,-0.00669617239477
2021/03/16/15:43:54.531229,193436,1615905834,532450199,mocap,-2.8001237793,10.3743212891,1.93351464844,0.152554270792,0.238131238452,0.959153372175,-0.00674629291272
2021/03/16/15:43:54.539977,193437,1615905834,542450190,mocap,-2.80003393555,10.3745507813,1.93356811523,0.152610847907,0.23819338287,0.959128499126,-0.00680941547603
2021/03/16/15:43:54.551140,193438,1615905834,552450180,mocap,-2.79993359375,10.37478125,1.93356530762,0.152760046058,0.238356700048,0.959063602446,-0.00688881977933
2021/03/16/15:43:54.560054,193439,1615905834,562450171,mocap,-2.79983422852,10.3750068359,1.93360437012,0.152696588007,0.23858628472,0.95901698195,-0.00683934581218
2021/03/16/15:43:54.571328,193440,1615905834,572450161,mocap,-2.79974291992,10.3751992187,1.93361706543,0.152502534545,0.238761981308,0.959004963267,-0.00672074823699
2021/03/16/15:43:54.580206,193441,1615905834,582450151,mocap,-2.79965063477,10.3754013672,1.93360913086,0.152647953306,0.238911634356,0.95894372547,-0.00683886698619
2021/03/16/15:43:54.592000,193442,1615905834,592450142,mocap,-2.79956005859,10.3755859375,1.93363476562,0.152541849901,0.239028601942,0.958931332926,-0.00685589227756
2021/03/16/15:43:54.600145,193443,1615905834,602450132,mocap,-2.79947216797,10.3757451172,1.9336472168,0.152531782355,0.238956413814,0.958950321813,-0.00694041317356
2021/03/16/15:43:54.612020,193444,1615905834,612450123,mocap,-2.7993737793,10.3759228516,1.93362133789,0.152498792335,0.23902717469,0.95893718347,-0.00704366069509
2021/03/16/15:43:54.620346,193445,1615905834,622450113,mocap,-2.79926513672,10.3760429687,1.93350073242,0.151526497946,0.238784032715,0.959153162442,-0.00686470882511
2021/03/16/15:43:54.631955,193446,1615905834,632450104,mocap,-2.79915771484,10.3762929688,1.9336776123,0.152025759267,0.23899998101,0.959019732163,-0.00695222950013
2021/03/16/15:43:54.640320,193447,1615905834,642450094,mocap,-2.7990559082,10.3764150391,1.93352319336,0.151346266448,0.238839389823,0.959168185393,-0.00681518675238
2021/03/16/15:43:54.651353,193448,1615905834,652450085,mocap,-2.79893725586,10.3765957031,1.93351733398,0.151223644265,0.238784397578,0.959200902606,-0.00685950568734
2021/03/16/15:43:54.660213,193449,1615905834,662450075,mocap,-2.79888012695,10.3768603516,1.9336739502,0.152066630947,0.238993396317,0.959014200652,-0.0070468940685
2021/03/16/15:43:54.672530,193450,1615905834,672450066,mocap,-2.79874536133,10.3769785156,1.93348498535,0.151046199135,0.238875422207,0.959206308762,-0.00684380786102
2021/03/16/15:43:54.680281,193451,1615905834,682450056,mocap,-2.79867114258,10.3771679687,1.93349609375,0.151264686631,0.238870163827,0.959172341131,-0.0069618525277
2021/03/16/15:43:54.691830,193452,1615905834,692450047,mocap,-2.79860595703,10.3774169922,1.9336595459,0.152286157719,0.239108663287,0.958950267426,-0.00709595833034
2021/03/16/15:43:54.699997,193453,1615905834,702450037,mocap,-2.79850878906,10.3776123047,1.93362768555,0.15236368412,0.23911542696,0.958935730549,-0.00716894701925
2021/03/16/15:43:54.711696,193454,1615905834,712450027,mocap,-2.79836254883,10.3777558594,1.93345385742,0.151937886992,0.239088418492,0.959010743441,-0.00707205518892
2021/03/16/15:43:54.720020,193455,1615905834,722450256,mocap,-2.79828295898,10.3780205078,1.9336081543,0.152598020702,0.239232203289,0.958869056994,-0.00720541849898
2021/03/16/15:43:54.731865,193456,1615905834,732450247,mocap,-2.79817944336,10.3782382813,1.93359020996,0.152533069548,0.239251091674,0.958875164332,-0.00714068145258
2021/03/16/15:43:54.739926,193457,1615905834,742450237,mocap,-2.79804785156,10.3783916016,1.93341870117,0.151937986026,0.239280814677,0.958962993811,-0.00703756344781
2021/03/16/15:43:54.751709,193458,1615905834,752450228,mocap,-2.79793359375,10.3786123047,1.93342248535,0.152113490723,0.239353430664,0.958916943388,-0.00705117512554
2021/03/16/15:43:54.760523,193459,1615905834,762450218,mocap,-2.79784692383,10.3788876953,1.93360119629,0.15300692644,0.2395878944,0.958713866265,-0.00736587981632
2021/03/16/15:43:54.770754,193460,1615905834,772450209,mocap,-2.79771411133,10.3790478516,1.9334654541,0.152218243193,0.23948760254,0.958866624926,-0.00707728683475
2021/03/16/15:43:54.780229,193461,1615905834,782450199,mocap,-2.79760791016,10.3793164063,1.93364660645,0.153284014628,0.239722669048,0.958635721322,-0.00738900176525
2021/03/16/15:43:54.791744,193462,1615905834,792450190,mocap,-2.79749780273,10.3794980469,1.93363513184,0.153319992948,0.239806219141,0.958608596426,-0.00745106367231
2021/03/16/15:43:54.800016,193463,1615905834,802450180,mocap,-2.79738696289,10.3797089844,1.93364221191,0.153496444832,0.239833640807,0.958573177462,-0.00749250156501
2021/03/16/15:43:54.812152,193464,1615905834,812450171,mocap,-2.79724902344,10.3798466797,1.93347546387,0.15276674634,0.239749775426,0.958712086606,-0.00731439502169
2021/03/16/15:43:54.820089,193465,1615905834,822450161,mocap,-2.79715014648,10.3800546875,1.93348022461,0.152791134276,0.239739659083,0.958709933912,-0.00741800895828
2021/03/16/15:43:54.831697,193466,1615905834,832450151,mocap,-2.79705175781,10.3802480469,1.93346166992,0.152865263888,0.239775854986,0.958688601004,-0.00747664102796
2021/03/16/15:43:54.840302,193467,1615905834,842450142,mocap,-2.79695483398,10.3804541016,1.93346716309,0.152883835502,0.239864684087,0.958663568231,-0.00745778553451
2021/03/16/15:43:54.851714,193468,1615905834,852450132,mocap,-2.79685107422,10.3806767578,1.9334609375,0.153080790071,0.23993142551,0.95861299553,-0.00776579300561
2021/03/16/15:43:54.860259,193469,1615905834,862450123,mocap,-2.79673999023,10.3808974609,1.93347192383,0.153031245554,0.239974183607,0.958610003208,-0.00779109074204
2021/03/16/15:43:54.871434,193470,1615905834,872450113,mocap,-2.7966340332,10.3811044922,1.93347277832,0.152893079434,0.239950244278,0.958637672108,-0.00783575820629
2021/03/16/15:43:54.880115,193471,1615905834,882450104,mocap,-2.79651269531,10.3813359375,1.93345812988,0.152932116975,0.239983649801,0.958622578667,-0.00789689799598
2021/03/16/15:43:54.890275,193472,1615905834,892450094,mocap,-2.79640551758,10.3815361328,1.93344824219,0.153031569204,0.239972483986,0.958608316623,-0.00803936981036
2021/03/16/15:43:54.900202,193473,1615905834,902450085,mocap,-2.7963034668,10.3817285156,1.93345068359,0.152882303177,0.240091680214,0.958603194671,-0.00793107716927
2021/03/16/15:43:54.910517,193474,1615905834,912450075,mocap,-2.7961809082,10.3819091797,1.93340771484,0.152699672019,0.240071496189,0.958637330138,-0.00793445636562
2021/03/16/15:43:54.920053,193475,1615905834,922450066,mocap,-2.79605639648,10.3821083984,1.9333927002,0.152624174703,0.240077090951,0.958648848252,-0.00782540495344
2021/03/16/15:43:54.930315,193476,1615905834,932450056,mocap,-2.79596704102,10.3822949219,1.93339794922,0.152716835463,0.240285094979,0.958582232467,-0.00779422822782
2021/03/16/15:43:54.940174,193477,1615905834,942450047,mocap,-2.79586572266,10.3825087891,1.93341369629,0.152744513338,0.240401959967,0.958548429268,-0.00780485545496
2021/03/16/15:43:54.951241,193478,1615905834,952450037,mocap,-2.7957734375,10.3827128906,1.9334206543,0.152606634442,0.24042828366,0.958563500559,-0.00784016437543
2021/03/16/15:43:54.960179,193479,1615905834,962450027,mocap,-2.79566503906,10.3829375,1.93348693848,0.152990927289,0.240612547237,0.958454576197,-0.00801316533836
2021/03/16/15:43:54.971227,193480,1615905834,972450256,mocap,-2.79554174805,10.3831152344,1.93347338867,0.15276703486,0.24078293698,0.958448473952,-0.0078942649602
2021/03/16/15:43:54.980085,193481,1615905834,982450247,mocap,-2.7954453125,10.3832880859,1.93348669434,0.152862787102,0.240722748713,0.95844790648,-0.00794587460819
2021/03/16/15:43:54.992299,193482,1615905834,992450237,mocap,-2.79531762695,10.3834921875,1.93350158691,0.152935541645,0.240850643692,0.958404489999,-0.0079075796094
2021/03/16/15:43:54.999951,193483,1615905835,2450228,mocap,-2.79523828125,10.3837314453,1.93367382813,0.154030360888,0.24104842819,0.958176134354,-0.00829404718348
2021/03/16/15:43:55.011194,193484,1615905835,12450218,mocap,-2.79507373047,10.3838105469,1.93354650879,0.153245689863,0.241083186932,0.958295298768,-0.0080477005721
2021/03/16/15:43:55.020125,193485,1615905835,22450209,mocap,-2.79497290039,10.3839755859,1.93357617187,0.153386925892,0.24111051875,0.958265435191,-0.00809505080103
2021/03/16/15:43:55.031999,193486,1615905835,32450199,mocap,-2.79483886719,10.3841103516,1.93354150391,0.153694306188,0.241197518657,0.958193443116,-0.00819399673066
2021/03/16/15:43:55.040170,193487,1615905835,42450190,mocap,-2.79469018555,10.3842558594,1.93357763672,0.153788438529,0.241346657427,0.95814092491,-0.00817739000529
2021/03/16/15:43:55.049968,193488,1615905835,52450180,mocap,-2.79456152344,10.3843896484,1.93359350586,0.154037051302,0.241487019983,0.958065688381,-0.0081689315002
2021/03/16/15:43:55.059956,193489,1615905835,62450171,mocap,-2.79440844727,10.3845146484,1.93360192871,0.154091068356,0.241617883719,0.958024346601,-0.00813006252723
2021/03/16/15:43:55.071095,193490,1615905835,72450161,mocap,-2.79425537109,10.3846201172,1.93360266113,0.154241065304,0.241688079968,0.957982264187,-0.00815663328487
2021/03/16/15:43:55.080801,193491,1615905835,82450151,mocap,-2.79412402344,10.3847050781,1.93363659668,0.154327849285,0.241815849471,0.957937823275,-0.00794548079943
2021/03/16/15:43:55.090815,193492,1615905835,92450142,mocap,-2.79397998047,10.3847792969,1.93361108398,0.154721553889,0.241984196898,0.957831666951,-0.00796105515378
2021/03/16/15:43:55.101779,193493,1615905835,102450132,mocap,-2.79383691406,10.3848339844,1.93363232422,0.154434116892,0.242089120408,0.957852910047,-0.0077950504953
2021/03/16/15:43:55.110302,193494,1615905835,112450123,mocap,-2.79367626953,10.3848798828,1.93364221191,0.154561721519,0.242275415226,0.957786293356,-0.00766226907917
2021/03/16/15:43:55.122190,193495,1615905835,122450113,mocap,-2.79353173828,10.3848935547,1.93363098145,0.154584951944,0.242286974373,0.957779867914,-0.00763165367486
2021/03/16/15:43:55.130668,193496,1615905835,132450104,mocap,-2.79337207031,10.3848652344,1.93365454102,0.154416495807,0.24251713297,0.957750493916,-0.00741576850019
2021/03/16/15:43:55.140615,193497,1615905835,142450094,mocap,-2.79315112305,10.3848271484,1.93365136719,0.154357765482,0.242588750373,0.957742317889,-0.00735120124559
2021/03/16/15:43:55.151708,193498,1615905835,152450085,mocap,-2.79298681641,10.3847636719,1.9337109375,0.154420856314,0.242733085546,0.957695609734,-0.00734598853925
2021/03/16/15:43:55.161448,193499,1615905835,162450075,mocap,-2.79278564453,10.3846474609,1.93368945312,0.154419446258,0.242833135008,0.957670869982,-0.00729470359491
2021/03/16/15:43:55.170289,193500,1615905835,172450066,mocap,-2.79257836914,10.3844794922,1.93361694336,0.155195589806,0.242249886721,0.957690327306,-0.0076527452604
2021/03/16/15:43:55.180458,193501,1615905835,182450056,mocap,-2.79238696289,10.3843808594,1.9337767334,0.154709389886,0.243151926111,0.957544679521,-0.00709430925499
2021/03/16/15:43:55.190013,193502,1615905835,192450047,mocap,-2.79214355469,10.384203125,1.93377880859,0.155094028303,0.243499438299,0.957393523177,-0.00717706214159
2021/03/16/15:43:55.201519,193503,1615905835,202450037,mocap,-2.79191210938,10.3839941406,1.93385095215,0.155205438375,0.243654928214,0.957336392705,-0.00711176820519
2021/03/16/15:43:55.211559,193504,1615905835,212450027,mocap,-2.79164892578,10.3837578125,1.9338762207,0.155529131181,0.243886122465,0.957225024789,-0.00710591152244
2021/03/16/15:43:55.220191,193505,1615905835,222450256,mocap,-2.79138867188,10.3834990234,1.93396044922,0.155650351403,0.244043383406,0.95716480958,-0.00716440489184
2021/03/16/15:43:55.231428,193506,1615905835,232450247,mocap,-2.79111376953,10.3831914063,1.93403063965,0.155888114617,0.244156609822,0.957095599444,-0.00737945509817
2021/03/16/15:43:55.240823,193507,1615905835,242450237,mocap,-2.79087182617,10.3828496094,1.93409338379,0.155902892689,0.244293322393,0.957058544159,-0.00734858574758
2021/03/16/15:43:55.250077,193508,1615905835,252450228,mocap,-2.79059619141,10.3824628906,1.93415734863,0.155657586984,0.244562535351,0.957030378069,-0.00726229200477
2021/03/16/15:43:55.260247,193509,1615905835,262450218,mocap,-2.79029003906,10.3820585937,1.93426782227,0.1558312848,0.244700691465,0.956966187737,-0.00734104608615
2021/03/16/15:43:55.270211,193510,1615905835,272450209,mocap,-2.78995776367,10.3815869141,1.9343302002,0.155527650627,0.245054713871,0.956924525947,-0.00740161348954
2021/03/16/15:43:55.280098,193511,1615905835,282450199,mocap,-2.78965063477,10.3810751953,1.93438256836,0.155208856836,0.245209905812,0.956937279272,-0.00730397552697
2021/03/16/15:43:55.290155,193512,1615905835,292450190,mocap,-2.78932128906,10.3805332031,1.93445825195,0.155252402614,0.245298590265,0.956906952863,-0.00737384595273
2021/03/16/15:43:55.301499,193513,1615905835,302450180,mocap,-2.78903637695,10.3799785156,1.93455847168,0.155320587373,0.245347605748,0.956881709969,-0.00758076222397
2021/03/16/15:43:55.310093,193514,1615905835,312450171,mocap,-2.78869775391,10.3793525391,1.93462402344,0.155130494166,0.245490433408,0.95687526288,-0.00766129804144
2021/03/16/15:43:55.321499,193515,1615905835,322450161,mocap,-2.78836645508,10.3787675781,1.9347800293,0.155674424688,0.245889206033,0.956680817576,-0.00811052495535
2021/03/16/15:43:55.330372,193516,1615905835,332450151,mocap,-2.78800830078,10.3781005859,1.93478662109,0.155717798788,0.246241955345,0.9565824741,-0.00817532679524
2021/03/16/15:43:55.340362,193517,1615905835,342450142,mocap,-2.78761889648,10.377390625,1.93478283691,0.155968687007,0.246623298831,0.95644200149,-0.00833177909369
2021/03/16/15:43:55.351227,193518,1615905835,352450132,mocap,-2.78720019531,10.3766064453,1.93472094727,0.155770880977,0.24666719928,0.956459442901,-0.00872162297575
2021/03/16/15:43:55.361136,193519,1615905835,362450123,mocap,-2.78683544922,10.3758574219,1.93483105469,0.153412077636,0.24781695344,0.956552183176,-0.00770866071884
2021/03/16/15:43:55.372064,193520,1615905835,372450113,mocap,-2.7863984375,10.3750742187,1.9348223877,0.153083847133,0.248161036392,0.956514818635,-0.00779931966782
2021/03/16/15:43:55.380273,193521,1615905835,382450104,mocap,-2.78592358398,10.3741494141,1.93461108398,0.153044436406,0.2480536966,0.956545858491,-0.00817152322718
2021/03/16/15:43:55.392128,193522,1615905835,392450094,mocap,-2.78540429687,10.3731757812,1.93440441895,0.153702366967,0.248334271918,0.956362011526,-0.00879638047631
2021/03/16/15:43:55.400100,193523,1615905835,402450085,mocap,-2.78502832031,10.3723720703,1.93466784668,0.152492645348,0.249529215814,0.956249478284,-0.00825246625373
2021/03/16/15:43:55.412159,193524,1615905835,412450075,mocap,-2.78450561523,10.3713554688,1.93451672363,0.153023236835,0.249659195387,0.956127799086,-0.00859188912833
2021/03/16/15:43:55.420257,193525,1615905835,422450066,mocap,-2.78398754883,10.3703574219,1.9345189209,0.15348336996,0.250240382452,0.955898502049,-0.00898110772286
2021/03/16/15:43:55.432049,193526,1615905835,432450056,mocap,-2.7834831543,10.36934375,1.9345670166,0.153084889289,0.251182845544,0.955716744567,-0.00881538330766
2021/03/16/15:43:55.440293,193527,1615905835,442450047,mocap,-2.78290307617,10.3682099609,1.93445275879,0.152907826196,0.251929911926,0.955549790633,-0.0086665308163
2021/03/16/15:43:55.451886,193528,1615905835,452450037,mocap,-2.78228051758,10.3669111328,1.93408068848,0.152368431297,0.25162890586,0.955713665219,-0.00883990523237
2021/03/16/15:43:55.460244,193529,1615905835,462450027,mocap,-2.78163989258,10.3656269531,1.93383081055,0.15297107129,0.251684722841,0.955597508099,-0.00938334500586
2021/03/16/15:43:55.472065,193530,1615905835,472450256,mocap,-2.7811340332,10.3644345703,1.93390917969,0.151136395882,0.253137398433,0.955516613115,-0.00820143586057
2021/03/16/15:43:55.480056,193531,1615905835,482450247,mocap,-2.78049975586,10.3630273437,1.93369018555,0.151940628454,0.25280219561,0.955472400624,-0.0088080064197
2021/03/16/15:43:55.492089,193532,1615905835,492450237,mocap,-2.77981274414,10.3616513672,1.93355895996,0.153590837398,0.253244817771,0.955083889934,-0.00957523799263
2021/03/16/15:43:55.500241,193533,1615905835,502450228,mocap,-2.77927880859,10.3602910156,1.93368334961,0.151944642536,0.2543321423,0.95507096364,-0.0082120301982
2021/03/16/15:43:55.511966,193534,1615905835,512450218,mocap,-2.77861694336,10.3587890625,1.9335559082,0.15127164851,0.254765418271,0.955063841231,-0.00803313148512
2021/03/16/15:43:55.520032,193535,1615905835,522450209,mocap,-2.77790405273,10.3571582031,1.93322143555,0.150337973333,0.254660994225,0.955242330091,-0.00763920830958
2021/03/16/15:43:55.532017,193536,1615905835,532450199,mocap,-2.77725415039,10.3556025391,1.93324328613,0.150695874578,0.25521421057,0.955038994298,-0.00754902765746
2021/03/16/15:43:55.540087,193537,1615905835,542450190,mocap,-2.77643945313,10.3537402344,1.93266906738,0.151498004595,0.254846626588,0.955005229516,-0.00815938454475
2021/03/16/15:43:55.551655,193538,1615905835,552450180,mocap,-2.77586694336,10.3521845703,1.9328815918,0.150801861713,0.255752732417,0.954880707665,-0.0072236824054
2021/03/16/15:43:55.560138,193539,1615905835,562450171,mocap,-2.77498706055,10.3502128906,1.93227954102,0.15063831174,0.255341064974,0.955015925467,-0.00732341047011
2021/03/16/15:43:55.571635,193540,1615905835,572450161,mocap,-2.77434326172,10.3483935547,1.93214257812,0.149564733605,0.255543558572,0.955137340684,-0.00636702731529
2021/03/16/15:43:55.579912,193541,1615905835,582450151,mocap,-2.77370458984,10.3466308594,1.93220849609,0.149496978198,0.256327298973,0.95494048174,-0.0059709202411
2021/03/16/15:43:55.591643,193542,1615905835,592450142,mocap,-2.77290795898,10.3446025391,1.93166064453,0.148832596308,0.256425629588,0.955021168077,-0.005414575779
2021/03/16/15:43:55.599938,193543,1615905835,602450132,mocap,-2.77216259766,10.3425791016,1.93123522949,0.148266968708,0.256380035701,0.955123759859,-0.00497820340076
2021/03/16/15:43:55.611784,193544,1615905835,612450123,mocap,-2.77135644531,10.3405146484,1.93071826172,0.149725977769,0.255954359871,0.955009457981,-0.00514147577535
2021/03/16/15:43:55.619990,193545,1615905835,622450113,mocap,-2.77058618164,10.3384189453,1.93009667969,0.149762717871,0.255784606666,0.955051281324,-0.00473312114996
2021/03/16/15:43:55.630707,193546,1615905835,632450104,mocap,-2.76987329102,10.33634375,1.9294107666,0.148928109921,0.255953392468,0.955139634038,-0.00406822769638
2021/03/16/15:43:55.641576,193547,1615905835,642450094,mocap,-2.76908398437,10.3341464844,1.92832995605,0.149591210528,0.255781485802,0.955082392147,-0.00399038759164
2021/03/16/15:43:55.650321,193548,1615905835,652450085,mocap,-2.76831225586,10.3319462891,1.92725952148,0.148063908617,0.256120969107,0.955233165428,-0.00295306948066
2021/03/16/15:43:55.660583,193549,1615905835,662450075,mocap,-2.76752685547,10.3298105469,1.92629528809,0.149460972413,0.255812745133,0.955097650746,-0.00312114255642
2021/03/16/15:43:55.670387,193550,1615905835,672450066,mocap,-2.76672753906,10.3275820312,1.92513232422,0.147757612194,0.256217032986,0.955257874719,-0.00170860820063
2021/03/16/15:43:55.680239,193551,1615905835,682450056,mocap,-2.76600195312,10.3253603516,1.92427307129,0.148022895884,0.256271950022,0.955202925316,-0.00112868891361
2021/03/16/15:43:55.691135,193552,1615905835,692450047,mocap,-2.76519555664,10.3229160156,1.92299304199,0.147889752491,0.255857052477,0.955335305503,-0.000494987502856
2021/03/16/15:43:55.700199,193553,1615905835,702450037,mocap,-2.76452148437,10.3206162109,1.92242883301,0.148540533123,0.256122677498,0.955163261504,0.000158685841973
2021/03/16/15:43:55.711697,193554,1615905835,712450027,mocap,-2.76366064453,10.3180048828,1.92119763184,0.148172034435,0.255268780496,0.955448492277,0.00103578010919
2021/03/16/15:43:55.720193,193555,1615905835,722450256,mocap,-2.7630012207,10.3155703125,1.9207479248,0.148554717761,0.255151558595,0.955418570909,0.00212977264991
2021/03/16/15:43:55.732063,193556,1615905835,732450247,mocap,-2.76221240234,10.3128671875,1.9198371582,0.149417669888,0.25400078084,0.955589609932,0.00254253827327
2021/03/16/15:43:55.740462,193557,1615905835,742450237,mocap,-2.76140917969,10.3101113281,1.9189699707,0.148197173509,0.25264741373,0.956133697954,0.00390386416651
2021/03/16/15:43:55.752233,193558,1615905835,752450228,mocap,-2.76070458984,10.3073564453,1.91830065918,0.149135723546,0.251510497264,0.956285061225,0.00446083505195
2021/03/16/15:43:55.760081,193559,1615905835,762450218,mocap,-2.75988427734,10.3044638672,1.91754528809,0.149696839455,0.250217963135,0.956532749435,0.00518921792311
2021/03/16/15:43:55.772306,193560,1615905835,772450209,mocap,-2.75911938477,10.3015683594,1.91700598145,0.150195913501,0.248705256513,0.956845020158,0.00587319395506
2021/03/16/15:43:55.780307,193561,1615905835,782450199,mocap,-2.75839575195,10.2986591797,1.91673706055,0.150753595797,0.247528540122,0.957057750101,0.00659055269071
2021/03/16/15:43:55.792813,193562,1615905835,792450190,mocap,-2.75767260742,10.2956796875,1.9165090332,0.151181406607,0.246097946127,0.957352012286,0.00755715194707
2021/03/16/15:43:55.800099,193563,1615905835,802450180,mocap,-2.75696826172,10.2925996094,1.91635754395,0.151677379912,0.244512211384,0.9576724104,0.00844444790476
2021/03/16/15:43:55.812093,193564,1615905835,812450171,mocap,-2.75636523438,10.2895761719,1.91658483887,0.153210543492,0.243299956885,0.957732679268,0.00893195781004
2021/03/16/15:43:55.820151,193565,1615905835,822450161,mocap,-2.75564038086,10.2863232422,1.9163560791,0.153393953317,0.242244309251,0.95796070508,0.00996419729795
2021/03/16/15:43:55.831979,193566,1615905835,832450151,mocap,-2.75501879883,10.283171875,1.9165012207,0.155286369778,0.240745332646,0.958030226015,0.0102916228719
2021/03/16/15:43:55.840249,193567,1615905835,842450142,mocap,-2.75433813477,10.2799042969,1.91647705078,0.155090229461,0.239951935498,0.958247878922,0.0114496025405
2021/03/16/15:43:55.851731,193568,1615905835,852450132,mocap,-2.7537956543,10.2767275391,1.91670385742,0.156944384443,0.238787437455,0.958232639385,0.0117992568218
2021/03/16/15:43:55.860238,193569,1615905835,862450123,mocap,-2.7532512207,10.2734189453,1.91667626953,0.157923897552,0.238125244422,0.958228254086,0.0124514778753
2021/03/16/15:43:55.871974,193570,1615905835,872450113,mocap,-2.75269921875,10.2700527344,1.91656787109,0.159158089155,0.236922719733,0.958318607418,0.0127193822
2021/03/16/15:43:55.880096,193571,1615905835,882450104,mocap,-2.75231567383,10.2668017578,1.91679089355,0.160866146398,0.236483621774,0.958135567176,0.0131839247538
2021/03/16/15:43:55.890792,193572,1615905835,892450094,mocap,-2.75188549805,10.2633876953,1.91660351563,0.160441066769,0.236489111719,0.958189283132,0.0143127870279
2021/03/16/15:43:55.900258,193573,1615905835,902450085,mocap,-2.75151147461,10.2599208984,1.91633361816,0.161416258159,0.235831120269,0.958182984804,0.0146230971234
2021/03/16/15:43:55.910134,193574,1615905835,912450075,mocap,-2.75125610352,10.2565253906,1.91635437012,0.163137946591,0.235793567154,0.957898778281,0.014742199859
2021/03/16/15:43:55.921671,193575,1615905835,922450066,mocap,-2.75097070313,10.2529111328,1.91577587891,0.162412346842,0.235599912848,0.958055080916,0.015664285329
2021/03/16/15:43:55.930378,193576,1615905835,932450056,mocap,-2.75086206055,10.2494882813,1.91571032715,0.163184091796,0.236452948211,0.957705886657,0.0161363514681
2021/03/16/15:43:55.940137,193577,1615905835,942450047,mocap,-2.75071557617,10.2458349609,1.91511950684,0.164164091342,0.236481694529,0.957528284977,0.0163140048044
2021/03/16/15:43:55.951882,193578,1615905835,952450037,mocap,-2.75061376953,10.2421025391,1.91436108398,0.163218300092,0.236491767932,0.957675203374,0.017019122283
2021/03/16/15:43:55.960290,193579,1615905835,962450027,mocap,-2.75066381836,10.2384511719,1.91384521484,0.16442453559,0.237467013615,0.957223709373,0.017226974348
2021/03/16/15:43:55.971588,193580,1615905835,972450256,mocap,-2.75067333984,10.2345957031,1.91292407227,0.16304149155,0.238032658919,0.957306810528,0.0179328743347
2021/03/16/15:43:55.980365,193581,1615905835,982450247,mocap,-2.75080639648,10.2308496094,1.91240649414,0.164550799731,0.239634588332,0.956648450316,0.0179452896284
2021/03/16/15:43:55.990816,193582,1615905835,992450237,mocap,-2.75087963867,10.2268886719,1.91143713379,0.164492841711,0.240149291137,0.956526416832,0.0181007995685
2021/03/16/15:43:56.001822,193583,1615905836,2450228,mocap,-2.75099853516,10.2227666016,1.91028295898,0.163736333355,0.241163823177,0.956393804209,0.0184748174021
2021/03/16/15:43:56.010039,193584,1615905836,12450218,mocap,-2.75117602539,10.2187041016,1.90939147949,0.163819602713,0.242126662099,0.956130160196,0.018786602359
2021/03/16/15:43:56.021428,193585,1615905836,22450209,mocap,-2.75145849609,10.2146181641,1.90865966797,0.164532813828,0.243996135476,0.955523178534,0.0192430417014
2021/03/16/15:43:56.030243,193586,1615905836,32450199,mocap,-2.75180322266,10.2103496094,1.90769433594,0.164643247111,0.24518437391,0.9551971377,0.0193818334339
2021/03/16/15:43:56.040178,193587,1615905836,42450190,mocap,-2.75207592773,10.2059101563,1.90661132812,0.165565431643,0.245966835799,0.954843246505,0.0190465665034
2021/03/16/15:43:56.050619,193588,1615905836,52450180,mocap,-2.75237695313,10.2014033203,1.9055612793,0.165792520542,0.247527515783,0.954396595626,0.0192380313575
2021/03/16/15:43:56.060592,193589,1615905836,62450171,mocap,-2.75276147461,10.1968515625,1.90469470215,0.165062638086,0.249068073581,0.954104404972,0.020105018965
2021/03/16/15:43:56.070081,193590,1615905836,72450161,mocap,-2.75324609375,10.1920664062,1.90359680176,0.166038677887,0.249748906395,0.953762052605,0.019864401029
2021/03/16/15:43:56.080950,193591,1615905836,82450151,mocap,-2.753703125,10.1872158203,1.90261157227,0.166429257368,0.250894859828,0.953393538745,0.0198452578147
2021/03/16/15:43:56.090258,193592,1615905836,92450142,mocap,-2.75417578125,10.1822851562,1.90165515137,0.166720868402,0.25174794236,0.953116010405,0.0199246448794
2021/03/16/15:43:56.101611,193593,1615905836,102450132,mocap,-2.75478442383,10.1772109375,1.90073571777,0.166666279292,0.253379375313,0.952680343341,0.0205283137331
2021/03/16/15:43:56.109998,193594,1615905836,112450123,mocap,-2.75541357422,10.1719921875,1.89964929199,0.16729413721,0.253729662545,0.952484071704,0.0201998356479
2021/03/16/15:43:56.121509,193595,1615905836,122450113,mocap,-2.75605126953,10.1667216797,1.89883740234,0.167077320832,0.25513782409,0.952137216355,0.0206055726942
2021/03/16/15:43:56.130081,193596,1615905836,132450104,mocap,-2.75684399414,10.1613193359,1.89786572266,0.167444490256,0.255998441938,0.95183940861,0.0207095021663
2021/03/16/15:43:56.141280,193597,1615905836,142450094,mocap,-2.75759716797,10.1558232422,1.8969564209,0.167432677587,0.256574196524,0.951691143066,0.0204928014674
2021/03/16/15:43:56.150333,193598,1615905836,152450085,mocap,-2.75839916992,10.1501796875,1.89597546387,0.167698857103,0.257375226958,0.951426477842,0.0205608472907
2021/03/16/15:43:56.160239,193599,1615905836,162450075,mocap,-2.75931420898,10.1444667969,1.89505236816,0.168237309579,0.258182181614,0.951120794284,0.0201846237067
2021/03/16/15:43:56.170182,193600,1615905836,172450066,mocap,-2.76016894531,10.1386386719,1.89417297363,0.167998059987,0.258839331413,0.950990804557,0.0198832701493
2021/03/16/15:43:56.180003,193601,1615905836,182450056,mocap,-2.76124047852,10.1327177734,1.89330273437,0.168576372637,0.259576434778,0.95069146998,0.019692682481
2021/03/16/15:43:56.192296,193602,1615905836,192450047,mocap,-2.76220336914,10.1267275391,1.89260168457,0.167319191165,0.260194656113,0.950745880798,0.0196291793686
2021/03/16/15:43:56.200083,193603,1615905836,202450037,mocap,-2.76336157227,10.1206611328,1.89184875488,0.167186824243,0.260613907632,0.950662676361,0.0192206075562
2021/03/16/15:43:56.212166,193604,1615905836,212450027,mocap,-2.76444091797,10.1144199219,1.89098730469,0.167409481835,0.261195647931,0.950471741789,0.0188248434672
2021/03/16/15:43:56.220211,193605,1615905836,222450256,mocap,-2.76563525391,10.1080214844,1.89014880371,0.166554761818,0.262395086445,0.950292215767,0.0187888091946
2021/03/16/15:43:56.232382,193606,1615905836,232450247,mocap,-2.76682055664,10.1016914062,1.88960009766,0.167504880564,0.262871763756,0.950010307156,0.0179155805435
2021/03/16/15:43:56.240041,193607,1615905836,242450237,mocap,-2.76807470703,10.0951572266,1.88893603516,0.166307821848,0.263636914211,0.950011240428,0.0177741026003
2021/03/16/15:43:56.251287,193608,1615905836,252450228,mocap,-2.7693840332,10.0886328125,1.88858605957,0.167368113639,0.264063412674,0.949724910146,0.0167639550226
2021/03/16/15:43:56.261045,193609,1615905836,262450218,mocap,-2.77073510742,10.0819423828,1.88824182129,0.166334460067,0.264867530519,0.949688571466,0.0164214298374
2021/03/16/15:43:56.270079,193610,1615905836,272450209,mocap,-2.77220068359,10.0752988281,1.88845898437,0.165491923863,0.266121546921,0.949489170377,0.0161887602596
2021/03/16/15:43:56.282136,193611,1615905836,282450199,mocap,-2.77353808594,10.0684648438,1.888734375,0.165924235218,0.266663472091,0.949280458179,0.0150451710462
2021/03/16/15:43:56.290276,193612,1615905836,292450190,mocap,-2.77503857422,10.06159375,1.88941247559,0.166111481386,0.267436839136,0.949043406865,0.0141815334716
2021/03/16/15:43:56.300392,193613,1615905836,302450180,mocap,-2.77647705078,10.0545996094,1.89024645996,0.166265143253,0.268157380783,0.94883264923,0.0128106177397
2021/03/16/15:43:56.310946,193614,1615905836,312450171,mocap,-2.77799487305,10.0476103516,1.89143188477,0.166097652034,0.269009504868,0.94862608598,0.012409668516
2021/03/16/15:43:56.321423,193615,1615905836,322450161,mocap,-2.77943334961,10.0404277344,1.89254711914,0.16635808379,0.268784972094,0.948666447213,0.0105645225717
2021/03/16/15:43:56.330466,193616,1615905836,332450151,mocap,-2.78084716797,10.0332041016,1.89388049316,0.167520314561,0.268939403616,0.948432533968,0.00917898660489
2021/03/16/15:43:56.340639,193617,1615905836,342450142,mocap,-2.78239086914,10.0259609375,1.89558728027,0.166620635128,0.270061896426,0.948280097997,0.00830595515128
2021/03/16/15:43:56.350078,193618,1615905836,352450132,mocap,-2.78386669922,10.0186611328,1.89741918945,0.168300628566,0.268861192605,0.948341639418,0.00605755965997
2021/03/16/15:43:56.360727,193619,1615905836,362450123,mocap,-2.78545141602,10.0113574219,1.89960449219,0.167693283248,0.268803204598,0.948470774637,0.00519527868655
2021/03/16/15:43:56.371712,193620,1615905836,372450113,mocap,-2.78696142578,10.0038642578,1.90167248535,0.168252607233,0.267506268242,0.948747235207,0.00318603460879
2021/03/16/15:43:56.380076,193621,1615905836,382450104,mocap,-2.78844995117,9.99634960938,1.90377368164,0.169538122354,0.26589091658,0.948976862664,0.00132839279039
2021/03/16/15:43:56.390754,193622,1615905836,392450094,mocap,-2.79001806641,9.98888769531,1.90611853027,0.168727015987,0.264692904385,0.949457130797,4.1415563136e-05
2021/03/16/15:43:56.400039,193623,1615905836,402450085,mocap,-2.79153076172,9.98139160156,1.90816442871,0.169615664291,0.262897451493,0.949796241944,-0.00159864927412
2021/03/16/15:43:56.411789,193624,1615905836,412450075,mocap,-2.79294287109,9.97384179687,1.90986889648,0.170418454714,0.260177364552,0.95039360902,-0.00415756403433
2021/03/16/15:43:56.420559,193625,1615905836,422450066,mocap,-2.79445556641,9.96651953125,1.91174938965,0.17024425698,0.258671326643,0.950830488411,-0.00523622363566
2021/03/16/15:43:56.431638,193626,1615905836,432450056,mocap,-2.79586791992,9.95915136719,1.91314550781,0.170760021608,0.256796701801,0.951232861203,-0.00724713702717
2021/03/16/15:43:56.440365,193627,1615905836,442450047,mocap,-2.7972722168,9.95174707031,1.9142454834,0.172476737202,0.254158164918,0.951612695457,-0.00941722502672
2021/03/16/15:43:56.451468,193628,1615905836,452450037,mocap,-2.79868969727,9.944609375,1.91540222168,0.172464588689,0.253218229203,0.951851752593,-0.010710862071
2021/03/16/15:43:56.460104,193629,1615905836,462450027,mocap,-2.80013330078,9.93750976563,1.91632617187,0.173052919498,0.251842889011,0.952092275675,-0.0121709500322
2021/03/16/15:43:56.471550,193630,1615905836,472450256,mocap,-2.80155981445,9.93053320312,1.91705761719,0.173083642508,0.250882695476,0.952322011923,-0.0135174185954
2021/03/16/15:43:56.480364,193631,1615905836,482450247,mocap,-2.8029621582,9.92360546875,1.91759155273,0.173289717689,0.250288777897,0.952423212556,-0.0147040643448
2021/03/16/15:43:56.490277,193632,1615905836,492450237,mocap,-2.80438305664,9.91673339844,1.9179173584,0.173353286726,0.249878283111,0.952507874551,-0.0154345303631
2021/03/16/15:43:56.500398,193633,1615905836,502450228,mocap,-2.80576928711,9.91002441406,1.91824951172,0.172878368228,0.250017508054,0.952546585175,-0.016103031284
2021/03/16/15:43:56.510205,193634,1615905836,512450218,mocap,-2.80720605469,9.90333398437,1.91846618652,0.172544252871,0.250348753228,0.952512739865,-0.0165367531146
2021/03/16/15:43:56.521388,193635,1615905836,522450209,mocap,-2.80852026367,9.89668359375,1.91859106445,0.172397028835,0.250901839836,0.952384371748,-0.0170746352763
2021/03/16/15:43:56.530370,193636,1615905836,532450199,mocap,-2.8098972168,9.89009765625,1.91885522461,0.172076982862,0.251640412107,0.952240643071,-0.0174459288829
2021/03/16/15:43:56.541455,193637,1615905836,542450190,mocap,-2.8111184082,9.88349511719,1.91903186035,0.171496598703,0.252223000097,0.952181145522,-0.0179872701475
2021/03/16/15:43:56.550185,193638,1615905836,552450180,mocap,-2.81238183594,9.87691503906,1.91937268066,0.170622669005,0.253207901386,0.952071185768,-0.0182786434707
2021/03/16/15:43:56.561742,193639,1615905836,562450171,mocap,-2.81345654297,9.8701875,1.9195057373,0.171187993307,0.253635063471,0.951836864649,-0.0192488838499
2021/03/16/15:43:56.570311,193640,1615905836,572450161,mocap,-2.81460498047,9.86347265625,1.91985412598,0.170402915314,0.254074618501,0.951847549238,-0.0198790833507
2021/03/16/15:43:56.580157,193641,1615905836,582450151,mocap,-2.81564575195,9.8567734375,1.92042773438,0.170197751805,0.254835742725,0.951673348082,-0.0202314939822
2021/03/16/15:43:56.590536,193642,1615905836,592450142,mocap,-2.81671142578,9.84999316406,1.92095446777,0.168974432453,0.255497965261,0.95170943092,-0.020435065906
2021/03/16/15:43:56.601064,193643,1615905836,602450132,mocap,-2.81758276367,9.84304199219,1.9213470459,0.169610411743,0.254931114934,0.951720868479,-0.0216751773997
2021/03/16/15:43:56.611972,193644,1615905836,612450123,mocap,-2.81848120117,9.836140625,1.92199694824,0.169142187637,0.254769829046,0.951833146541,-0.0222918179794
2021/03/16/15:43:56.620142,193645,1615905836,622450113,mocap,-2.81939013672,9.829234375,1.92283740234,0.167982775574,0.255244727233,0.951907271141,-0.0224601687601
2021/03/16/15:43:56.632148,193646,1615905836,632450104,mocap,-2.82018920898,9.82220800781,1.92346496582,0.167326020571,0.254845745235,0.952115430993,-0.023062033364
2021/03/16/15:43:56.640204,193647,1615905836,642450094,mocap,-2.82093969727,9.81504980469,1.92390112305,0.16759369333,0.253931678182,0.952284004146,-0.0242124807355
2021/03/16/15:43:56.652145,193648,1615905836,652450085,mocap,-2.82161621094,9.80790820313,1.92449157715,0.167107648783,0.253406135258,0.952498237716,-0.0246468517232
2021/03/16/15:43:56.660255,193649,1615905836,662450075,mocap,-2.82232348633,9.80077734375,1.92521191406,0.165715981253,0.253563444065,0.952696320797,-0.0247692554311
2021/03/16/15:43:56.672067,193650,1615905836,672450066,mocap,-2.82294848633,9.79356640625,1.92568969727,0.165685906065,0.253087272891,0.952807287513,-0.0255593915075
2021/03/16/15:43:56.680012,193651,1615905836,682450056,mocap,-2.82341333008,9.78625,1.92594262695,0.166152318209,0.251808545573,0.953032551644,-0.0267359819227
2021/03/16/15:43:56.692177,193652,1615905836,692450047,mocap,-2.82390893555,9.77900976563,1.92633935547,0.16560452282,0.251930995677,0.953085398242,-0.0270951606623
2021/03/16/15:43:56.700106,193653,1615905836,702450037,mocap,-2.82433691406,9.771671875,1.92655541992,0.165128909401,0.251837848179,0.95318091338,-0.0275004369011
2021/03/16/15:43:56.711193,193654,1615905836,712450027,mocap,-2.8247331543,9.76431738281,1.92669128418,0.165161996,0.252017062067,0.953109146987,-0.0281402102297
2021/03/16/15:43:56.720313,193655,1615905836,722450256,mocap,-2.82503393555,9.75696875,1.92676745605,0.165076022244,0.252044643546,0.953100712263,-0.028678103929
2021/03/16/15:43:56.732105,193656,1615905836,732450247,mocap,-2.82529956055,9.74952539062,1.92661035156,0.16524842251,0.25198783781,0.953064869719,-0.029367541776
2021/03/16/15:43:56.740063,193657,1615905836,742450237,mocap,-2.82547216797,9.74204101563,1.92626074219,0.165809536393,0.252010372811,0.952933495466,-0.0302609405059
2021/03/16/15:43:56.750357,193658,1615905836,752450228,mocap,-2.82570629883,9.7345390625,1.92604321289,0.165743937463,0.252533877203,0.952798060329,-0.0305196079775
2021/03/16/15:43:56.762055,193659,1615905836,762450218,mocap,-2.82581079102,9.72696875,1.92546618652,0.166114572535,0.25262960496,0.952688500245,-0.0311263115973
2021/03/16/15:43:56.770289,193660,1615905836,772450209,mocap,-2.82587817383,9.71931542969,1.92476318359,0.166870728363,0.253291082937,0.952360737925,-0.0317303216276
2021/03/16/15:43:56.780876,193661,1615905836,782450199,mocap,-2.82596069336,9.7116640625,1.92405114746,0.16698091297,0.253490372389,0.952275327395,-0.032120140494
2021/03/16/15:43:56.790857,193662,1615905836,792450190,mocap,-2.82606445312,9.70397363281,1.92326721191,0.167145775495,0.254414527877,0.951999742684,-0.0321252828917
2021/03/16/15:43:56.800153,193663,1615905836,802450180,mocap,-2.82602539062,9.69614941406,1.92218359375,0.167941306073,0.254940225621,0.951694689496,-0.0328391397901
2021/03/16/15:43:56.810224,193664,1615905836,812450171,mocap,-2.8260168457,9.68833886719,1.9212109375,0.167727129703,0.255793523948,0.951514814776,-0.0325089326144
2021/03/16/15:43:56.820602,193665,1615905836,822450161,mocap,-2.8259543457,9.68037792969,1.91988781738,0.16843728765,0.256248921084,0.951255058395,-0.032851011435
2021/03/16/15:43:56.830368,193666,1615905836,832450151,mocap,-2.82593237305,9.67237011719,1.91859765625,0.168893172727,0.257226938664,0.950905662741,-0.0329822757263
2021/03/16/15:43:56.840667,193667,1615905836,842450142,mocap,-2.82584472656,9.66428417969,1.91719921875,0.169252765024,0.257624712732,0.950731641655,-0.0330507378148
2021/03/16/15:43:56.850218,193668,1615905836,852450132,mocap,-2.82578564453,9.65608984375,1.91575109863,0.168931714923,0.258681700487,0.950506208473,-0.0329210008358
2021/03/16/15:43:56.861668,193669,1615905836,862450123,mocap,-2.82559838867,9.64784375,1.91415734863,0.169767716765,0.258936892115,0.950281254958,-0.033108099915
2021/03/16/15:43:56.870048,193670,1615905836,872450113,mocap,-2.82543994141,9.63952929688,1.9126048584,0.169682082656,0.259584879048,0.95013188369,-0.0327579845463
2021/03/16/15:43:56.881761,193671,1615905836,882450104,mocap,-2.82526367188,9.63114355469,1.91096020508,0.170202476669,0.260201735726,0.949871992283,-0.032701230749
2021/03/16/15:43:56.889965,193672,1615905836,892450094,mocap,-2.82508984375,9.62264550781,1.90917443848,0.170916958512,0.260357120273,0.949693568902,-0.0329195433029
2021/03/16/15:43:56.901508,193673,1615905836,902450085,mocap,-2.82495092773,9.61417675781,1.90755065918,0.170948237378,0.261038347728,0.949515747577,-0.0324887624741
2021/03/16/15:43:56.910291,193674,1615905836,912450075,mocap,-2.82471191406,9.60560644531,1.90573730469,0.171220097827,0.261606343643,0.949306947041,-0.0325900224964
2021/03/16/15:43:56.921649,193675,1615905836,922450066,mocap,-2.82448120117,9.59702246094,1.90406787109,0.170569759701,0.262347975138,0.949244180974,-0.031858669934
2021/03/16/15:43:56.930310,193676,1615905836,932450056,mocap,-2.8241875,9.58835058594,1.90236804199,0.171040443358,0.263075500061,0.948965541206,-0.031636150054
2021/03/16/15:43:56.941475,193677,1615905836,942450047,mocap,-2.82395605469,9.57962890625,1.90084228516,0.170482401915,0.264194179901,0.948788353003,-0.030624343131
2021/03/16/15:43:56.950300,193678,1615905836,952450037,mocap,-2.82369311523,9.57087304688,1.89950024414,0.170274113184,0.265097653778,0.948599735191,-0.0298076765356
2021/03/16/15:43:56.961471,193679,1615905836,962450027,mocap,-2.82337768555,9.56198925781,1.89821728516,0.170590355369,0.265509661631,0.948436406809,-0.0295285717667
2021/03/16/15:43:56.970515,193680,1615905836,972450256,mocap,-2.82302099609,9.5530078125,1.89709033203,0.169998997086,0.266182159917,0.94838132142,-0.0286403505795
2021/03/16/15:43:56.980470,193681,1615905836,982450247,mocap,-2.82262207031,9.54404003906,1.89625598145,0.169609039662,0.266640898452,0.94834176512,-0.0279874816958
2021/03/16/15:43:56.991162,193682,1615905836,992450237,mocap,-2.82219042969,9.5348984375,1.89551660156,0.169311312286,0.267147457444,0.948275053828,-0.0272091962663
2021/03/16/15:43:57.000005,193683,1615905837,2450228,mocap,-2.8216940918,9.5257734375,1.89498083496,0.168744635679,0.267508991686,0.948296377439,-0.0264228066136
2021/03/16/15:43:57.012154,193684,1615905837,12450218,mocap,-2.82119384766,9.51655371094,1.89463330078,0.168386148413,0.267917060376,0.94826667039,-0.0256297617686
2021/03/16/15:43:57.020204,193685,1615905837,22450209,mocap,-2.82066186523,9.50731347656,1.89476916504,0.167816709954,0.268733860214,0.948166236232,-0.0245040402032
2021/03/16/15:43:57.032334,193686,1615905837,32450199,mocap,-2.82005834961,9.49797949219,1.89510437012,0.167362974498,0.268915319979,0.948214702424,-0.0237289631882
2021/03/16/15:43:57.039980,193687,1615905837,42450190,mocap,-2.81947290039,9.48861035156,1.89587194824,0.166609070954,0.269353867798,0.948253572594,-0.0224739218732
2021/03/16/15:43:57.051993,193688,1615905837,52450180,mocap,-2.81880688477,9.47906738281,1.89666235352,0.166980175968,0.269002506938,0.948297681668,-0.0220632595624
2021/03/16/15:43:57.060251,193689,1615905837,62450171,mocap,-2.81811889648,9.46951660156,1.89773205566,0.16637319816,0.268690214586,0.94851474793,-0.0211021060605
2021/03/16/15:43:57.072504,193690,1615905837,72450161,mocap,-2.81737011719,9.45983691406,1.89877050781,0.16653824806,0.268167082395,0.948645736672,-0.0205595244353
2021/03/16/15:43:57.079840,193691,1615905837,82450151,mocap,-2.81664672852,9.450296875,1.90005419922,0.167089964463,0.267755981093,0.948675329753,-0.0200696752061
2021/03/16/15:43:57.092291,193692,1615905837,92450142,mocap,-2.81590698242,9.44072460937,1.90142675781,0.166616216024,0.267541947343,0.948843775966,-0.0188631675749
2021/03/16/15:43:57.099949,193693,1615905837,102450132,mocap,-2.81513549805,9.43120605469,1.90284399414,0.166978649454,0.266996813927,0.94894785214,-0.0181332247642
2021/03/16/15:43:57.111979,193694,1615905837,112450123,mocap,-2.81433813477,9.42154882812,1.90401501465,0.167448700781,0.266151038467,0.949115135283,-0.0174646603607
2021/03/16/15:43:57.120552,193695,1615905837,122450113,mocap,-2.81359399414,9.41201855469,1.90525622559,0.168124542914,0.265417588119,0.949211246163,-0.016901120409
2021/03/16/15:43:57.131828,193696,1615905837,132450104,mocap,-2.81290209961,9.40242578125,1.90625756836,0.16803837831,0.264532352687,0.949490865313,-0.0159006561477
2021/03/16/15:43:57.140153,193697,1615905837,142450094,mocap,-2.8122409668,9.39293261719,1.90713183594,0.169144082564,0.263288069859,0.949642644038,-0.0157642598541
2021/03/16/15:43:57.151989,193698,1615905837,152450085,mocap,-2.81163452148,9.38347851563,1.90787207031,0.169842207447,0.262638166847,0.94970672529,-0.0152306122803
2021/03/16/15:43:57.160218,193699,1615905837,162450075,mocap,-2.81107543945,9.3741484375,1.90853918457,0.170092407514,0.26193542151,0.949870313714,-0.0143107269575
2021/03/16/15:43:57.171688,193700,1615905837,172450066,mocap,-2.8105625,9.36486621094,1.90908483887,0.170729500919,0.261453957658,0.949898911732,-0.0136137828983
2021/03/16/15:43:57.180495,193701,1615905837,182450056,mocap,-2.81011328125,9.35569238281,1.90967797852,0.171337548408,0.261332893526,0.949835729827,-0.012675180341
2021/03/16/15:43:57.191916,193702,1615905837,192450047,mocap,-2.80973095703,9.34660644531,1.91022399902,0.171910025142,0.261360129119,0.949735524356,-0.0118433186574
2021/03/16/15:43:57.200059,193703,1615905837,202450037,mocap,-2.80938623047,9.33752246094,1.91068713379,0.172665148072,0.261783189844,0.949492607328,-0.0109587103924
2021/03/16/15:43:57.211723,193704,1615905837,212450027,mocap,-2.80909570313,9.32856445313,1.9113145752,0.173418238786,0.262000540193,0.949307826066,-0.00982250453957
2021/03/16/15:43:57.220169,193705,1615905837,222450256,mocap,-2.80887597656,9.31953320312,1.91184423828,0.1742591833,0.262033738237,0.949154031376,-0.0088698857881
2021/03/16/15:43:57.230573,193706,1615905837,232450247,mocap,-2.80875952148,9.31049511719,1.91237207031,0.174367055256,0.26189386313,0.949184362158,-0.00753529496713
2021/03/16/15:43:57.240098,193707,1615905837,242450237,mocap,-2.80865820312,9.30146777344,1.91304675293,0.175038329025,0.261579372373,0.949157226201,-0.00619535413719
2021/03/16/15:43:57.251472,193708,1615905837,252450228,mocap,-2.80864770508,9.29237695313,1.91372619629,0.17537034083,0.26098394943,0.94926699763,-0.00497875887957
2021/03/16/15:43:57.260195,193709,1615905837,262450218,mocap,-2.80873168945,9.28331152344,1.91454797363,0.175960273423,0.259933934472,0.949453160105,-0.00332093938688
2021/03/16/15:43:57.271312,193710,1615905837,272450209,mocap,-2.80895703125,9.27421972656,1.9154005127,0.176873216169,0.258806749526,0.949594972565,-0.00207878654495
2021/03/16/15:43:57.280452,193711,1615905837,282450199,mocap,-2.80924291992,9.26509375,1.9162244873,0.176867921855,0.257093719792,0.950063141494,-0.000770487835068
2021/03/16/15:43:57.291284,193712,1615905837,292450190,mocap,-2.80957055664,9.25602832031,1.91709802246,0.177409739178,0.255306175381,0.95044413305,0.000706827684671
2021/03/16/15:43:57.300662,193713,1615905837,302450180,mocap,-2.80998095703,9.24692675781,1.91788024902,0.176787203565,0.253558471243,0.951024657025,0.00254809909138
2021/03/16/15:43:57.311283,193714,1615905837,312450171,mocap,-2.81044067383,9.23787792969,1.9185838623,0.176600659641,0.251397928227,0.951626788318,0.00421176722649
2021/03/16/15:43:57.320529,193715,1615905837,322450161,mocap,-2.81094799805,9.22880566406,1.91914245605,0.177467770782,0.249124169239,0.952058625509,0.00516867460649
2021/03/16/15:43:57.331190,193716,1615905837,332450151,mocap,-2.81161938477,9.21985449219,1.91980395508,0.176784162754,0.247065954771,0.952712446573,0.0066906309402
2021/03/16/15:43:57.340011,193717,1615905837,342450142,mocap,-2.81231420898,9.21093457031,1.9203338623,0.176611305566,0.2453249531,0.953185962854,0.00778692695009
2021/03/16/15:43:57.351194,193718,1615905837,352450132,mocap,-2.81302075195,9.20206640625,1.92081286621,0.176229361674,0.243418203092,0.953731125261,0.00936629167435
2021/03/16/15:43:57.360013,193719,1615905837,362450123,mocap,-2.81376708984,9.19337011719,1.92115820313,0.175380187453,0.24189931702,0.954260829412,0.0106198125285
2021/03/16/15:43:57.371255,193720,1615905837,372450113,mocap,-2.81467431641,9.18446875,1.92142431641,0.174711867643,0.240430618933,0.954735107296,0.0122371608238
2021/03/16/15:43:57.379908,193721,1615905837,382450104,mocap,-2.81549584961,9.17584277344,1.92150305176,0.174259570626,0.239551175039,0.955024452496,0.0133088127405
2021/03/16/15:43:57.391279,193722,1615905837,392450094,mocap,-2.81639135742,9.16722460937,1.92158349609,0.173277225051,0.238629190772,0.95540589869,0.0151882840273
2021/03/16/15:43:57.402126,193723,1615905837,402450085,mocap,-2.81738330078,9.15866015625,1.92156872559,0.171119436597,0.237840515579,0.955964494295,0.0167904982042
2021/03/16/15:43:57.410117,193724,1615905837,412450075,mocap,-2.81827612305,9.14997558594,1.92115368652,0.171432148052,0.237783996745,0.95590059872,0.0179958756984
2021/03/16/15:43:57.421227,193725,1615905837,422450066,mocap,-2.81930566406,9.14153515625,1.92097351074,0.169499221466,0.237657920502,0.956240697267,0.0198106320496
2021/03/16/15:43:57.430118,193726,1615905837,432450056,mocap,-2.82021850586,9.13292773438,1.92033959961,0.1699209847,0.238522708721,0.955922936936,0.0210977614891
2021/03/16/15:43:57.442016,193727,1615905837,442450047,mocap,-2.8211394043,9.12437207031,1.91957739258,0.167331362179,0.23940643794,0.95611187118,0.0231273512493
2021/03/16/15:43:57.450111,193728,1615905837,452450037,mocap,-2.82216308594,9.11584082031,1.91900292969,0.165669214142,0.239390225732,0.956364605774,0.0247543171805
2021/03/16/15:43:57.462184,193729,1615905837,462450027,mocap,-2.82310668945,9.1073203125,1.91822131348,0.167337013198,0.240189335087,0.95586368418,0.0251402226258
2021/03/16/15:43:57.470291,193730,1615905837,472450256,mocap,-2.8241315918,9.09870800781,1.9173125,0.166588756096,0.241148881255,0.955709330728,0.0267409569045
2021/03/16/15:43:57.480058,193731,1615905837,482450247,mocap,-2.82512890625,9.09016503906,1.91655249023,0.164723458172,0.241513236386,0.955905750741,0.0279595657397
2021/03/16/15:43:57.491749,193732,1615905837,492450237,mocap,-2.82612207031,9.08126855469,1.91519030762,0.162719884137,0.243458158539,0.955682239714,0.0303616143804
2021/03/16/15:43:57.500227,193733,1615905837,502450228,mocap,-2.82701611328,9.0726328125,1.91388793945,0.163227756214,0.244703465539,0.955259450226,0.0309241726574
2021/03/16/15:43:57.511923,193734,1615905837,512450218,mocap,-2.82815649414,9.06395019531,1.91285986328,0.163541397151,0.245114182334,0.955089256986,0.0312690781128
2021/03/16/15:43:57.520249,193735,1615905837,522450209,mocap,-2.82906738281,9.05491503906,1.91147351074,0.160699401611,0.246096665818,0.955247641656,0.0333776519789
2021/03/16/15:43:57.532596,193736,1615905837,532450199,mocap,-2.8301340332,9.04592480469,1.90988623047,0.161157100938,0.247331503833,0.954833859527,0.0338793232914
2021/03/16/15:43:57.540271,193737,1615905837,542450190,mocap,-2.83115551758,9.03725097656,1.90867407227,0.159515121756,0.247403194373,0.955071782752,0.0344162446808
2021/03/16/15:43:57.551793,193738,1615905837,552450180,mocap,-2.83219165039,9.02793945313,1.90691674805,0.160438400038,0.248405632005,0.954643532885,0.0347833397328
2021/03/16/15:43:57.560417,193739,1615905837,562450171,mocap,-2.83329980469,9.01895507812,1.90554785156,0.158328292643,0.24868018958,0.954891303577,0.0356778958713
2021/03/16/15:43:57.571590,193740,1615905837,572450161,mocap,-2.83439575195,9.00985449219,1.90414880371,0.159087728911,0.248698356902,0.954778768669,0.0351814715946
2021/03/16/15:43:57.580109,193741,1615905837,582450151,mocap,-2.83544506836,9.00066503906,1.90252050781,0.157393706141,0.249409856453,0.954853468296,0.0357323984788
2021/03/16/15:43:57.591742,193742,1615905837,592450142,mocap,-2.83643041992,8.99127539063,1.90081445312,0.158127059135,0.249987757794,0.954587712981,0.0355563140334
2021/03/16/15:43:57.600205,193743,1615905837,602450132,mocap,-2.8376628418,8.98219433594,1.89969519043,0.15918305141,0.250102138357,0.954437399787,0.0340430260664
2021/03/16/15:43:57.611445,193744,1615905837,612450123,mocap,-2.83870629883,8.97269921875,1.89852856445,0.15882047804,0.250054656467,0.95450403945,0.0342164394911
2021/03/16/15:43:57.620361,193745,1615905837,622450113,mocap,-2.83985961914,8.96327734375,1.89754858398,0.156815932983,0.250310616902,0.954782600161,0.0338162839482
2021/03/16/15:43:57.630583,193746,1615905837,632450104,mocap,-2.84094677734,8.95392480469,1.89679931641,0.157537637186,0.24987457862,0.954828452024,0.0323608296351
2021/03/16/15:43:57.640120,193747,1615905837,642450094,mocap,-2.84210473633,8.94433496094,1.89616369629,0.157917123579,0.24966062456,0.954868270192,0.0309569996921
2021/03/16/15:43:57.651397,193748,1615905837,652450085,mocap,-2.84320068359,8.93480175781,1.89563500977,0.159137463224,0.249489743783,0.954754733701,0.0295558735832
2021/03/16/15:43:57.660242,193749,1615905837,662450075,mocap,-2.84427026367,8.92510449219,1.89502893066,0.159440810362,0.249814082622,0.95465662886,0.0283243953564
2021/03/16/15:43:57.671319,193750,1615905837,672450066,mocap,-2.84531542969,8.91551660156,1.89478491211,0.160755110413,0.249979114908,0.954444511258,0.0265312162482
2021/03/16/15:43:57.680324,193751,1615905837,682450056,mocap,-2.84652124023,8.90589550781,1.89470043945,0.160775442986,0.249919966546,0.95448544607,0.0254716197749
2021/03/16/15:43:57.691543,193752,1615905837,692450047,mocap,-2.84763891602,8.89632324219,1.89517260742,0.160278081907,0.249809567409,0.954642955346,0.0237265866534
2021/03/16/15:43:57.700119,193753,1615905837,702450037,mocap,-2.84887329102,8.88665039063,1.8958248291,0.16224952827,0.250439671041,0.954184740359,0.022057933448
2021/03/16/15:43:57.710693,193754,1615905837,712450027,mocap,-2.85013330078,8.87707324219,1.8971217041,0.16109021436,0.250028456166,0.954520087852,0.0206669223999
2021/03/16/15:43:57.719903,193755,1615905837,722450256,mocap,-2.85140551758,8.86725488281,1.89817993164,0.162648635745,0.250253388318,0.954238834872,0.0186253079334
2021/03/16/15:43:57.731354,193756,1615905837,732450247,mocap,-2.85259912109,8.85750585937,1.89958996582,0.16295962279,0.249844990176,0.954325342242,0.0168759698524
2021/03/16/15:43:57.740179,193757,1615905837,742450237,mocap,-2.85387231445,8.84779882813,1.90117199707,0.162754398073,0.249645472116,0.954443847731,0.0150030549865
2021/03/16/15:43:57.751317,193758,1615905837,752450228,mocap,-2.85515869141,8.83820019531,1.90299194336,0.163658445801,0.249255665135,0.95441869582,0.0131323883387
2021/03/16/15:43:57.760015,193759,1615905837,762450218,mocap,-2.85637426758,8.82864355469,1.90485461426,0.163722193696,0.249308429649,0.954417735631,0.0112754457858
2021/03/16/15:43:57.772215,193760,1615905837,772450209,mocap,-2.85761767578,8.81912792969,1.90682336426,0.164245467074,0.24931205376,0.954350816699,0.00902448704396
2021/03/16/15:43:57.780194,193761,1615905837,782450199,mocap,-2.85881469727,8.80955664063,1.90857177734,0.164400624853,0.248817601879,0.954467320689,0.00737422166405
2021/03/16/15:43:57.791966,193762,1615905837,792450190,mocap,-2.86002246094,8.80009375,1.9103963623,0.164610329291,0.248110035707,0.954629562605,0.00522023210121
2021/03/16/15:43:57.800337,193763,1615905837,802450180,mocap,-2.86114404297,8.79065039063,1.91201965332,0.164774028032,0.247170019227,0.954853819424,0.00327036342236
2021/03/16/15:43:57.812093,193764,1615905837,812450171,mocap,-2.86230834961,8.78131835937,1.91343896484,0.164958426515,0.24643453604,0.955016635405,0.00140417398276
2021/03/16/15:43:57.820751,193765,1615905837,822450161,mocap,-2.86340454102,8.77201464844,1.91474536133,0.165415450363,0.245306563773,0.955228898955,-0.000419339872433
2021/03/16/15:43:57.830567,193766,1615905837,832450151,mocap,-2.86454785156,8.76284472656,1.91581506348,0.164319605185,0.244871848023,0.955527513869,-0.00200707637479
2021/03/16/15:43:57.842038,193767,1615905837,842450142,mocap,-2.86561303711,8.75378125,1.91669262695,0.163934549326,0.245083515531,0.955536418399,-0.00311310508342
2021/03/16/15:43:57.850104,193768,1615905837,852450132,mocap,-2.86675732422,8.74485839844,1.91763330078,0.162660166328,0.245118460763,0.955741051575,-0.00420194267673
2021/03/16/15:43:57.861937,193769,1615905837,862450123,mocap,-2.86781347656,8.73595019531,1.91837475586,0.161980020481,0.245463063689,0.955764157472,-0.00502207686702
2021/03/16/15:43:57.870335,193770,1615905837,872450113,mocap,-2.86882666016,8.72721386719,1.91919506836,0.160529495335,0.246167837778,0.955821155864,-0.0061319949451
2021/03/16/15:43:57.881716,193771,1615905837,882450104,mocap,-2.86982714844,8.71849902344,1.91993322754,0.159914758426,0.246720412451,0.955778220301,-0.00665624337503
2021/03/16/15:43:57.890401,193772,1615905837,892450094,mocap,-2.87072631836,8.70982519531,1.92069921875,0.158760900754,0.24741183113,0.955783645816,-0.00774430869846
2021/03/16/15:43:57.901846,193773,1615905837,902450085,mocap,-2.87148339844,8.70114648438,1.92138842773,0.156764968839,0.248509628008,0.955824725946,-0.00817343814131
2021/03/16/15:43:57.910214,193774,1615905837,912450075,mocap,-2.87226147461,8.69242480469,1.92207116699,0.156226892382,0.248685811022,0.955855156843,-0.00945728638151
2021/03/16/15:43:57.921770,193775,1615905837,922450066,mocap,-2.87288769531,8.68375878906,1.92287512207,0.155223430076,0.249248806234,0.955861727732,-0.0104439824818
2021/03/16/15:43:57.930267,193776,1615905837,932450056,mocap,-2.87343774414,8.67509667969,1.92361669922,0.154424554078,0.249319712522,0.955966505089,-0.0109899076485
2021/03/16/15:43:57.941699,193777,1615905837,942450047,mocap,-2.87391186523,8.66634082031,1.92433605957,0.15434015511,0.24896960855,0.956050985795,-0.0126396635468
2021/03/16/15:43:57.950158,193778,1615905837,952450037,mocap,-2.87426245117,8.65769335937,1.92512866211,0.153866530091,0.249167905499,0.956061981766,-0.013635830399
2021/03/16/15:43:57.961640,193779,1615905837,962450027,mocap,-2.87454101563,8.64904296875,1.92588757324,0.153470516536,0.248613185986,0.956256833395,-0.014531086844
2021/03/16/15:43:57.970493,193780,1615905837,972450256,mocap,-2.87476220703,8.64033203125,1.92656799316,0.153205551817,0.247926943348,0.956459738911,-0.0156543472583
2021/03/16/15:43:57.981633,193781,1615905837,982450247,mocap,-2.87495019531,8.63174609375,1.92732067871,0.153005965232,0.247171967698,0.956666043724,-0.0168895799612
2021/03/16/15:43:57.990351,193782,1615905837,992450237,mocap,-2.87502856445,8.62308105469,1.92792578125,0.153419916792,0.246422182615,0.956771036701,-0.0181000886637
2021/03/16/15:43:58.001780,193783,1615905838,2450228,mocap,-2.87503198242,8.61446777344,1.92848657227,0.15305473896,0.245416317512,0.957068882416,-0.0190850392374
2021/03/16/15:43:58.010229,193784,1615905838,12450218,mocap,-2.87491772461,8.60585449219,1.92901184082,0.153101448054,0.244269807036,0.957333808873,-0.0201041676625
2021/03/16/15:43:58.019798,193785,1615905838,22450209,mocap,-2.87474804688,8.59725390625,1.92942407227,0.153050509587,0.243244633799,0.957584812676,-0.0209502818636
2021/03/16/15:43:58.030535,193786,1615905838,32450199,mocap,-2.87454394531,8.58872363281,1.92982312012,0.153403212951,0.24222217972,0.957765577763,-0.0219308590312
2021/03/16/15:43:58.040472,193787,1615905838,42450190,mocap,-2.87427075195,8.58024316406,1.93012768555,0.154052243538,0.241237414188,0.957873172612,-0.0234819578963
2021/03/16/15:43:58.051684,193788,1615905838,52450180,mocap,-2.87392700195,8.57176855469,1.9302833252,0.154517543095,0.240453534,0.957960565084,-0.0248592997426
2021/03/16/15:43:58.060038,193789,1615905838,62450171,mocap,-2.87351342773,8.56328515625,1.93022253418,0.154589236322,0.239634807367,0.958126842325,-0.0258898731014
2021/03/16/15:43:58.070537,193790,1615905838,72450161,mocap,-2.87303320312,8.55497070313,1.93023266602,0.155196235111,0.239260854038,0.958084663318,-0.027242203157
