time,.header.seq,.header.stamp.secs,.header.stamp.nsecs,.header.frame_id,.pose.position.x,.pose.position.y,.pose.position.z,.pose.orientation.x,.pose.orientation.y,.pose.orientation.z,.pose.orientation.w
2021/03/16/15:20:28.421853,75289,1615904428,422450066,mocap,-2.81113427734,10.3867685547,1.93387060547,0.135415470011,0.259349993571,0.953841651335,-0.0677223672039
2021/03/16/15:20:28.430501,75290,1615904428,432450056,mocap,-2.81111083984,10.3865966797,1.93383569336,0.135556937133,0.259259317265,0.953848853169,-0.0676851887629
2021/03/16/15:20:28.442079,75291,1615904428,442450047,mocap,-2.81108764648,10.3864130859,1.93372814941,0.134966491239,0.258400891626,0.954161049619,-0.0677474115764
2021/03/16/15:20:28.450762,75292,1615904428,452450037,mocap,-2.81111962891,10.3863427734,1.93387414551,0.135664245891,0.258863686,0.953941417674,-0.067680073734
2021/03/16/15:20:28.460649,75293,1615904428,462450027,mocap,-2.81112329102,10.3861533203,1.93377062988,0.135081927097,0.257995793833,0.95425923664,-0.0676783870746
2021/03/16/15:20:28.470833,75294,1615904428,472450256,mocap,-2.81114233398,10.3859882813,1.93374938965,0.134999016308,0.257964645488,0.954290037564,-0.0675280610087
2021/03/16/15:20:28.481514,75295,1615904428,482450247,mocap,-2.8111809082,10.385859375,1.93376940918,0.134745202149,0.257733543364,0.954390295689,-0.067500463089
2021/03/16/15:20:28.490555,75296,1615904428,492450237,mocap,-2.81124584961,10.3857294922,1.93377246094,0.134711574562,0.257731366923,0.954397516803,-0.0674738364328
2021/03/16/15:20:28.500969,75297,1615904428,502450228,mocap,-2.81131494141,10.3856083984,1.93378540039,0.13479270132,0.257533910627,0.954432278871,-0.067574013168
2021/03/16/15:20:28.511769,75298,1615904428,512450218,mocap,-2.81136938477,10.3854570313,1.93375378418,0.134814602805,0.257521070794,0.954438406793,-0.0674925417013
2021/03/16/15:20:28.520717,75299,1615904428,522450209,mocap,-2.81143652344,10.3853173828,1.93373828125,0.134648801303,0.257358819586,0.95450730223,-0.0674681744865
2021/03/16/15:20:28.532682,75300,1615904428,532450199,mocap,-2.81151220703,10.3852080078,1.93376623535,0.134529473979,0.257234728524,0.954562088741,-0.0674043238456
2021/03/16/15:20:28.540556,75301,1615904428,542450190,mocap,-2.81155737305,10.3850625,1.93375805664,0.134835009859,0.257150175393,0.954535979876,-0.067486160671
2021/03/16/15:20:28.552640,75302,1615904428,552450180,mocap,-2.81162915039,10.3849238281,1.93376501465,0.134612715052,0.257024560543,0.954604165831,-0.0674439440797
2021/03/16/15:20:28.560518,75303,1615904428,562450171,mocap,-2.81167871094,10.3847636719,1.93376391602,0.134388973694,0.256865225477,0.954687260879,-0.0673208965265
2021/03/16/15:20:28.572965,75304,1615904428,572450161,mocap,-2.81172705078,10.3846308594,1.93380151367,0.134326475094,0.256699138816,0.954748319071,-0.0672130535161
2021/03/16/15:20:28.580432,75305,1615904428,582450151,mocap,-2.81179077148,10.3845332031,1.93389624023,0.13515727317,0.25736182588,0.954446127139,-0.0673051811353
2021/03/16/15:20:28.591638,75306,1615904428,592450142,mocap,-2.81182470703,10.3843769531,1.93390759277,0.134813616826,0.257066530414,0.95459015595,-0.0670801065286
2021/03/16/15:20:28.601463,75307,1615904428,602450132,mocap,-2.81184204102,10.3842197266,1.93387121582,0.134959143599,0.256903398622,0.95461216581,-0.0670991080593
2021/03/16/15:20:28.611465,75308,1615904428,612450123,mocap,-2.81185864258,10.3841103516,1.93391223145,0.13487828677,0.256624239955,0.954700816697,-0.0670686934908
2021/03/16/15:20:28.622585,75309,1615904428,622450113,mocap,-2.81186621094,10.3839824219,1.93392358398,0.134723609091,0.256401706439,0.954785432803,-0.0670260346148
2021/03/16/15:20:28.630786,75310,1615904428,632450104,mocap,-2.81187915039,10.3838486328,1.93391894531,0.134945356329,0.256211522061,0.954802646966,-0.0670620380331
2021/03/16/15:20:28.640853,75311,1615904428,642450094,mocap,-2.81190234375,10.3837246094,1.93391577148,0.134919072514,0.256133544901,0.954839469876,-0.0668881923055
2021/03/16/15:20:28.652569,75312,1615904428,652450085,mocap,-2.81188793945,10.3836132812,1.93392468262,0.135260427328,0.255949742702,0.954830254528,-0.0670338203347
2021/03/16/15:20:28.660881,75313,1615904428,662450075,mocap,-2.81190356445,10.3835058594,1.93391906738,0.134853642382,0.255761920602,0.954960509627,-0.0667139505879
2021/03/16/15:20:28.670788,75314,1615904428,672450066,mocap,-2.81189575195,10.3833886719,1.93386828613,0.135146537114,0.25569277371,0.954930955278,-0.066809349378
2021/03/16/15:20:28.681400,75315,1615904428,682450056,mocap,-2.81190332031,10.3832978516,1.93388391113,0.135262000665,0.255509924492,0.954964621261,-0.0667940575065
2021/03/16/15:20:28.692139,75316,1615904428,692450047,mocap,-2.81191967773,10.38321875,1.93388098145,0.135097592068,0.255485480883,0.955000345694,-0.0667094425989
2021/03/16/15:20:28.700701,75317,1615904428,702450037,mocap,-2.81193432617,10.3831162109,1.93388024902,0.135055215824,0.255360886116,0.955043331831,-0.0666569232239
2021/03/16/15:20:28.712189,75318,1615904428,712450027,mocap,-2.81194116211,10.3830195312,1.93386999512,0.135170770613,0.255308119045,0.955037199989,-0.0667125126004
2021/03/16/15:20:28.720476,75319,1615904428,722450256,mocap,-2.81193530273,10.3829267578,1.93384606934,0.135015203914,0.255167720982,0.955101543366,-0.0666437258505
2021/03/16/15:20:28.731227,75320,1615904428,732450247,mocap,-2.81192089844,10.3828466797,1.93383874512,0.134958548772,0.255064833374,0.955135203335,-0.066669755659
2021/03/16/15:20:28.740762,75321,1615904428,742450237,mocap,-2.81195214844,10.3827597656,1.93384570313,0.135164591325,0.255035460763,0.955112721883,-0.0666868981233
2021/03/16/15:20:28.750999,75322,1615904428,752450228,mocap,-2.81192724609,10.3826601562,1.93381469727,0.135257816879,0.255045690217,0.955089896662,-0.0667855772247
2021/03/16/15:20:28.762364,75323,1615904428,762450218,mocap,-2.811921875,10.382609375,1.93381665039,0.135256303015,0.255015355053,0.955094444588,-0.0668393339582
2021/03/16/15:20:28.770595,75324,1615904428,772450209,mocap,-2.81190820312,10.3825185547,1.93379968262,0.135362023259,0.254952533359,0.955098774069,-0.0668032221554
2021/03/16/15:20:28.782194,75325,1615904428,782450199,mocap,-2.81189331055,10.3824609375,1.93380407715,0.135327427076,0.25485655006,0.95512737155,-0.0668305864382
2021/03/16/15:20:28.790693,75326,1615904428,792450190,mocap,-2.81188916016,10.3823964844,1.93379272461,0.135358204321,0.254869207371,0.955112620474,-0.0669308234662
2021/03/16/15:20:28.802021,75327,1615904428,802450180,mocap,-2.81185327148,10.3823486328,1.93377966309,0.135541239931,0.255037923067,0.955043612678,-0.0669023792906
2021/03/16/15:20:28.810559,75328,1615904428,812450171,mocap,-2.81182495117,10.3822744141,1.93377258301,0.135587088858,0.254982068362,0.95504690482,-0.0669752612166
2021/03/16/15:20:28.821930,75329,1615904428,822450161,mocap,-2.81180566406,10.3822246094,1.93378320312,0.135689538895,0.25507882875,0.955010885668,-0.0669129815932
2021/03/16/15:20:28.830778,75330,1615904428,832450151,mocap,-2.81178564453,10.3821796875,1.93377685547,0.135618478452,0.255082422536,0.955020856018,-0.0669011054493
2021/03/16/15:20:28.841819,75331,1615904428,842450142,mocap,-2.81173706055,10.3821152344,1.933734375,0.13601821829,0.255108133118,0.954956031281,-0.0669168476257
2021/03/16/15:20:28.850524,75332,1615904428,852450132,mocap,-2.81170800781,10.3820634766,1.9337310791,0.136022535526,0.255233415611,0.95491969661,-0.0669488133996
2021/03/16/15:20:28.861918,75333,1615904428,862450123,mocap,-2.8116875,10.3819951172,1.93371142578,0.136089538153,0.255273276006,0.954899301151,-0.066951629258
2021/03/16/15:20:28.870798,75334,1615904428,872450113,mocap,-2.81166625977,10.3819238281,1.93367907715,0.136162520935,0.255276901966,0.954893238606,-0.0668758782544
2021/03/16/15:20:28.880843,75335,1615904428,882450104,mocap,-2.81166943359,10.3818310547,1.93368273926,0.136338191818,0.255262348105,0.954860935596,-0.0670345027553
2021/03/16/15:20:28.891763,75336,1615904428,892450094,mocap,-2.81164697266,10.3817128906,1.9336673584,0.136427049847,0.255383492843,0.954818229965,-0.0670005560277
2021/03/16/15:20:28.900516,75337,1615904428,902450085,mocap,-2.81165429688,10.3816083984,1.93369458008,0.136425524697,0.255377581898,0.954826501258,-0.0669083256129
2021/03/16/15:20:28.911690,75338,1615904428,912450075,mocap,-2.81169018555,10.3815117187,1.93371691895,0.136595398831,0.255299453606,0.954820329007,-0.066947982478
2021/03/16/15:20:28.920652,75339,1615904428,922450066,mocap,-2.81169360352,10.3813535156,1.93370166016,0.136577177984,0.255243174897,0.95484188099,-0.0668922721078
2021/03/16/15:20:28.932758,75340,1615904428,932450056,mocap,-2.81174121094,10.3811777344,1.93370349121,0.136520396825,0.255258524658,0.954853171788,-0.0667883878631
2021/03/16/15:20:28.940764,75341,1615904428,942450047,mocap,-2.81179077148,10.3810126953,1.93368774414,0.136609684152,0.255162722015,0.954861957762,-0.0668463410117
2021/03/16/15:20:28.952540,75342,1615904428,952450037,mocap,-2.81189697266,10.3808486328,1.9337019043,0.136572921634,0.255142803714,0.954883149885,-0.0666945479881
2021/03/16/15:20:28.960536,75343,1615904428,962450027,mocap,-2.81195336914,10.380640625,1.93367785645,0.136653331526,0.255107872139,0.954882767557,-0.0666688884904
2021/03/16/15:20:28.972617,75344,1615904428,972450256,mocap,-2.8120534668,10.3804501953,1.9336998291,0.136602455971,0.255148853455,0.954892630009,-0.0664747897656
2021/03/16/15:20:28.980592,75345,1615904428,982450247,mocap,-2.81215039062,10.3802382812,1.93370361328,0.136736084836,0.255180445562,0.954865039856,-0.0664750924109
2021/03/16/15:20:28.992479,75346,1615904428,992450237,mocap,-2.81226928711,10.3800107422,1.93373278809,0.136740471829,0.255153963191,0.954874208052,-0.0664360737307
2021/03/16/15:20:29.000799,75347,1615904429,2450228,mocap,-2.8124230957,10.3797871094,1.93381640625,0.136315162361,0.256038723314,0.954734100603,-0.0659177401578
2021/03/16/15:20:29.011300,75348,1615904429,12450218,mocap,-2.8125390625,10.3794638672,1.93369946289,0.136876774836,0.255293715505,0.954842052655,-0.0660796193857
2021/03/16/15:20:29.020411,75349,1615904429,22450209,mocap,-2.81268383789,10.3791855469,1.93371362305,0.136960127935,0.255161654145,0.954867443102,-0.0660500747914
2021/03/16/15:20:29.032380,75350,1615904429,32450199,mocap,-2.81284326172,10.3788583984,1.93369177246,0.137010243322,0.255050409131,0.954899347965,-0.0659144884923
2021/03/16/15:20:29.040858,75351,1615904429,42450190,mocap,-2.81302514648,10.3785449219,1.93368847656,0.137174212044,0.255188093399,0.954839196772,-0.0659119439532
2021/03/16/15:20:29.051526,75352,1615904429,52450180,mocap,-2.81320703125,10.3782255859,1.9337154541,0.137426252947,0.255289049999,0.954773290622,-0.0659506165147
2021/03/16/15:20:29.061453,75353,1615904429,62450171,mocap,-2.81341918945,10.3778876953,1.93372436523,0.137482649689,0.255554211516,0.954712101359,-0.065691515706
2021/03/16/15:20:29.071353,75354,1615904429,72450161,mocap,-2.81374365234,10.3776318359,1.93404125977,0.13622269294,0.256545592985,0.954707340902,-0.064510680322
2021/03/16/15:20:29.080621,75355,1615904429,82450151,mocap,-2.81397705078,10.377234375,1.93402661133,0.136384313077,0.256507048768,0.954708909514,-0.0642989016185
2021/03/16/15:20:29.092265,75356,1615904429,92450142,mocap,-2.81412744141,10.3766953125,1.93379003906,0.137611178372,0.25581700134,0.954680830188,-0.0648486189127
2021/03/16/15:20:29.101119,75357,1615904429,102450132,mocap,-2.81451489258,10.3763505859,1.93404125977,0.136377516742,0.25651391641,0.954742747205,-0.0637814967438
2021/03/16/15:20:29.112490,75358,1615904429,112450123,mocap,-2.81484790039,10.3758759766,1.93406640625,0.136364576848,0.256606930239,0.954737401616,-0.0635143698021
2021/03/16/15:20:29.120613,75359,1615904429,122450113,mocap,-2.81518188477,10.3753808594,1.93404321289,0.136428483043,0.256605666237,0.954743730478,-0.0632867094512
2021/03/16/15:20:29.132297,75360,1615904429,132450104,mocap,-2.81548754883,10.3748759766,1.9339798584,0.136619713032,0.25652105512,0.954752135079,-0.0630900799944
2021/03/16/15:20:29.140568,75361,1615904429,142450094,mocap,-2.81583300781,10.3743798828,1.93400390625,0.136820421916,0.25654342946,0.954727560973,-0.062935819414
2021/03/16/15:20:29.152045,75362,1615904429,152450085,mocap,-2.81619189453,10.3738916016,1.93410656738,0.135896868191,0.257211050859,0.95471774364,-0.0623582271699
2021/03/16/15:20:29.160576,75363,1615904429,162450075,mocap,-2.81652783203,10.3732685547,1.93389233398,0.137072246441,0.256376856454,0.954746360338,-0.0627812593676
2021/03/16/15:20:29.172213,75364,1615904429,172450066,mocap,-2.81692993164,10.3727060547,1.93386157227,0.137216782281,0.256258934816,0.95476615819,-0.0626457888884
2021/03/16/15:20:29.180617,75365,1615904429,182450056,mocap,-2.8173425293,10.3721484375,1.93383935547,0.137250738052,0.256252825781,0.954781476467,-0.0623623441328
2021/03/16/15:20:29.192043,75366,1615904429,192450047,mocap,-2.81778417969,10.3715439453,1.93377246094,0.13704308453,0.255960116537,0.954900159423,-0.0622037539047
2021/03/16/15:20:29.200866,75367,1615904429,202450037,mocap,-2.81827514648,10.3709082031,1.93372497559,0.137214182003,0.255700816709,0.954939030541,-0.0622961955398
2021/03/16/15:20:29.210793,75368,1615904429,212450027,mocap,-2.81872387695,10.3702509766,1.93365771484,0.137220251679,0.255534096601,0.954988931809,-0.0622018579086
2021/03/16/15:20:29.222024,75369,1615904429,222450256,mocap,-2.81917797852,10.3695966797,1.93358288574,0.137286878949,0.255331348125,0.955023906394,-0.0623502212843
2021/03/16/15:20:29.230780,75370,1615904429,232450247,mocap,-2.81965698242,10.3689462891,1.93356298828,0.137682486761,0.255073049699,0.955038627635,-0.0623096069663
2021/03/16/15:20:29.242147,75371,1615904429,242450237,mocap,-2.82011669922,10.3682919922,1.93351098633,0.138101901252,0.254849640831,0.955034804971,-0.0623541428009
2021/03/16/15:20:29.250767,75372,1615904429,252450228,mocap,-2.82065966797,10.3675859375,1.93344348145,0.137755385711,0.254615895661,0.955152996226,-0.0622651517095
2021/03/16/15:20:29.261806,75373,1615904429,262450218,mocap,-2.82117626953,10.3668779297,1.93336499023,0.138184178731,0.254377266603,0.955145172387,-0.0624102453879
2021/03/16/15:20:29.270785,75374,1615904429,272450209,mocap,-2.82166064453,10.3661855469,1.93326745605,0.137986685799,0.254224882092,0.955213642452,-0.062420233807
2021/03/16/15:20:29.281865,75375,1615904429,282450199,mocap,-2.82220385742,10.3654707031,1.93316845703,0.138450122537,0.253982299775,0.955210405484,-0.0624309966977
2021/03/16/15:20:29.290971,75376,1615904429,292450190,mocap,-2.82272900391,10.3647421875,1.93306347656,0.138759992236,0.253867370751,0.955194017677,-0.0624613326857
2021/03/16/15:20:29.302687,75377,1615904429,302450180,mocap,-2.82330029297,10.3639960937,1.93294067383,0.138813929682,0.253805810242,0.955208939095,-0.0623633675353
2021/03/16/15:20:29.310869,75378,1615904429,312450171,mocap,-2.82390258789,10.3632060547,1.9328079834,0.139162270091,0.25343799156,0.955235825139,-0.0626702689845
2021/03/16/15:20:29.320922,75379,1615904429,322450161,mocap,-2.82444750977,10.3624462891,1.93272521973,0.139488804035,0.253455750455,0.955159135125,-0.0630403418253
2021/03/16/15:20:29.331837,75380,1615904429,332450151,mocap,-2.82501904297,10.3616220703,1.93257580566,0.139559177919,0.253226885109,0.955203986115,-0.0631246822086
2021/03/16/15:20:29.340722,75381,1615904429,342450142,mocap,-2.82562280273,10.3607832031,1.93240185547,0.139904934732,0.253082091515,0.955172200631,-0.0634202388998
2021/03/16/15:20:29.351710,75382,1615904429,352450132,mocap,-2.82622290039,10.3598955078,1.93220031738,0.139649073436,0.252812422865,0.955264909886,-0.063662908167
2021/03/16/15:20:29.360368,75383,1615904429,362450123,mocap,-2.82687963867,10.3590009766,1.93194812012,0.139969160708,0.252627569856,0.955240450367,-0.0640595361097
2021/03/16/15:20:29.372690,75384,1615904429,372450113,mocap,-2.82743774414,10.3580507813,1.93170935059,0.140213555252,0.252550166591,0.955193775874,-0.0645246090205
2021/03/16/15:20:29.380566,75385,1615904429,382450104,mocap,-2.82803100586,10.35709375,1.93151000977,0.140552828933,0.25257792701,0.955095458702,-0.0651303398578
2021/03/16/15:20:29.391874,75386,1615904429,392450094,mocap,-2.82861450195,10.3561181641,1.9313269043,0.140300418036,0.25306780184,0.954997201623,-0.065213776296
2021/03/16/15:20:29.400807,75387,1615904429,402450085,mocap,-2.82916455078,10.3550390625,1.93084606934,0.141366026624,0.252279306821,0.954983361346,-0.0661633528898
2021/03/16/15:20:29.411540,75388,1615904429,412450075,mocap,-2.82971679688,10.3539267578,1.93049084473,0.141632549267,0.252241674466,0.954923800617,-0.066594991794
2021/03/16/15:20:29.421392,75389,1615904429,422450066,mocap,-2.83022070313,10.352828125,1.93001538086,0.141603107263,0.251963046183,0.954957396633,-0.0672275749787
2021/03/16/15:20:29.430789,75390,1615904429,432450056,mocap,-2.83068457031,10.3516816406,1.92944116211,0.141958359603,0.251871725444,0.954886544014,-0.0678243686332
2021/03/16/15:20:29.441406,75391,1615904429,442450047,mocap,-2.83119360352,10.3504775391,1.92892504883,0.142719296116,0.252216145157,0.954631646453,-0.0685320187532
2021/03/16/15:20:29.451487,75392,1615904429,452450037,mocap,-2.83169384766,10.3492578125,1.92829272461,0.143156596537,0.252493974796,0.95444341839,-0.06921514254
2021/03/16/15:20:29.462331,75393,1615904429,462450027,mocap,-2.83217871094,10.3479892578,1.92768774414,0.143250675915,0.252883938571,0.954293347921,-0.0696646067649
2021/03/16/15:20:29.470834,75394,1615904429,472450256,mocap,-2.83267407227,10.3466992188,1.92714453125,0.143568537355,0.25339803331,0.954051427393,-0.0704513455591
2021/03/16/15:20:29.482180,75395,1615904429,482450247,mocap,-2.83307446289,10.3453017578,1.92648620605,0.14374849034,0.25402510108,0.953795275532,-0.0712894834007
2021/03/16/15:20:29.490601,75396,1615904429,492450237,mocap,-2.83352001953,10.3438544922,1.92585839844,0.144123246323,0.254953729189,0.953438504049,-0.0719869035141
2021/03/16/15:20:29.502206,75397,1615904429,502450228,mocap,-2.83397998047,10.342375,1.92545349121,0.143665600627,0.256289173885,0.953118558768,-0.0723951964116
2021/03/16/15:20:29.510673,75398,1615904429,512450218,mocap,-2.8342434082,10.3406513672,1.92451696777,0.145550337438,0.255016687115,0.953002757691,-0.0746146280925
2021/03/16/15:20:29.522258,75399,1615904429,522450209,mocap,-2.83469848633,10.3389873047,1.92410986328,0.145848804172,0.256124525735,0.952611894543,-0.0752258194497
2021/03/16/15:20:29.530724,75400,1615904429,532450199,mocap,-2.83502685547,10.3371669922,1.92351843262,0.145176733411,0.256516287725,0.952549166349,-0.0759815125353
2021/03/16/15:20:29.542197,75401,1615904429,542450190,mocap,-2.83539990234,10.33528125,1.92316394043,0.145708679237,0.257286858081,0.952170895043,-0.0770911183043
2021/03/16/15:20:29.550708,75402,1615904429,552450180,mocap,-2.83573632812,10.333265625,1.92281628418,0.145258931207,0.257621859629,0.952098778628,-0.0777092131767
2021/03/16/15:20:29.561107,75403,1615904429,562450171,mocap,-2.83597241211,10.3310820313,1.92241564941,0.144569977478,0.257308643916,0.952197413041,-0.0788154008598
2021/03/16/15:20:29.570962,75404,1615904429,572450161,mocap,-2.83626098633,10.3288779297,1.92233154297,0.144653175829,0.25798841441,0.951936692388,-0.0795862077439
2021/03/16/15:20:29.582094,75405,1615904429,582450151,mocap,-2.8364543457,10.3264589844,1.92210021973,0.143792827509,0.257680904985,0.952077054991,-0.0804577507564
2021/03/16/15:20:29.590905,75406,1615904429,592450142,mocap,-2.83665576172,10.3240068359,1.92203515625,0.143297518235,0.257663790926,0.952087838616,-0.0812646187906
2021/03/16/15:20:29.600893,75407,1615904429,602450132,mocap,-2.83682836914,10.3214052734,1.92194030762,0.143270362493,0.257636713196,0.952024974154,-0.0821302461112
2021/03/16/15:20:29.610925,75408,1615904429,612450123,mocap,-2.8369152832,10.3187158203,1.9218684082,0.142833539483,0.256887628095,0.952210393993,-0.083082462131
2021/03/16/15:20:29.620503,75409,1615904429,622450113,mocap,-2.83699804687,10.3158916016,1.92178930664,0.143190618728,0.256739323313,0.952109139438,-0.0840806245693
2021/03/16/15:20:29.630874,75410,1615904429,632450104,mocap,-2.83702587891,10.3130351563,1.92175744629,0.143354080775,0.256069792347,0.952155120044,-0.0853141215821
2021/03/16/15:20:29.641994,75411,1615904429,642450094,mocap,-2.83699316406,10.3100361328,1.92155456543,0.143107791893,0.255452680244,0.952268708287,-0.0863040637605
2021/03/16/15:20:29.650469,75412,1615904429,652450085,mocap,-2.83690722656,10.3069824219,1.92129248047,0.14334010709,0.255062668921,0.952255063078,-0.0872178107799
2021/03/16/15:20:29.660901,75413,1615904429,662450075,mocap,-2.83679785156,10.3039306641,1.92114794922,0.142874729252,0.255851660412,0.952060198485,-0.0877959523405
2021/03/16/15:20:29.672045,75414,1615904429,672450066,mocap,-2.83659692383,10.3006582031,1.92056079102,0.143709980893,0.254936876544,0.952038254843,-0.0893185024448
2021/03/16/15:20:29.680493,75415,1615904429,682450056,mocap,-2.83640161133,10.2974140625,1.92019311523,0.143824069193,0.254844860272,0.95196367085,-0.0901882157855
2021/03/16/15:20:29.691880,75416,1615904429,692450047,mocap,-2.83614477539,10.2940664062,1.91963476562,0.144295829926,0.25523978997,0.951691401415,-0.0911857745771
2021/03/16/15:20:29.700747,75417,1615904429,702450037,mocap,-2.83585522461,10.2906650391,1.91902624512,0.144365867954,0.255366941244,0.951559218979,-0.0920938529834
2021/03/16/15:20:29.710682,75418,1615904429,712450027,mocap,-2.83558056641,10.2871992188,1.91849475098,0.14413824431,0.256732999902,0.951189358216,-0.0924723956773
2021/03/16/15:20:29.721719,75419,1615904429,722450256,mocap,-2.83519848633,10.2835263672,1.91767614746,0.145197037012,0.256267001815,0.951030423027,-0.0937346753097
2021/03/16/15:20:29.730647,75420,1615904429,732450247,mocap,-2.83487280273,10.2799130859,1.91708862305,0.144624534125,0.257388144184,0.950786708418,-0.094019877838
2021/03/16/15:20:29.741620,75421,1615904429,742450237,mocap,-2.83439453125,10.2760136719,1.91605786133,0.145066488063,0.256084870557,0.950941516154,-0.0953230375775
2021/03/16/15:20:29.750814,75422,1615904429,752450228,mocap,-2.83399975586,10.2720947266,1.91546362305,0.145931719643,0.257499774091,0.950369580746,-0.0958929724394
2021/03/16/15:20:29.762562,75423,1615904429,762450218,mocap,-2.83350610352,10.2680712891,1.9147175293,0.146062209392,0.257506519076,0.950278487295,-0.0965765151506
2021/03/16/15:20:29.770869,75424,1615904429,772450209,mocap,-2.83298754883,10.2639521484,1.91388085938,0.146147341881,0.257055088587,0.950317249531,-0.0972664206913
2021/03/16/15:20:29.782588,75425,1615904429,782450199,mocap,-2.83243994141,10.2597207031,1.91313745117,0.146500163576,0.257330803113,0.950142799173,-0.097709896333
2021/03/16/15:20:29.790821,75426,1615904429,792450190,mocap,-2.83187231445,10.2553935547,1.91235461426,0.146909229565,0.257383090247,0.949989610226,-0.0984448098861
2021/03/16/15:20:29.802791,75427,1615904429,802450180,mocap,-2.83131713867,10.2509921875,1.91161242676,0.146876678308,0.257376595234,0.949964371753,-0.0987534027592
2021/03/16/15:20:29.810724,75428,1615904429,812450171,mocap,-2.83073339844,10.2464970703,1.9109197998,0.147929175552,0.258616799887,0.949397702087,-0.0993897300967
2021/03/16/15:20:29.822533,75429,1615904429,822450161,mocap,-2.83007397461,10.2419726563,1.91005102539,0.147528013798,0.258349557692,0.94948097814,-0.0998843138513
2021/03/16/15:20:29.830738,75430,1615904429,832450151,mocap,-2.82947753906,10.2373261719,1.90929931641,0.148218623136,0.259494948855,0.949024533783,-0.100230002866
2021/03/16/15:20:29.842548,75431,1615904429,842450142,mocap,-2.82877587891,10.2326484375,1.90837634277,0.148012948346,0.259095609414,0.949134446156,-0.100525767371
2021/03/16/15:20:29.850899,75432,1615904429,852450132,mocap,-2.8280793457,10.2278916016,1.90761047363,0.147623340512,0.259556160028,0.949063606299,-0.100579437359
2021/03/16/15:20:29.862342,75433,1615904429,862450123,mocap,-2.82735766602,10.2230185547,1.90683825684,0.147928048937,0.260071132356,0.948853850379,-0.100780330605
2021/03/16/15:20:29.870987,75434,1615904429,872450113,mocap,-2.82662329102,10.2180878906,1.9060682373,0.148334065012,0.260530308774,0.948629486788,-0.101109107734
2021/03/16/15:20:29.882201,75435,1615904429,882450104,mocap,-2.82581079102,10.2130644531,1.90531115723,0.148282063739,0.260956625387,0.948517285091,-0.101138657355
2021/03/16/15:20:29.890643,75436,1615904429,892450094,mocap,-2.82501660156,10.2079902344,1.90465344238,0.149171329949,0.261703393086,0.948142159369,-0.101418459612
2021/03/16/15:20:29.902263,75437,1615904429,902450085,mocap,-2.82417138672,10.2027978516,1.90394665527,0.149156306006,0.261934664804,0.948050993355,-0.101695363589
2021/03/16/15:20:29.911055,75438,1615904429,912450075,mocap,-2.82332543945,10.1975546875,1.90328430176,0.149289338453,0.262485646498,0.947873736377,-0.101731791699
2021/03/16/15:20:29.922261,75439,1615904429,922450066,mocap,-2.82247216797,10.1922568359,1.90270080566,0.149910441284,0.263089702577,0.947605921391,-0.101753077945
2021/03/16/15:20:29.930708,75440,1615904429,932450056,mocap,-2.82159765625,10.1868720703,1.90215319824,0.149700311065,0.263093886999,0.947644344799,-0.101693788997
2021/03/16/15:20:29.942217,75441,1615904429,942450047,mocap,-2.82067382812,10.1814609375,1.9016451416,0.149926831026,0.263453531395,0.947484067919,-0.101922143394
2021/03/16/15:20:29.950672,75442,1615904429,952450037,mocap,-2.8197277832,10.1759609375,1.9011739502,0.14979826231,0.263721533312,0.947443679907,-0.101793474625
2021/03/16/15:20:29.962399,75443,1615904429,962450027,mocap,-2.81874194336,10.1703701172,1.90065368652,0.149912786353,0.264028949508,0.947318919148,-0.101988912141
2021/03/16/15:20:29.970954,75444,1615904429,972450256,mocap,-2.81777709961,10.1647871094,1.90035998535,0.150445634323,0.264275254707,0.947134146464,-0.102281992763
2021/03/16/15:20:29.981122,75445,1615904429,982450247,mocap,-2.8167409668,10.1590791016,1.89996411133,0.15057540469,0.264391980673,0.947089975333,-0.102198434485
2021/03/16/15:20:29.990735,75446,1615904429,992450237,mocap,-2.81571801758,10.1533730469,1.89973742676,0.151210705055,0.264846115698,0.946834174935,-0.102454409297
2021/03/16/15:20:30.002206,75447,1615904430,2450228,mocap,-2.81462817383,10.1476201172,1.89966369629,0.150830614285,0.265046153932,0.946851793326,-0.10233445723
2021/03/16/15:20:30.010818,75448,1615904430,12450218,mocap,-2.81350488281,10.1417714844,1.89977612305,0.150541240585,0.266824321401,0.946421799931,-0.10211700276
2021/03/16/15:20:30.021958,75449,1615904430,22450209,mocap,-2.81245556641,10.136015625,1.90043725586,0.149615527026,0.267061796172,0.946552905138,-0.101640507763
2021/03/16/15:20:30.030481,75450,1615904430,32450199,mocap,-2.81138354492,10.1302197266,1.90105456543,0.149875234251,0.267700021298,0.946311887421,-0.101822978587
2021/03/16/15:20:30.041843,75451,1615904430,42450190,mocap,-2.81021801758,10.1242978516,1.9016652832,0.150120450679,0.268245370369,0.946062027315,-0.102347026416
2021/03/16/15:20:30.050717,75452,1615904430,52450180,mocap,-2.80902416992,10.118296875,1.90222570801,0.150598335252,0.26880503098,0.94580068672,-0.102591716364
2021/03/16/15:20:30.061973,75453,1615904430,62450171,mocap,-2.80787817383,10.1123476562,1.90300939941,0.151238928673,0.269558137459,0.94548106464,-0.102619474976
2021/03/16/15:20:30.070774,75454,1615904430,72450161,mocap,-2.80673852539,10.1064658203,1.90404516602,0.151774027312,0.270414461334,0.945122944136,-0.102875071696
2021/03/16/15:20:30.081867,75455,1615904430,82450151,mocap,-2.80557080078,10.1005302734,1.90515222168,0.152739442698,0.271842968517,0.944519143544,-0.1032261851
2021/03/16/15:20:30.090769,75456,1615904430,92450142,mocap,-2.80442333984,10.0945488281,1.90616723633,0.152969856879,0.272298489292,0.944337791591,-0.103343563476
2021/03/16/15:20:30.101611,75457,1615904430,102450132,mocap,-2.80331591797,10.0885263672,1.90720996094,0.153579423582,0.27268088325,0.944113459609,-0.10348072848
2021/03/16/15:20:30.110556,75458,1615904430,112450123,mocap,-2.80222045898,10.0825634766,1.90838977051,0.15485807168,0.273781733149,0.943538269709,-0.103913774691
2021/03/16/15:20:30.121930,75459,1615904430,122450113,mocap,-2.80111230469,10.0765332031,1.90931384277,0.154799459396,0.274136838061,0.943444060637,-0.103920247963
2021/03/16/15:20:30.130835,75460,1615904430,132450104,mocap,-2.80013671875,10.0704775391,1.91027233887,0.155376808684,0.274580343791,0.943239500592,-0.103744508206
2021/03/16/15:20:30.141427,75461,1615904430,142450094,mocap,-2.79925756836,10.0644414062,1.91121887207,0.156489019603,0.27553287008,0.942770661705,-0.103808926579
2021/03/16/15:20:30.150746,75462,1615904430,152450085,mocap,-2.79833959961,10.058421875,1.91207788086,0.156407492464,0.275934785942,0.942673159131,-0.103749739947
2021/03/16/15:20:30.162661,75463,1615904430,162450075,mocap,-2.79751367187,10.052359375,1.91281481934,0.156784010829,0.276178392081,0.942553814014,-0.103617412838
2021/03/16/15:20:30.172658,75464,1615904430,172450066,mocap,-2.79675073242,10.0462773438,1.91345422363,0.156460744042,0.276341599358,0.942624131371,-0.103029578784
2021/03/16/15:20:30.180846,75465,1615904430,182450056,mocap,-2.79608081055,10.0401826172,1.91402001953,0.156379280064,0.276252921866,0.942720042555,-0.102512269204
2021/03/16/15:20:30.190866,75466,1615904430,192450047,mocap,-2.79549267578,10.0340878906,1.91452758789,0.156427780084,0.27634431362,0.942750730492,-0.101907931096
2021/03/16/15:20:30.202640,75467,1615904430,202450037,mocap,-2.79497729492,10.0279560547,1.91497521973,0.155982643403,0.275975845814,0.943026497755,-0.101033471198
2021/03/16/15:20:30.210512,75468,1615904430,212450027,mocap,-2.79446582031,10.0218642578,1.9154128418,0.155775923637,0.276100256225,0.943132448249,-0.100018474207
2021/03/16/15:20:30.220842,75469,1615904430,222450256,mocap,-2.7940234375,10.0157529297,1.91577758789,0.155372542633,0.275933546023,0.943365740705,-0.0988995767372
2021/03/16/15:20:30.231550,75470,1615904430,232450247,mocap,-2.79357885742,10.0096396484,1.91611950684,0.154506468556,0.275684246447,0.943726762271,-0.0974974102228
2021/03/16/15:20:30.242320,75471,1615904430,242450237,mocap,-2.79321264648,10.0035546875,1.91638806152,0.154264286317,0.275922273313,0.943818985395,-0.0963075550367
2021/03/16/15:20:30.250467,75472,1615904430,252450228,mocap,-2.79286816406,9.9974296875,1.9167010498,0.153922513151,0.27555733249,0.944124752443,-0.0948918918713
2021/03/16/15:20:30.262427,75473,1615904430,262450218,mocap,-2.79249194336,9.99132324219,1.91696765137,0.153483265702,0.275667012457,0.944316094554,-0.0933686736024
2021/03/16/15:20:30.270920,75474,1615904430,272450209,mocap,-2.79218579102,9.98518457031,1.91728271484,0.153439609292,0.27544966209,0.944544030569,-0.0917624428817
2021/03/16/15:20:30.282328,75475,1615904430,282450199,mocap,-2.79187402344,9.97897753906,1.91756506348,0.153258344565,0.275038735263,0.944834320251,-0.0902977449029
2021/03/16/15:20:30.290551,75476,1615904430,292450190,mocap,-2.79162304687,9.97279296875,1.91800402832,0.153581081226,0.27394712459,0.94522177048,-0.0890034532976
2021/03/16/15:20:30.302199,75477,1615904430,302450180,mocap,-2.79132714844,9.96648828125,1.91836828613,0.15329312018,0.273588461575,0.945532386995,-0.087287352394
2021/03/16/15:20:30.310821,75478,1615904430,312450171,mocap,-2.79118481445,9.96031640625,1.91908776855,0.153855864427,0.273025249182,0.945748835345,-0.0857013217126
2021/03/16/15:20:30.322225,75479,1615904430,322450161,mocap,-2.79092260742,9.95392382812,1.91953637695,0.152973523859,0.27287269538,0.946101923056,-0.0838496192407
2021/03/16/15:20:30.330754,75480,1615904430,332450151,mocap,-2.79068920898,9.94752246094,1.92007617187,0.152719057585,0.271437921417,0.946688604106,-0.0823349159916
2021/03/16/15:20:30.342192,75481,1615904430,342450142,mocap,-2.79049975586,9.94106640625,1.92063635254,0.152649160848,0.269988961395,0.947256674184,-0.0806782726289
2021/03/16/15:20:30.350504,75482,1615904430,352450132,mocap,-2.7903269043,9.93458398437,1.92121044922,0.152811131692,0.268281366189,0.947868462095,-0.0788621285254
2021/03/16/15:20:30.361911,75483,1615904430,362450123,mocap,-2.79017602539,9.92807421875,1.92180102539,0.15262394822,0.26672284895,0.948478724229,-0.0771554070006
2021/03/16/15:20:30.370971,75484,1615904430,372450113,mocap,-2.79007348633,9.92159472656,1.9223795166,0.152415159132,0.265304609355,0.949072335964,-0.0751319162681
2021/03/16/15:20:30.382643,75485,1615904430,382450104,mocap,-2.7899675293,9.91507519531,1.92290527344,0.152438856034,0.263913440026,0.949587142163,-0.0734599277635
2021/03/16/15:20:30.390908,75486,1615904430,392450094,mocap,-2.78990039063,9.90856347656,1.92340197754,0.152353933515,0.26236637432,0.950183001886,-0.0714452537637
2021/03/16/15:20:30.400928,75487,1615904430,402450085,mocap,-2.78985913086,9.9019921875,1.9238145752,0.152298445168,0.261000530547,0.950702371201,-0.0696340922673
2021/03/16/15:20:30.412296,75488,1615904430,412450075,mocap,-2.78986816406,9.89547363281,1.92428417969,0.152076519178,0.259863883502,0.951188473096,-0.0677051322459
2021/03/16/15:20:30.420961,75489,1615904430,422450066,mocap,-2.78986181641,9.88889550781,1.92462390137,0.152091913422,0.258672359026,0.95163404606,-0.0659491986974
2021/03/16/15:20:30.432477,75490,1615904430,432450056,mocap,-2.78988623047,9.88230664062,1.92488049316,0.151973412846,0.257646368149,0.952056676894,-0.0641132930886
2021/03/16/15:20:30.440527,75491,1615904430,442450047,mocap,-2.78993603516,9.87568652344,1.92514282227,0.151867145113,0.256697512994,0.952438568515,-0.0624782155586
2021/03/16/15:20:30.452597,75492,1615904430,452450037,mocap,-2.79007885742,9.86911132812,1.92544946289,0.15254864895,0.255434668745,0.952761041222,-0.0610608990688
2021/03/16/15:20:30.460534,75493,1615904430,462450027,mocap,-2.79016845703,9.86240820312,1.9255847168,0.152103077,0.25462235406,0.953159308207,-0.0593247546382
2021/03/16/15:20:30.472242,75494,1615904430,472450256,mocap,-2.79036328125,9.85578515625,1.92578320312,0.151936836788,0.254331170747,0.953370328504,-0.0575835786529
2021/03/16/15:20:30.482440,75495,1615904430,482450247,mocap,-2.7904609375,9.84895019531,1.92556982422,0.152562854387,0.252627273179,0.953766599051,-0.0568621705628
2021/03/16/15:20:30.492307,75496,1615904430,492450237,mocap,-2.79073413086,9.84225390625,1.92555236816,0.152343788095,0.253399095823,0.95370082971,-0.0550909498501
2021/03/16/15:20:30.500826,75497,1615904430,502450228,mocap,-2.7910402832,9.83552246094,1.92544714355,0.151665941365,0.253011496346,0.954000727343,-0.0535278198361
2021/03/16/15:20:30.511225,75498,1615904430,512450218,mocap,-2.79134594727,9.82866113281,1.92505053711,0.150921228003,0.252901384582,0.954214731648,-0.0523251747624
2021/03/16/15:20:30.522198,75499,1615904430,522450209,mocap,-2.79173022461,9.82183105469,1.92463146973,0.152011433057,0.252537669493,0.954161830471,-0.0518887701019
2021/03/16/15:20:30.532438,75500,1615904430,532450199,mocap,-2.792171875,9.81506152344,1.92436743164,0.150546383111,0.253148578722,0.954321251276,-0.0502247308022
2021/03/16/15:20:30.542490,75501,1615904430,542450190,mocap,-2.79254541016,9.80798730469,1.92355700684,0.150252089842,0.252983541855,0.95444011636,-0.0496759613045
2021/03/16/15:20:30.550647,75502,1615904430,552450180,mocap,-2.79315869141,9.80121679687,1.92327380371,0.149997986867,0.253695459174,0.954339894696,-0.0487297595964
2021/03/16/15:20:30.562187,75503,1615904430,562450171,mocap,-2.79369702148,9.7941953125,1.92255993652,0.149424832384,0.254268530338,0.954313865632,-0.0480081594538
2021/03/16/15:20:30.570777,75504,1615904430,572450161,mocap,-2.79417138672,9.78708300781,1.92161108398,0.149416549184,0.254213954501,0.954341339,-0.0477763231122
2021/03/16/15:20:30.582275,75505,1615904430,582450151,mocap,-2.79485839844,9.77993847656,1.92077612305,0.148086688268,0.255985461774,0.954148907302,-0.0462778609405
2021/03/16/15:20:30.591032,75506,1615904430,592450142,mocap,-2.79547827148,9.7726796875,1.91968640137,0.148496696408,0.256185140488,0.954025171789,-0.0464098506887
2021/03/16/15:20:30.601923,75507,1615904430,602450132,mocap,-2.79625146484,9.76558496094,1.91906054687,0.146471307963,0.25749280903,0.954045421936,-0.0451766949446
2021/03/16/15:20:30.610571,75508,1615904430,612450123,mocap,-2.79695581055,9.75810644531,1.91768261719,0.146909877144,0.257574037579,0.953951461683,-0.0452737285955
2021/03/16/15:20:30.621027,75509,1615904430,622450113,mocap,-2.79775537109,9.75074121094,1.91661804199,0.1452479686,0.258786495758,0.953917150724,-0.0444370919551
2021/03/16/15:20:30.630895,75510,1615904430,632450104,mocap,-2.79853076172,9.74313476562,1.91513537598,0.145468651523,0.258989379929,0.953824466695,-0.0445226039531
2021/03/16/15:20:30.642018,75511,1615904430,642450094,mocap,-2.79941455078,9.73550683594,1.91374584961,0.143955491695,0.259622519479,0.953917314745,-0.0437574591446
2021/03/16/15:20:30.650452,75512,1615904430,652450085,mocap,-2.80029052734,9.72788476562,1.91239404297,0.14400282388,0.260693430554,0.95362581322,-0.043588289867
2021/03/16/15:20:30.661927,75513,1615904430,662450075,mocap,-2.80128613281,9.72024121094,1.91116455078,0.142850053962,0.262169940254,0.953421491878,-0.0429911017774
2021/03/16/15:20:30.670583,75514,1615904430,672450066,mocap,-2.80216455078,9.712296875,1.90943164063,0.143264794257,0.262166233635,0.953342381687,-0.043386341842
2021/03/16/15:20:30.681829,75515,1615904430,682450056,mocap,-2.80324389648,9.70455566406,1.90834533691,0.141737471398,0.26423961136,0.953036593418,-0.0425342707132
2021/03/16/15:20:30.690847,75516,1615904430,692450047,mocap,-2.80426074219,9.69656835938,1.90695056152,0.140633030855,0.265254146986,0.952931634643,-0.0422359123181
2021/03/16/15:20:30.701923,75517,1615904430,702450037,mocap,-2.80532763672,9.68850390625,1.90556286621,0.140677756005,0.265581992602,0.952832364669,-0.0422665734835
2021/03/16/15:20:30.710769,75518,1615904430,712450027,mocap,-2.80642504883,9.68044042969,1.90444189453,0.139705230018,0.267231224893,0.952529682225,-0.0419180924846
2021/03/16/15:20:30.721917,75519,1615904430,722450256,mocap,-2.80752124023,9.67223925781,1.90332141113,0.138627380219,0.267963585837,0.952496047512,-0.0415841265203
2021/03/16/15:20:30.730534,75520,1615904430,732450247,mocap,-2.80863110352,9.6638515625,1.9022064209,0.137422951309,0.268863859865,0.952420764028,-0.0414951123764
2021/03/16/15:20:30.742653,75521,1615904430,742450237,mocap,-2.80983056641,9.65557519531,1.90147241211,0.137693608504,0.2700715707,0.952033387105,-0.0416442647349
2021/03/16/15:20:30.750744,75522,1615904430,752450228,mocap,-2.81096801758,9.64715722656,1.90073156738,0.13717001023,0.271166535521,0.951788896021,-0.0418449225108
2021/03/16/15:20:30.762575,75523,1615904430,762450218,mocap,-2.81213793945,9.63865722656,1.90014990234,0.137123676291,0.272088314882,0.951528470601,-0.0419359769579
2021/03/16/15:20:30.770673,75524,1615904430,772450209,mocap,-2.81326538086,9.63008007812,1.89974157715,0.136938397406,0.272852687117,0.95131871776,-0.042331726894
2021/03/16/15:20:30.782663,75525,1615904430,782450199,mocap,-2.81441162109,9.62138964844,1.89942883301,0.136770681618,0.273314313051,0.951199313792,-0.0425785059502
2021/03/16/15:20:30.790628,75526,1615904430,792450190,mocap,-2.81552099609,9.61263574219,1.89928588867,0.137034969225,0.273534609691,0.951070564718,-0.0431858730083
2021/03/16/15:20:30.802562,75527,1615904430,802450180,mocap,-2.81664501953,9.60377050781,1.89928381348,0.136771881087,0.273435352945,0.951105229042,-0.0438794157444
2021/03/16/15:20:30.810621,75528,1615904430,812450171,mocap,-2.81772216797,9.59482910156,1.89953027344,0.137484664206,0.273410503488,0.950975793449,-0.0446061164345
2021/03/16/15:20:30.822531,75529,1615904430,822450161,mocap,-2.81887060547,9.58589550781,1.90015185547,0.13771756481,0.273410103031,0.950902356261,-0.0454477603317
2021/03/16/15:20:30.830599,75530,1615904430,832450151,mocap,-2.82001611328,9.57689648438,1.90108361816,0.137965215028,0.27364740121,0.950757784464,-0.0462853197902
2021/03/16/15:20:30.842551,75531,1615904430,842450142,mocap,-2.82119335938,9.56787988281,1.90225244141,0.138159244953,0.273706521573,0.950659400385,-0.0473652735114
2021/03/16/15:20:30.850848,75532,1615904430,852450132,mocap,-2.82231347656,9.55881835937,1.90347314453,0.138583964351,0.273579566908,0.950561272619,-0.0488053898001
2021/03/16/15:20:30.862603,75533,1615904430,862450123,mocap,-2.82342749023,9.54973925781,1.90470080566,0.13856941143,0.273300020709,0.95057733272,-0.0500833885181
2021/03/16/15:20:30.870784,75534,1615904430,872450113,mocap,-2.82457128906,9.54067578125,1.90608166504,0.139607006888,0.273128510511,0.950385291308,-0.0517542661066
2021/03/16/15:20:30.882408,75535,1615904430,882450104,mocap,-2.8256730957,9.53164746094,1.90755529785,0.140150420067,0.273107120359,0.950228385703,-0.0532576998197
2021/03/16/15:20:30.890627,75536,1615904430,892450094,mocap,-2.82687792969,9.52264453125,1.9091973877,0.140417296332,0.272905101541,0.950155627842,-0.0548641652965
2021/03/16/15:20:30.902474,75537,1615904430,902450085,mocap,-2.82804199219,9.51362890625,1.91076000977,0.140942617443,0.272367100097,0.950142226741,-0.0564011957915
2021/03/16/15:20:30.910840,75538,1615904430,912450075,mocap,-2.8292121582,9.50461230469,1.91229772949,0.141281567819,0.271520603402,0.950220356657,-0.0582868086097
2021/03/16/15:20:30.922185,75539,1615904430,922450066,mocap,-2.83033178711,9.49559179688,1.91361279297,0.140801228513,0.270485720787,0.950485953471,-0.0599077224686
2021/03/16/15:20:30.930810,75540,1615904430,932450056,mocap,-2.83150024414,9.48666308594,1.91482983398,0.141415153831,0.269824546918,0.950480936685,-0.0615016159776
2021/03/16/15:20:30.942072,75541,1615904430,942450047,mocap,-2.83265063477,9.47779296875,1.91583569336,0.140700203631,0.268953461413,0.950738804355,-0.0629540420032
2021/03/16/15:20:30.950719,75542,1615904430,952450037,mocap,-2.83378833008,9.46898339844,1.91667004395,0.140279588941,0.268456970682,0.950844522344,-0.06439881519
2021/03/16/15:20:30.962074,75543,1615904430,962450027,mocap,-2.834921875,9.46029296875,1.91729699707,0.140235859812,0.268258009675,0.950819510299,-0.06567956758
2021/03/16/15:20:30.970709,75544,1615904430,972450256,mocap,-2.83601928711,9.45172558594,1.91781542969,0.139325015622,0.268421391186,0.950822668184,-0.0668935856855
2021/03/16/15:20:30.982166,75545,1615904430,982450247,mocap,-2.83710498047,9.44319921875,1.91812316895,0.139047013276,0.268993227129,0.950613849043,-0.0681313289942
2021/03/16/15:20:30.990932,75546,1615904430,992450237,mocap,-2.83810693359,9.43475976562,1.91833239746,0.137973911856,0.269577752776,0.950532616146,-0.0691287678271
2021/03/16/15:20:31.002043,75547,1615904431,2450228,mocap,-2.83912988281,9.42642285156,1.91852331543,0.137275469657,0.270939085008,0.950166809658,-0.0702174314938
2021/03/16/15:20:31.010506,75548,1615904431,12450218,mocap,-2.84012402344,9.41810742187,1.91872229004,0.1368071816,0.272704346466,0.949653188557,-0.0712388208195
2021/03/16/15:20:31.022221,75549,1615904431,22450209,mocap,-2.84108837891,9.40980664062,1.91893408203,0.136604404751,0.27401935813,0.949250891812,-0.0719400298008
2021/03/16/15:20:31.030632,75550,1615904431,32450199,mocap,-2.84193774414,9.40142578125,1.91903198242,0.135384230996,0.275573532155,0.948887747677,-0.0730915653844
2021/03/16/15:20:31.041995,75551,1615904431,42450190,mocap,-2.84274731445,9.39302636719,1.9192298584,0.134784837147,0.276770007596,0.948558837004,-0.0739428223139
2021/03/16/15:20:31.050767,75552,1615904431,52450180,mocap,-2.84352368164,9.38461523437,1.9195267334,0.134377104901,0.277868728209,0.948201258176,-0.0751407500032
2021/03/16/15:20:31.060750,75553,1615904431,62450171,mocap,-2.84424414062,9.37610449219,1.91981567383,0.133672777375,0.278727988351,0.948005426709,-0.0756836490401
2021/03/16/15:20:31.071486,75554,1615904431,72450161,mocap,-2.84489819336,9.3675234375,1.92024621582,0.132954851117,0.279099867987,0.947924496894,-0.0765860199523
2021/03/16/15:20:31.081926,75555,1615904431,82450151,mocap,-2.84545410156,9.35890429688,1.92074987793,0.132245188855,0.279221089478,0.947909319329,-0.0775546371017
2021/03/16/15:20:31.090765,75556,1615904431,92450142,mocap,-2.84592602539,9.35015332031,1.92127734375,0.131956361307,0.278773841942,0.947999430107,-0.0785477479715
2021/03/16/15:20:31.100715,75557,1615904431,102450132,mocap,-2.84644458008,9.34135742187,1.92189587402,0.131575352916,0.278058966056,0.948194272749,-0.0793646343532
2021/03/16/15:20:31.110753,75558,1615904431,112450123,mocap,-2.84685571289,9.33249707031,1.92250268555,0.131159397235,0.276817876042,0.948531321829,-0.0803578928157
2021/03/16/15:20:31.122766,75559,1615904431,122450113,mocap,-2.84711938477,9.32350878906,1.92308496094,0.130932767887,0.275293462137,0.94892220123,-0.0813436264645
2021/03/16/15:20:31.130762,75560,1615904431,132450104,mocap,-2.84731347656,9.3145234375,1.92364013672,0.130725902239,0.273307734991,0.94943362814,-0.0823978267805
2021/03/16/15:20:31.141515,75561,1615904431,142450094,mocap,-2.84750341797,9.30549902344,1.92417578125,0.13068026169,0.271559032699,0.949849715706,-0.0834498927191
2021/03/16/15:20:31.152436,75562,1615904431,152450085,mocap,-2.8476015625,9.29647851562,1.92464733887,0.130895280173,0.269700147523,0.950243518387,-0.0846493168152
2021/03/16/15:20:31.161115,75563,1615904431,162450075,mocap,-2.84767797852,9.287421875,1.92490466309,0.131720884347,0.267404791027,0.950655262294,-0.0860165336704
2021/03/16/15:20:31.172685,75564,1615904431,172450066,mocap,-2.84765136719,9.27842382812,1.9251628418,0.131956741209,0.265525323145,0.951069068444,-0.0868984850268
2021/03/16/15:20:31.180746,75565,1615904431,182450056,mocap,-2.84748510742,9.26958789063,1.92524707031,0.131966349501,0.264034414021,0.951292049955,-0.0889614863932
2021/03/16/15:20:31.192482,75566,1615904431,192450047,mocap,-2.84737939453,9.26063085938,1.92525317383,0.132596500071,0.262356138888,0.951590992042,-0.0897886591463
2021/03/16/15:20:31.200637,75567,1615904431,202450037,mocap,-2.84729370117,9.25171386719,1.92519445801,0.133010739114,0.26128341827,0.951715498089,-0.09097646448
2021/03/16/15:20:31.211533,75568,1615904431,212450027,mocap,-2.84716967773,9.24284472656,1.92498193359,0.133296814606,0.260417246522,0.951849200838,-0.0916401987941
2021/03/16/15:20:31.220998,75569,1615904431,222450256,mocap,-2.84704760742,9.23395410156,1.92462255859,0.134036353364,0.259773179987,0.95182375336,-0.092648236858
2021/03/16/15:20:31.232450,75570,1615904431,232450247,mocap,-2.84691088867,9.22514550781,1.92431811523,0.134519460786,0.259480843769,0.951764558533,-0.0933725532566
2021/03/16/15:20:31.241383,75571,1615904431,242450237,mocap,-2.84669677734,9.21631933594,1.92375061035,0.135059970953,0.258973665675,0.95177839082,-0.0938580939151
2021/03/16/15:20:31.252167,75572,1615904431,252450228,mocap,-2.84647485352,9.20752050781,1.92302734375,0.136111444653,0.259036215735,0.95150964681,-0.0948857897346
2021/03/16/15:20:31.260739,75573,1615904431,262450218,mocap,-2.84627148437,9.1986484375,1.92226342773,0.13670458647,0.258989956098,0.951352856159,-0.0957277712201
2021/03/16/15:20:31.272462,75574,1615904431,272450209,mocap,-2.84609887695,9.18984765625,1.92135290527,0.136608713052,0.259320128624,0.951246199945,-0.0960301767725
2021/03/16/15:20:31.280600,75575,1615904431,282450199,mocap,-2.84589282227,9.1810390625,1.92026965332,0.137327997946,0.259808578553,0.950941751203,-0.0966969977698
2021/03/16/15:20:31.291245,75576,1615904431,292450190,mocap,-2.84568359375,9.17224414063,1.91928161621,0.138170370062,0.260226061721,0.950665897465,-0.0970860348082
2021/03/16/15:20:31.300511,75577,1615904431,302450180,mocap,-2.84545581055,9.16339160156,1.91807788086,0.137946988515,0.260818272467,0.950557235996,-0.0968783025661
2021/03/16/15:20:31.312659,75578,1615904431,312450171,mocap,-2.84517358398,9.15449414062,1.91667321777,0.138579838893,0.26140521784,0.950249971266,-0.0974060259507
2021/03/16/15:20:31.320880,75579,1615904431,322450161,mocap,-2.84497412109,9.14565332031,1.91542346191,0.13960852425,0.262329122046,0.949831839159,-0.0975313041377
2021/03/16/15:20:31.331074,75580,1615904431,332450151,mocap,-2.84476269531,9.13678125,1.91389001465,0.139844891057,0.263114326538,0.949579727545,-0.0975325556003
2021/03/16/15:20:31.341180,75581,1615904431,342450142,mocap,-2.8444921875,9.12783886719,1.91239477539,0.139654096145,0.263961374011,0.949374056697,-0.0975193209576
2021/03/16/15:20:31.350777,75582,1615904431,352450132,mocap,-2.84418994141,9.11888085938,1.91067175293,0.140384903097,0.2648260503,0.948985035699,-0.0979114999255
2021/03/16/15:20:31.361904,75583,1615904431,362450123,mocap,-2.84388256836,9.10991601563,1.90913720703,0.139897077221,0.265535995918,0.94891165644,-0.0973966440462
2021/03/16/15:20:31.370649,75584,1615904431,372450113,mocap,-2.84356713867,9.100921875,1.90742004395,0.140578608683,0.266549028199,0.948571380769,-0.0969619721407
2021/03/16/15:20:31.381049,75585,1615904431,382450104,mocap,-2.8433034668,9.09190917969,1.90596875,0.140066543234,0.267161165675,0.948550511058,-0.0962195622922
2021/03/16/15:20:31.390932,75586,1615904431,392450094,mocap,-2.84300317383,9.08282128906,1.90450585937,0.139661658181,0.267757187449,0.948527056631,-0.0953789011632
2021/03/16/15:20:31.402123,75587,1615904431,402450085,mocap,-2.84272143555,9.07364746094,1.9032010498,0.13917038331,0.268168173966,0.948569472116,-0.0945165646592
2021/03/16/15:20:31.410782,75588,1615904431,412450075,mocap,-2.84238037109,9.06441894531,1.90199841309,0.138665158439,0.26818219965,0.94871275174,-0.0937784541409
2021/03/16/15:20:31.421991,75589,1615904431,422450066,mocap,-2.8419921875,9.05516503906,1.90100634766,0.138461218945,0.267996641491,0.948859676686,-0.0931214002379
2021/03/16/15:20:31.430992,75590,1615904431,432450056,mocap,-2.84151879883,9.0457890625,1.9000123291,0.138523274296,0.267806968933,0.948983465477,-0.0923098052698
2021/03/16/15:20:31.440779,75591,1615904431,442450047,mocap,-2.84104101563,9.036515625,1.8992644043,0.138390182385,0.267516526319,0.949190280629,-0.0912188663867
2021/03/16/15:20:31.450882,75592,1615904431,452450037,mocap,-2.84051098633,9.02710351563,1.89856750488,0.137878357339,0.266963466053,0.94953028743,-0.0900683120246
2021/03/16/15:20:31.461769,75593,1615904431,462450027,mocap,-2.8399453125,9.01780273437,1.89806750488,0.137648754837,0.266776827191,0.949728660043,-0.0888730105877
2021/03/16/15:20:31.470690,75594,1615904431,472450256,mocap,-2.83938061523,9.00851464844,1.89787365723,0.137412577451,0.266730296553,0.949898919576,-0.0875486551443
2021/03/16/15:20:31.480878,75595,1615904431,482450247,mocap,-2.83877612305,8.99915429688,1.89793261719,0.136598907197,0.266849969896,0.950138964653,-0.0858358178603
2021/03/16/15:20:31.492785,75596,1615904431,492450237,mocap,-2.83819580078,8.98994824219,1.89846130371,0.136655308601,0.267278548178,0.950125900509,-0.084547444084
2021/03/16/15:20:31.500969,75597,1615904431,502450228,mocap,-2.83751538086,8.98074804688,1.89918518066,0.136011541918,0.267598442747,0.950250880782,-0.0831576582742
2021/03/16/15:20:31.512590,75598,1615904431,512450218,mocap,-2.83679711914,8.97145117187,1.89995141602,0.135105659544,0.267752448708,0.950515732251,-0.0810859015159
2021/03/16/15:20:31.520886,75599,1615904431,522450209,mocap,-2.83609399414,8.96217578125,1.90090209961,0.135357996458,0.268431104238,0.950424104062,-0.0794794927754
2021/03/16/15:20:31.531792,75600,1615904431,532450199,mocap,-2.83533300781,8.9530078125,1.90202258301,0.134807841599,0.268623849458,0.950566492769,-0.0780475142307
2021/03/16/15:20:31.542826,75601,1615904431,542450190,mocap,-2.83459643555,8.94387207031,1.90337902832,0.136083825871,0.268773108742,0.950442361423,-0.0768213907601
2021/03/16/15:20:31.550530,75602,1615904431,552450180,mocap,-2.83378369141,8.93475976562,1.90475708008,0.136185218528,0.269085674888,0.950429489589,-0.0756985231433
2021/03/16/15:20:31.562685,75603,1615904431,562450171,mocap,-2.83289575195,8.92568945313,1.90619555664,0.136433165071,0.2688311852,0.950538071602,-0.0747874747155
2021/03/16/15:20:31.570710,75604,1615904431,572450161,mocap,-2.83201220703,8.91660644531,1.90757495117,0.136652069687,0.268314293431,0.950748819505,-0.0735550010319
2021/03/16/15:20:31.582409,75605,1615904431,582450151,mocap,-2.83117236328,8.90757421875,1.90892016602,0.138048998615,0.267590803003,0.950771169053,-0.0732927308136
2021/03/16/15:20:31.591060,75606,1615904431,592450142,mocap,-2.83036499023,8.89861425781,1.91010583496,0.139182046016,0.266763710607,0.950870920622,-0.0728695883261
2021/03/16/15:20:31.601537,75607,1615904431,602450132,mocap,-2.82957958984,8.88973339844,1.91118469238,0.140319971578,0.266029607394,0.95095424003,-0.0722812998873
2021/03/16/15:20:31.610714,75608,1615904431,612450123,mocap,-2.82883422852,8.88091699219,1.91209924316,0.142098012018,0.265662838655,0.950804856947,-0.072121595571
2021/03/16/15:20:31.621247,75609,1615904431,622450113,mocap,-2.82811181641,8.87220410156,1.91297351074,0.143402291312,0.265688071821,0.950650058306,-0.0714849424622
2021/03/16/15:20:31.631024,75610,1615904431,632450104,mocap,-2.82748461914,8.86366796875,1.9138684082,0.144397752775,0.266041407503,0.950457702352,-0.070720607183
2021/03/16/15:20:31.642125,75611,1615904431,642450094,mocap,-2.8269543457,8.85509863281,1.91464111328,0.14541394492,0.266422028198,0.950243204758,-0.0700852823796
2021/03/16/15:20:31.650596,75612,1615904431,652450085,mocap,-2.82658325195,8.84670214844,1.91546130371,0.146755410782,0.266804935753,0.949975406805,-0.0694599916394
2021/03/16/15:20:31.662311,75613,1615904431,662450075,mocap,-2.82623046875,8.83823925781,1.91625134277,0.148136243641,0.267192673602,0.949709918256,-0.0686644155971
2021/03/16/15:20:31.670632,75614,1615904431,672450066,mocap,-2.82600317383,8.8298671875,1.91707421875,0.149207319645,0.267289557901,0.949568687895,-0.0679173308062
2021/03/16/15:20:31.682254,75615,1615904431,682450056,mocap,-2.82580297852,8.82143457031,1.91786352539,0.149591204971,0.267395861676,0.949539562062,-0.0670561792458
2021/03/16/15:20:31.691128,75616,1615904431,692450047,mocap,-2.82571630859,8.81305371094,1.91866296387,0.150414982235,0.267567552187,0.949434609064,-0.0660064840723
2021/03/16/15:20:31.700593,75617,1615904431,702450037,mocap,-2.82572827148,8.80462792969,1.91943920898,0.151110340123,0.267616592552,0.949384015614,-0.0649384986172
2021/03/16/15:20:31.711085,75618,1615904431,712450027,mocap,-2.82584423828,8.79625976563,1.9202487793,0.151346752275,0.267287227401,0.949542402497,-0.0634107673506
2021/03/16/15:20:31.721004,75619,1615904431,722450256,mocap,-2.82602587891,8.78789941406,1.92103955078,0.151469354982,0.267082741701,0.949664776409,-0.0621341676651
2021/03/16/15:20:31.732238,75620,1615904431,732450247,mocap,-2.82626196289,8.77953320313,1.92179125977,0.151753583341,0.266570948129,0.949834882667,-0.0610285751941
2021/03/16/15:20:31.740629,75621,1615904431,742450237,mocap,-2.82661938477,8.77116015625,1.92253613281,0.15236038361,0.266066481516,0.949952991477,-0.0598686069534
2021/03/16/15:20:31.752117,75622,1615904431,752450228,mocap,-2.82702075195,8.76279980469,1.9231652832,0.152808817723,0.265385099433,0.950144336113,-0.0587022523555
2021/03/16/15:20:31.760726,75623,1615904431,762450218,mocap,-2.82744238281,8.75443164063,1.92374963379,0.152770509453,0.26467189098,0.950424143259,-0.0574796138173
2021/03/16/15:20:31.772163,75624,1615904431,772450209,mocap,-2.8279699707,8.74608691406,1.92430432129,0.152524414616,0.263887990578,0.95077662314,-0.0558859953694
2021/03/16/15:20:31.780787,75625,1615904431,782450199,mocap,-2.82853076172,8.73772070312,1.92473608398,0.152774241853,0.263090868746,0.951004922303,-0.0550714590077
2021/03/16/15:20:31.790751,75626,1615904431,792450190,mocap,-2.82917919922,8.729375,1.92516186523,0.152235788888,0.262259507722,0.951400956408,-0.0536696168227
2021/03/16/15:20:31.800985,75627,1615904431,802450180,mocap,-2.82991894531,8.72096582031,1.92547314453,0.151640545935,0.261359861569,0.951828880483,-0.0521339473142
2021/03/16/15:20:31.812108,75628,1615904431,812450171,mocap,-2.83066772461,8.71262988281,1.9257442627,0.151445256744,0.260265384117,0.952200887165,-0.0513783171305
2021/03/16/15:20:31.820681,75629,1615904431,822450161,mocap,-2.83147485352,8.70423242188,1.92585144043,0.150506476939,0.259502421198,0.952643851484,-0.0497592708092
2021/03/16/15:20:31.831960,75630,1615904431,832450151,mocap,-2.83237207031,8.69592871094,1.92599438477,0.14921604211,0.25870046977,0.953131691331,-0.0484625436323
2021/03/16/15:20:31.840708,75631,1615904431,842450142,mocap,-2.83326928711,8.68759960938,1.92603881836,0.149225779249,0.257758992165,0.953443161439,-0.0473087166106
2021/03/16/15:20:31.850875,75632,1615904431,852450132,mocap,-2.834234375,8.67925976562,1.92585095215,0.14750627443,0.257326591533,0.9538997878,-0.0458270550377
2021/03/16/15:20:31.862031,75633,1615904431,862450123,mocap,-2.83514160156,8.67098339844,1.92571374512,0.146846778291,0.256538546466,0.954260196988,-0.0448495616081
2021/03/16/15:20:31.870716,75634,1615904431,872450113,mocap,-2.83613574219,8.66267773438,1.92538806152,0.145841093916,0.257013750061,0.954354282984,-0.0433844835132
2021/03/16/15:20:31.881781,75635,1615904431,882450104,mocap,-2.83707861328,8.6543984375,1.9249074707,0.144360618174,0.256991805434,0.954628337269,-0.0424260668172
2021/03/16/15:20:31.890797,75636,1615904431,892450094,mocap,-2.83807177734,8.64616894531,1.92452270508,0.144389717292,0.257583394596,0.954509480013,-0.0414011006436
2021/03/16/15:20:31.903054,75637,1615904431,902450085,mocap,-2.83896142578,8.637953125,1.92400012207,0.143804646147,0.257895950834,0.954544487776,-0.0406783430753
2021/03/16/15:20:31.910398,75638,1615904431,912450075,mocap,-2.83994384766,8.62965527344,1.92323217773,0.142671961572,0.258481908575,0.954602971682,-0.0395599257188
2021/03/16/15:20:31.920368,75639,1615904431,922450066,mocap,-2.84086694336,8.62137695313,1.92254577637,0.142656141355,0.259129757027,0.954451091858,-0.0390398181003
2021/03/16/15:20:31.930532,75640,1615904431,932450056,mocap,-2.84184423828,8.61309667969,1.92171313477,0.142417251996,0.259824347327,0.954323429483,-0.0384112246186
2021/03/16/15:20:31.941619,75641,1615904431,942450047,mocap,-2.84278125,8.60474023438,1.92072717285,0.141915030885,0.260662830667,0.954197694275,-0.0377062635952
2021/03/16/15:20:31.952554,75642,1615904431,952450037,mocap,-2.84376489258,8.59637402344,1.91968676758,0.141567760097,0.261474729006,0.954050177886,-0.0371186736087
2021/03/16/15:20:31.960833,75643,1615904431,962450027,mocap,-2.84469604492,8.58796191406,1.91855834961,0.141203539702,0.262268110421,0.953904419506,-0.0366518375313
2021/03/16/15:20:31.972477,75644,1615904431,972450256,mocap,-2.84567431641,8.57957421875,1.91739111328,0.141098423262,0.263085340285,0.953703243702,-0.0364343680002
2021/03/16/15:20:31.980608,75645,1615904431,982450247,mocap,-2.84665380859,8.57107324219,1.91607373047,0.141199728249,0.264195272782,0.953390475338,-0.0361952441874
2021/03/16/15:20:31.992627,75646,1615904431,992450237,mocap,-2.84767016602,8.56263671875,1.91473974609,0.141025417962,0.264761852045,0.953261068669,-0.0361431246114
2021/03/16/15:20:32.000760,75647,1615904432,2450228,mocap,-2.84869335937,8.55414941406,1.9132388916,0.141180364712,0.265689813858,0.952983290659,-0.0360537044626
2021/03/16/15:20:32.012543,75648,1615904432,12450218,mocap,-2.84974145508,8.54562109375,1.9116595459,0.140910322087,0.266283841422,0.952852976394,-0.0361718581244
2021/03/16/15:20:32.020551,75649,1615904432,22450209,mocap,-2.8508449707,8.53704882813,1.91004125977,0.141073763464,0.267196052092,0.952569158476,-0.0362829854594
2021/03/16/15:20:32.032481,75650,1615904432,32450199,mocap,-2.85198583984,8.52847851563,1.90846496582,0.140703299742,0.268157165737,0.952350857077,-0.0363615692042
2021/03/16/15:20:32.040563,75651,1615904432,42450190,mocap,-2.85312036133,8.51985546875,1.90692358398,0.140715013315,0.269148445884,0.952062859235,-0.0365336818373
2021/03/16/15:20:32.052494,75652,1615904432,52450180,mocap,-2.8543347168,8.51126757813,1.90547351074,0.139884209417,0.269945607551,0.951954161558,-0.0366749726615
