time,.header.seq,.header.stamp.secs,.header.stamp.nsecs,.header.frame_id,.pose.position.x,.pose.position.y,.pose.position.z,.pose.orientation.x,.pose.orientation.y,.pose.orientation.z,.pose.orientation.w
2021/03/16/13:39:09.636673,612345,1615898349,638171196,mocap,-2.77265332031,10.3786630859,1.93268103027,0.183774208557,0.181115900525,0.96371257744,0.0684261008045
2021/03/16/13:39:09.646386,612346,1615898349,648171186,mocap,-2.77260424805,10.3785351563,1.93245715332,0.181932352453,0.181655592044,0.963895231108,0.069338654653
2021/03/16/13:39:09.658070,612347,1615898349,658171177,mocap,-2.77267382812,10.3786826172,1.93268688965,0.183654753827,0.181201912642,0.963705240576,0.0686222631706
2021/03/16/13:39:09.665900,612348,1615898349,668171167,mocap,-2.77265893555,10.3787138672,1.9326953125,0.18367144751,0.18121450151,0.963687219022,0.0687971688505
2021/03/16/13:39:09.677812,612349,1615898349,678171158,mocap,-2.77262402344,10.3785800781,1.93248022461,0.181930788708,0.181752838097,0.963861907975,0.0695508381738
2021/03/16/13:39:09.686188,612350,1615898349,688171148,mocap,-2.7726640625,10.3786982422,1.9326842041,0.183570316789,0.18119864191,0.963707011015,0.0688316150277
2021/03/16/13:39:09.697595,612351,1615898349,698171139,mocap,-2.77265820313,10.3787207031,1.93267358398,0.183657995353,0.181173815559,0.963694641067,0.0688362366153
2021/03/16/13:39:09.706133,612352,1615898349,708171129,mocap,-2.7726652832,10.3787128906,1.93268994141,0.183724143871,0.181116931703,0.963687180365,0.0689137600195
2021/03/16/13:39:09.717900,612353,1615898349,718171120,mocap,-2.77265527344,10.3786894531,1.93267578125,0.183628848328,0.181115256568,0.963696751701,0.069038153672
2021/03/16/13:39:09.726036,612354,1615898349,728171110,mocap,-2.77259423828,10.3785390625,1.93244262695,0.1820364741,0.181606743754,0.963860547508,0.0696746423783
2021/03/16/13:39:09.737842,612355,1615898349,738171101,mocap,-2.77265039062,10.37865625,1.93269287109,0.183591038461,0.180856685867,0.963755739333,0.0689932912941
2021/03/16/13:39:09.746442,612356,1615898349,748171091,mocap,-2.77266113281,10.3786230469,1.93268103027,0.183635048587,0.180956774316,0.963719311224,0.0691223389086
2021/03/16/13:39:09.757647,612357,1615898349,758171082,mocap,-2.77265942383,10.3786015625,1.93264208984,0.18345667489,0.180737891071,0.963796487397,0.0690926501341
2021/03/16/13:39:09.766071,612358,1615898349,768171072,mocap,-2.77260522461,10.3784384766,1.93242431641,0.18212120664,0.18118636646,0.96392724682,0.0696249211223
2021/03/16/13:39:09.776572,612359,1615898349,778171062,mocap,-2.77268676758,10.3785673828,1.93266149902,0.183407561056,0.180649043584,0.963818395243,0.0691497427592
2021/03/16/13:39:09.786160,612360,1615898349,788171053,mocap,-2.77269189453,10.3785351563,1.93264208984,0.183438493969,0.180630255389,0.963821054454,0.0690797419907
2021/03/16/13:39:09.797629,612361,1615898349,798171043,mocap,-2.77269580078,10.3784707031,1.93263549805,0.183401873831,0.180382173936,0.963875257464,0.0690689043568
2021/03/16/13:39:09.806073,612362,1615898349,808171034,mocap,-2.77269628906,10.3784589844,1.93265100098,0.183381507028,0.180303228676,0.963889186496,0.0691346928488
2021/03/16/13:39:09.817538,612363,1615898349,818171024,mocap,-2.77269213867,10.3784414062,1.93262658691,0.183574932031,0.180136848289,0.963894844625,0.0689760434666
2021/03/16/13:39:09.825886,612364,1615898349,828171015,mocap,-2.77267895508,10.3784023438,1.93263427734,0.18353500626,0.179965908771,0.963948115978,0.0687837890036
2021/03/16/13:39:09.837355,612365,1615898349,838171005,mocap,-2.77268774414,10.3783759766,1.93263000488,0.18350042859,0.179874245145,0.963967183809,0.0688485159287
2021/03/16/13:39:09.846146,612366,1615898349,848170996,mocap,-2.77267578125,10.3783857422,1.93264123535,0.183431999181,0.179775105467,0.963999088928,0.0688430510667
2021/03/16/13:39:09.856368,612367,1615898349,858170986,mocap,-2.77267456055,10.3783769531,1.93263085937,0.183552903537,0.179738731489,0.963990146636,0.0687408586347
2021/03/16/13:39:09.867448,612368,1615898349,868170977,mocap,-2.77266796875,10.3783681641,1.93263476563,0.18348364541,0.179731084566,0.963999158488,0.068819355319
2021/03/16/13:39:09.876221,612369,1615898349,878171206,mocap,-2.77265869141,10.3783701172,1.93260131836,0.18355850233,0.179727327304,0.963992241165,0.0687264746118
2021/03/16/13:39:09.887484,612370,1615898349,888171196,mocap,-2.77265258789,10.3783916016,1.93261499023,0.183620672333,0.179687616276,0.96399439752,0.0686338972022
2021/03/16/13:39:09.896012,612371,1615898349,898171186,mocap,-2.77264501953,10.3784003906,1.93262158203,0.183483667927,0.179658317437,0.964030428806,0.0685709891898
2021/03/16/13:39:09.907266,612372,1615898349,908171177,mocap,-2.77260351563,10.3784101563,1.93258618164,0.183592412464,0.179631186678,0.964024972417,0.0684273815589
2021/03/16/13:39:09.917151,612373,1615898349,918171167,mocap,-2.77257006836,10.3784384766,1.93257958984,0.183691993199,0.17964962397,0.964013750399,0.0682696719812
2021/03/16/13:39:09.926179,612374,1615898349,928171158,mocap,-2.77256396484,10.3784648438,1.93260852051,0.183769083544,0.179837310626,0.963966008988,0.0682421077607
2021/03/16/13:39:09.936853,612375,1615898349,938171148,mocap,-2.77253637695,10.3785107422,1.93261083984,0.183697081572,0.179785421131,0.964000634692,0.0680834109063
2021/03/16/13:39:09.947042,612376,1615898349,948171139,mocap,-2.77249780273,10.3785429688,1.93260986328,0.183849216137,0.179815587714,0.963976721448,0.0679315670289
2021/03/16/13:39:09.957268,612377,1615898349,958171129,mocap,-2.77250805664,10.378609375,1.93265490723,0.183799011399,0.179947843294,0.963969409782,0.0678208610659
2021/03/16/13:39:09.968283,612378,1615898349,968171120,mocap,-2.77247827148,10.3786572266,1.93263745117,0.183689855431,0.179956629838,0.963996577057,0.0677070824342
2021/03/16/13:39:09.978288,612379,1615898349,978171110,mocap,-2.77247583008,10.3786855469,1.93263562012,0.183542456278,0.180029910308,0.964008726726,0.0677390840112
2021/03/16/13:39:09.986208,612380,1615898349,988171101,mocap,-2.77250488281,10.3787373047,1.93267749023,0.183392495786,0.180139948669,0.96403045972,0.0675429359623
2021/03/16/13:39:09.997026,612381,1615898349,998171091,mocap,-2.77250073242,10.3788017578,1.93267541504,0.183262611568,0.180159787898,0.964053784274,0.0675097931787
2021/03/16/13:39:10.006258,612382,1615898350,8171082,mocap,-2.77252124023,10.3788632813,1.93269567871,0.183038393227,0.180163442579,0.964103538345,0.0673976942906
2021/03/16/13:39:10.018119,612383,1615898350,18171072,mocap,-2.77251098633,10.3789257813,1.93268505859,0.183087826224,0.180336906421,0.964069859184,0.0672811437402
2021/03/16/13:39:10.026666,612384,1615898350,28171062,mocap,-2.77250830078,10.3789775391,1.93267114258,0.183053069209,0.180355352684,0.964084365016,0.067118226844
2021/03/16/13:39:10.036094,612385,1615898350,38171053,mocap,-2.77250317383,10.3790556641,1.9327253418,0.182847716887,0.180414362374,0.96412633564,0.066916153696
2021/03/16/13:39:10.047807,612386,1615898350,48171043,mocap,-2.77248901367,10.3791171875,1.93269787598,0.183089925269,0.180448463963,0.964087943139,0.0667147499193
2021/03/16/13:39:10.056344,612387,1615898350,58171034,mocap,-2.77247290039,10.3792099609,1.93269091797,0.182847013601,0.180641436924,0.964103028297,0.0666407827793
2021/03/16/13:39:10.067885,612388,1615898350,68171024,mocap,-2.77246362305,10.3792802734,1.93268395996,0.18280239546,0.180788769369,0.964093229153,0.0665053340225
2021/03/16/13:39:10.076125,612389,1615898350,78171015,mocap,-2.77245043945,10.3793476562,1.93265979004,0.182618914694,0.180857677971,0.964121915325,0.0664059815533
2021/03/16/13:39:10.086059,612390,1615898350,88171005,mocap,-2.77243188477,10.3794160156,1.93264831543,0.182825166809,0.180834452225,0.964095895334,0.0662794350363
2021/03/16/13:39:10.096629,612391,1615898350,98170996,mocap,-2.77240039063,10.3794619141,1.93262451172,0.182577456881,0.180741827584,0.964164262962,0.0662204621087
2021/03/16/13:39:10.106645,612392,1615898350,108170986,mocap,-2.77230126953,10.3793955078,1.93241418457,0.180970859054,0.181219955522,0.964341932757,0.0667346789518
2021/03/16/13:39:10.116738,612393,1615898350,118170977,mocap,-2.77231274414,10.3795761719,1.93261352539,0.182557097791,0.180631660233,0.964199468815,0.0660643160029
2021/03/16/13:39:10.126548,612394,1615898350,128171206,mocap,-2.77225952148,10.3796308594,1.93261584473,0.182496639247,0.180714826312,0.964198819729,0.0660133347165
2021/03/16/13:39:10.136189,612395,1615898350,138171196,mocap,-2.77212451172,10.3795605469,1.9323684082,0.180995286405,0.181289320711,0.964332190124,0.0666206661168
2021/03/16/13:39:10.147323,612396,1615898350,148171186,mocap,-2.77209838867,10.3797675781,1.93259533691,0.182907641725,0.180683510411,0.964143344389,0.0657714395163
2021/03/16/13:39:10.156210,612397,1615898350,158171177,mocap,-2.77195629883,10.3797138672,1.93237524414,0.181142617387,0.181279155979,0.964318282944,0.0664489583569
2021/03/16/13:39:10.165968,612398,1615898350,168171167,mocap,-2.77188061523,10.3797539063,1.93230322266,0.181624492933,0.181340589483,0.964233552976,0.0661951575437
2021/03/16/13:39:10.177424,612399,1615898350,178171158,mocap,-2.77179443359,10.3798085938,1.93228356934,0.181450631515,0.181449302484,0.964236126046,0.066336412612
2021/03/16/13:39:10.186376,612400,1615898350,188171148,mocap,-2.77178662109,10.380015625,1.93255981445,0.183330254493,0.180920932247,0.964029988277,0.0656035433007
2021/03/16/13:39:10.197451,612401,1615898350,198171139,mocap,-2.77174194336,10.380078125,1.93256188965,0.183376042187,0.180985195185,0.96400664769,0.0656412839608
2021/03/16/13:39:10.206288,612402,1615898350,208171129,mocap,-2.77164672852,10.3801357422,1.93253369141,0.183410740991,0.181008728267,0.964001384387,0.0655566225777
2021/03/16/13:39:10.216624,612403,1615898350,218171120,mocap,-2.77159057617,10.3801875,1.93255334473,0.183592812044,0.18104456687,0.963965004206,0.0654829206304
2021/03/16/13:39:10.227269,612404,1615898350,228171110,mocap,-2.77152172852,10.3802490234,1.93256335449,0.183437171421,0.181202016208,0.963958179388,0.0655838835317
2021/03/16/13:39:10.236339,612405,1615898350,238171101,mocap,-2.77146191406,10.3803222656,1.93257299805,0.183610729902,0.181379654301,0.963897472706,0.0654996130376
2021/03/16/13:39:10.247331,612406,1615898350,248171091,mocap,-2.77138134766,10.3803798828,1.93257019043,0.183573680636,0.181489730874,0.963883110927,0.0655097941487
2021/03/16/13:39:10.256036,612407,1615898350,258171082,mocap,-2.77130322266,10.3804150391,1.93254931641,0.183453882062,0.181740850745,0.963856118244,0.065546349844
2021/03/16/13:39:10.267047,612408,1615898350,268171072,mocap,-2.77123510742,10.3804824219,1.93256652832,0.183594507761,0.18182672532,0.963822546392,0.0654079029491
2021/03/16/13:39:10.276083,612409,1615898350,278171062,mocap,-2.77116601562,10.3804902344,1.93257556152,0.183586121909,0.182132876496,0.963766979818,0.065398413055
2021/03/16/13:39:10.286153,612410,1615898350,288171053,mocap,-2.77109619141,10.3804746094,1.93252697754,0.183491201613,0.18232555034,0.963745434153,0.0654453538276
2021/03/16/13:39:10.298104,612411,1615898350,298171043,mocap,-2.7710300293,10.3804814453,1.93254589844,0.183280261155,0.182427320628,0.963768788797,0.0654090040486
2021/03/16/13:39:10.306219,612412,1615898350,308171034,mocap,-2.77095751953,10.3804345703,1.93253076172,0.183407314912,0.182611486689,0.963719674585,0.0652624282599
2021/03/16/13:39:10.318108,612413,1615898350,318171024,mocap,-2.77088647461,10.3803867187,1.93254602051,0.183206082549,0.18281058717,0.963707598583,0.0654483407228
2021/03/16/13:39:10.326271,612414,1615898350,328171015,mocap,-2.77079760742,10.3803310547,1.93254541016,0.183054348896,0.18290067072,0.963719411728,0.065447229223
2021/03/16/13:39:10.337928,612415,1615898350,338171005,mocap,-2.77068310547,10.3802363281,1.93254968262,0.18334434496,0.183105047333,0.963634582713,0.0653129395943
2021/03/16/13:39:10.346218,612416,1615898350,348170996,mocap,-2.77058227539,10.3801289063,1.9325703125,0.182879001904,0.183298595841,0.963670882591,0.0655387931742
2021/03/16/13:39:10.357974,612417,1615898350,358170986,mocap,-2.77045141602,10.3799980469,1.93260900879,0.182853255643,0.183539791747,0.963630098289,0.0655352066528
2021/03/16/13:39:10.366337,612418,1615898350,368170977,mocap,-2.77033764648,10.3798417969,1.9326751709,0.18268505274,0.183773818525,0.963603577902,0.0657381031471
2021/03/16/13:39:10.377805,612419,1615898350,378171206,mocap,-2.77011181641,10.3795400391,1.93247009277,0.181325424021,0.184590902243,0.963662764526,0.0663428234921
2021/03/16/13:39:10.386187,612420,1615898350,388171196,mocap,-2.76995751953,10.3793154297,1.932484375,0.181256610499,0.184904826526,0.963612632028,0.0663848408908
2021/03/16/13:39:10.397837,612421,1615898350,398171186,mocap,-2.769796875,10.3790820313,1.93254443359,0.181166785585,0.185067400245,0.963597925795,0.0663904942349
2021/03/16/13:39:10.406198,612422,1615898350,408171177,mocap,-2.76959204102,10.3788398438,1.93257189941,0.181132495837,0.185329683337,0.963554725902,0.0663793833306
2021/03/16/13:39:10.418008,612423,1615898350,418171167,mocap,-2.7694206543,10.3785410156,1.93261181641,0.181050010379,0.185468342259,0.963546722846,0.0663333012038
2021/03/16/13:39:10.426110,612424,1615898350,428171158,mocap,-2.7692277832,10.3781972656,1.93261950684,0.18080107128,0.18568344717,0.963553566043,0.0663111030274
2021/03/16/13:39:10.437841,612425,1615898350,438171148,mocap,-2.76901367187,10.3777861328,1.93262426758,0.180650796084,0.185961344054,0.963525829529,0.0663448780238
2021/03/16/13:39:10.446326,612426,1615898350,448171139,mocap,-2.76879394531,10.3773710937,1.9326282959,0.180456624691,0.186231324276,0.963519210382,0.066211994455
2021/03/16/13:39:10.456771,612427,1615898350,458171129,mocap,-2.76853833008,10.3768769531,1.93257580566,0.180158315681,0.186501957118,0.96352234211,0.0662170171502
2021/03/16/13:39:10.466463,612428,1615898350,468171120,mocap,-2.76825537109,10.3763535156,1.93252331543,0.180212669348,0.186882426564,0.963433118669,0.0662945980666
2021/03/16/13:39:10.476056,612429,1615898350,478171110,mocap,-2.76794873047,10.3758300781,1.93252307129,0.180184323862,0.187164291381,0.963401914033,0.0660293913417
2021/03/16/13:39:10.486209,612430,1615898350,488171101,mocap,-2.76763476562,10.3752578125,1.93250317383,0.18038221167,0.187374425809,0.963330994162,0.0659277835898
2021/03/16/13:39:10.496301,612431,1615898350,498171091,mocap,-2.76737548828,10.3747294922,1.93266491699,0.181982592503,0.187158189172,0.963133125642,0.0650286932054
2021/03/16/13:39:10.506608,612432,1615898350,508171082,mocap,-2.76705566406,10.3739970703,1.93263037109,0.181530935453,0.187541157569,0.963150917759,0.06492413907
2021/03/16/13:39:10.516193,612433,1615898350,518171072,mocap,-2.76671459961,10.3732558594,1.93257116699,0.181541477643,0.187702877239,0.963123100026,0.064839867783
2021/03/16/13:39:10.526228,612434,1615898350,528171062,mocap,-2.76627050781,10.3723505859,1.93228613281,0.179976230275,0.188527159001,0.963217101548,0.0654131339251
2021/03/16/13:39:10.537680,612435,1615898350,538171053,mocap,-2.76588574219,10.3714746094,1.9321920166,0.179651723185,0.188631567021,0.963272282171,0.0651912694385
2021/03/16/13:39:10.546097,612436,1615898350,548171043,mocap,-2.76539355469,10.3704599609,1.9319831543,0.180145261936,0.189520455475,0.963007596786,0.0651617000393
2021/03/16/13:39:10.557592,612437,1615898350,558171034,mocap,-2.76497143555,10.3695585937,1.93200866699,0.179152477213,0.189139732544,0.963278670977,0.0649980220509
2021/03/16/13:39:10.566468,612438,1615898350,568171024,mocap,-2.76457006836,10.3686933594,1.93216455078,0.180582965288,0.188367321382,0.96324019828,0.063842471314
2021/03/16/13:39:10.577577,612439,1615898350,578171015,mocap,-2.76402880859,10.3675996094,1.93204956055,0.180681025676,0.188368185197,0.963233368326,0.0636654335242
2021/03/16/13:39:10.586208,612440,1615898350,588171005,mocap,-2.76347900391,10.3664833984,1.93195349121,0.180235945607,0.188252332086,0.963354706883,0.063433248615
2021/03/16/13:39:10.597286,612441,1615898350,598170996,mocap,-2.76282519531,10.3652099609,1.93160131836,0.178743380251,0.18879207701,0.963500582189,0.0638356795714
2021/03/16/13:39:10.606193,612442,1615898350,608170986,mocap,-2.76217529297,10.3640087891,1.9314420166,0.179160912449,0.188888583222,0.963416878464,0.0636426924089
2021/03/16/13:39:10.617507,612443,1615898350,618170977,mocap,-2.76149853516,10.3627392578,1.93130834961,0.178865068575,0.188785455108,0.963516302892,0.0632745751455
2021/03/16/13:39:10.626275,612444,1615898350,628171206,mocap,-2.76083935547,10.3615732422,1.93136975098,0.180528575361,0.188117568751,0.963399493408,0.0623106375046
2021/03/16/13:39:10.637402,612445,1615898350,638171196,mocap,-2.76004467773,10.3601162109,1.93096398926,0.178798780258,0.188820749737,0.963549158566,0.0628549453747
2021/03/16/13:39:10.646174,612446,1615898350,648171186,mocap,-2.75930175781,10.3588759766,1.93100842285,0.180856260406,0.188047290906,0.963391937616,0.0616863914525
2021/03/16/13:39:10.657361,612447,1615898350,658171177,mocap,-2.75841625977,10.357296875,1.93052490234,0.179074990147,0.188606550255,0.963590100935,0.0620792178023
2021/03/16/13:39:10.666795,612448,1615898350,668171167,mocap,-2.75758764648,10.3558798828,1.93032592773,0.179255068779,0.188598279649,0.963582422924,0.0617027461043
2021/03/16/13:39:10.676044,612449,1615898350,678171158,mocap,-2.7567355957,10.3543486328,1.9300435791,0.179372052327,0.188710855033,0.963568945662,0.0612270544893
2021/03/16/13:39:10.688161,612450,1615898350,688171148,mocap,-2.75593969727,10.3530078125,1.93004602051,0.18096970161,0.188201441772,0.963430125851,0.0602710202784
2021/03/16/13:39:10.696028,612451,1615898350,698171139,mocap,-2.75497485352,10.3513046875,1.92947814941,0.179074927547,0.189367926627,0.963533229619,0.0606272947809
2021/03/16/13:39:10.708106,612452,1615898350,708171129,mocap,-2.75413964844,10.3499335938,1.92944628906,0.180905022885,0.189168568012,0.963284889579,0.059756644328
2021/03/16/13:39:10.716258,612453,1615898350,718171120,mocap,-2.75323828125,10.3483115234,1.92914025879,0.180526724436,0.189738178452,0.963270286628,0.0593286123361
2021/03/16/13:39:10.726214,612454,1615898350,728171110,mocap,-2.75233569336,10.3466933594,1.92879125977,0.180244720531,0.190360133812,0.963223854267,0.0589462302607
2021/03/16/13:39:10.736131,612455,1615898350,738171101,mocap,-2.75138110352,10.3449648438,1.92838183594,0.180135706998,0.191003340177,0.963142764369,0.0585222564587
2021/03/16/13:39:10.746460,612456,1615898350,748171091,mocap,-2.75043432617,10.3432226562,1.92801477051,0.179800722862,0.191375660096,0.963149339689,0.0582271782043
2021/03/16/13:39:10.756333,612457,1615898350,758171082,mocap,-2.74946411133,10.3414453125,1.92763256836,0.179807916898,0.191986927979,0.963051053315,0.0578169353943
2021/03/16/13:39:10.767147,612458,1615898350,768171072,mocap,-2.74853833008,10.3395771484,1.92709973145,0.179667672881,0.192669699902,0.962974366731,0.0572563346281
2021/03/16/13:39:10.776800,612459,1615898350,778171062,mocap,-2.74755541992,10.3376298828,1.92640356445,0.179917412829,0.193833821455,0.962703353901,0.0571001390824
2021/03/16/13:39:10.786236,612460,1615898350,788171053,mocap,-2.74660253906,10.33571875,1.9257611084,0.177306535019,0.194451797391,0.963042226003,0.0574504726486
2021/03/16/13:39:10.798083,612461,1615898350,798171043,mocap,-2.74568603516,10.3339023437,1.92514819336,0.178799416422,0.194753741881,0.962770125643,0.0563509933213
2021/03/16/13:39:10.806191,612462,1615898350,808171034,mocap,-2.74463549805,10.3317460938,1.92377062988,0.177583760651,0.196982487562,0.962514954921,0.0568054992202
2021/03/16/13:39:10.816587,612463,1615898350,818171024,mocap,-2.74377124023,10.3298378906,1.92281811523,0.176581412961,0.197450906358,0.962618744944,0.0565446414715
2021/03/16/13:39:10.826041,612464,1615898350,828171015,mocap,-2.74291821289,10.3278417969,1.92153125,0.179725753264,0.198724285474,0.961834852956,0.0555069801427
2021/03/16/13:39:10.837768,612465,1615898350,838171005,mocap,-2.74202709961,10.3258759766,1.92046008301,0.177291213719,0.1995488085,0.962090722917,0.0559423334622
2021/03/16/13:39:10.846469,612466,1615898350,848170996,mocap,-2.74108789062,10.3235761719,1.91881176758,0.175567012803,0.201121009395,0.962053650928,0.0563856287661
2021/03/16/13:39:10.856591,612467,1615898350,858170986,mocap,-2.7402409668,10.3213144531,1.9173807373,0.17863650383,0.202249475826,0.961315669878,0.0552841497575
2021/03/16/13:39:10.865894,612468,1615898350,868170977,mocap,-2.7395300293,10.3191152344,1.91654296875,0.176554572102,0.202462889129,0.961631346077,0.0556993236004
2021/03/16/13:39:10.877675,612469,1615898350,878171206,mocap,-2.73870117187,10.3164697266,1.91503503418,0.176089998852,0.204200859298,0.961333751391,0.0559618665048
2021/03/16/13:39:10.886366,612470,1615898350,888171196,mocap,-2.73814013672,10.3141542969,1.91461193848,0.17596638651,0.203686133839,0.961509146885,0.0552082450551
2021/03/16/13:39:10.897649,612471,1615898350,898171186,mocap,-2.7374465332,10.3115097656,1.91372961426,0.174927456255,0.204072869093,0.961623574946,0.0550885414393
2021/03/16/13:39:10.906295,612472,1615898350,908171177,mocap,-2.7368449707,10.3088222656,1.91306030273,0.174855490537,0.204154360495,0.961640806162,0.0547130731742
2021/03/16/13:39:10.917697,612473,1615898350,918171167,mocap,-2.73619555664,10.3059150391,1.91222937012,0.172577410927,0.204838207353,0.961878772998,0.0552047872878
2021/03/16/13:39:10.927539,612474,1615898350,928171158,mocap,-2.73567163086,10.3030322266,1.91174365234,0.17619028349,0.204950213911,0.961271778363,0.053934781785
2021/03/16/13:39:10.936296,612475,1615898350,938171148,mocap,-2.7351784668,10.3001132813,1.91150292969,0.175691684066,0.204450093953,0.961492556476,0.0535224310828
2021/03/16/13:39:10.946394,612476,1615898350,948171139,mocap,-2.73477050781,10.2971542969,1.91167712402,0.173805296351,0.203788715214,0.961974476113,0.0535442765294
2021/03/16/13:39:10.956364,612477,1615898350,958171129,mocap,-2.73431567383,10.2938398437,1.91142077637,0.171987057776,0.203841322242,0.962279847593,0.0537275537336
2021/03/16/13:39:10.966208,612478,1615898350,968171120,mocap,-2.73397680664,10.2905371094,1.91150439453,0.175569612382,0.203017986433,0.961898431796,0.0520616616269
2021/03/16/13:39:10.977663,612479,1615898350,978171110,mocap,-2.73367944336,10.2871806641,1.91175524902,0.175562486459,0.202257766573,0.96208439592,0.0516064982487
2021/03/16/13:39:10.986298,612480,1615898350,988171101,mocap,-2.73337670898,10.2837001953,1.91211450195,0.172019543082,0.201224321853,0.962924871551,0.0519012906615
2021/03/16/13:39:10.997343,612481,1615898350,998171091,mocap,-2.73320507813,10.2802597656,1.9126270752,0.173203870538,0.199466397674,0.963131764145,0.0508997101684
2021/03/16/13:39:11.006230,612482,1615898351,8171082,mocap,-2.73304296875,10.2766230469,1.91293884277,0.172874000172,0.198236193925,0.963461816761,0.0505798924241
2021/03/16/13:39:11.017603,612483,1615898351,18171072,mocap,-2.7329074707,10.2728417969,1.91293347168,0.174519759305,0.197519880023,0.963334930855,0.0501454825389
2021/03/16/13:39:11.026605,612484,1615898351,28171062,mocap,-2.7328737793,10.2691113281,1.91316833496,0.174201417102,0.196091331754,0.963697045488,0.0499005204213
2021/03/16/13:39:11.037973,612485,1615898351,38171053,mocap,-2.73298461914,10.2654404297,1.9135970459,0.172344203312,0.194603857609,0.964308880031,0.0503507278614
2021/03/16/13:39:11.046057,612486,1615898351,48171043,mocap,-2.73309594727,10.2615810547,1.91366430664,0.171689993774,0.193673853716,0.964599439447,0.0506054386393
2021/03/16/13:39:11.058271,612487,1615898351,58171034,mocap,-2.73326367188,10.2577597656,1.91363305664,0.171189582852,0.193265666684,0.964749999646,0.0509896392325
2021/03/16/13:39:11.066278,612488,1615898351,68171024,mocap,-2.73343457031,10.2537138672,1.91324584961,0.172456605355,0.193285612213,0.964515954679,0.0510721715808
2021/03/16/13:39:11.078168,612489,1615898351,78171015,mocap,-2.73371606445,10.2498466797,1.91332141113,0.169741580057,0.192314916767,0.965148198207,0.0518817784914
2021/03/16/13:39:11.086259,612490,1615898351,88171005,mocap,-2.73389697266,10.2457265625,1.91284191895,0.169902865301,0.193009840477,0.964944247367,0.0525625071285
2021/03/16/13:39:11.096104,612491,1615898351,98170996,mocap,-2.73425683594,10.2416572266,1.91264196777,0.168735072428,0.192115953482,0.965298194273,0.0530973463799
2021/03/16/13:39:11.107180,612492,1615898351,108170986,mocap,-2.73452270508,10.2372675781,1.91196984863,0.165900392191,0.192583429462,0.965615732031,0.0545430721398
2021/03/16/13:39:11.116123,612493,1615898351,118170977,mocap,-2.7348996582,10.2330029297,1.9115682373,0.167436316344,0.192369298373,0.965410730051,0.0542333119229
2021/03/16/13:39:11.127198,612494,1615898351,128171206,mocap,-2.73522094727,10.2285332031,1.91100744629,0.16679186704,0.192306195133,0.965512920097,0.0546224801438
2021/03/16/13:39:11.136953,612495,1615898351,138171196,mocap,-2.73553027344,10.2238779297,1.91025720215,0.167378734862,0.192947594362,0.965249597853,0.055216030736
2021/03/16/13:39:11.145930,612496,1615898351,148171186,mocap,-2.73595214844,10.2190693359,1.90957592773,0.164071025398,0.192928293444,0.965755595478,0.0563515650948
2021/03/16/13:39:11.158064,612497,1615898351,158171177,mocap,-2.73640136719,10.2142773438,1.90905737305,0.16562182855,0.192507481531,0.965593131938,0.056037391169
2021/03/16/13:39:11.166513,612498,1615898351,168171167,mocap,-2.73681176758,10.2092636719,1.90840649414,0.164849652652,0.192136225647,0.965774403899,0.0564629564238
2021/03/16/13:39:11.177944,612499,1615898351,178171158,mocap,-2.73725830078,10.2040341797,1.90760180664,0.165107396984,0.191971871697,0.965764166547,0.0564439219993
2021/03/16/13:39:11.186150,612500,1615898351,188171148,mocap,-2.73773022461,10.1985410156,1.90656567383,0.166133121778,0.192185745443,0.965531177654,0.0566919608057
2021/03/16/13:39:11.198125,612501,1615898351,198171139,mocap,-2.73825927734,10.1931113281,1.90604003906,0.163858055486,0.190861301632,0.966163435447,0.0570150142176
2021/03/16/13:39:11.206451,612502,1615898351,208171129,mocap,-2.73878442383,10.1874599609,1.9052208252,0.163834768359,0.189972119403,0.966347877201,0.0569257575786
2021/03/16/13:39:11.218080,612503,1615898351,218171120,mocap,-2.73936010742,10.1816416016,1.90440795898,0.163188379687,0.189043913837,0.966638902801,0.056931507033
2021/03/16/13:39:11.226083,612504,1615898351,228171110,mocap,-2.73992626953,10.1756269531,1.90349804688,0.16301105218,0.187831244713,0.966907356192,0.0568946093651
2021/03/16/13:39:11.237736,612505,1615898351,238171101,mocap,-2.74049951172,10.1695039063,1.90262548828,0.163015565762,0.186619613722,0.967160982868,0.0565568573815
2021/03/16/13:39:11.246072,612506,1615898351,248171091,mocap,-2.7411081543,10.1632753906,1.90175927734,0.162417415899,0.185580682213,0.967470392999,0.0564042797496
2021/03/16/13:39:11.255884,612507,1615898351,258171082,mocap,-2.74173730469,10.1569042969,1.90083959961,0.162832705046,0.18403630683,0.967728914994,0.0558291963107
2021/03/16/13:39:11.266804,612508,1615898351,268171072,mocap,-2.74238134766,10.1503613281,1.89992407227,0.162301187305,0.182772647023,0.96807003769,0.0556136473001
2021/03/16/13:39:11.277664,612509,1615898351,278171062,mocap,-2.74307348633,10.1437880859,1.89899194336,0.162328007722,0.181489436992,0.968324367788,0.0553092989292
2021/03/16/13:39:11.286595,612510,1615898351,288171053,mocap,-2.74374414063,10.1370947266,1.89804699707,0.162516801166,0.180194166694,0.968548284572,0.0550688701124
2021/03/16/13:39:11.297792,612511,1615898351,298171043,mocap,-2.74451123047,10.1303183594,1.89707727051,0.162372396031,0.178887087584,0.968839895015,0.0546248135955
2021/03/16/13:39:11.306110,612512,1615898351,308171034,mocap,-2.74523803711,10.1234208984,1.89607543945,0.162694775866,0.177890744365,0.968987866394,0.0542938170643
2021/03/16/13:39:11.317662,612513,1615898351,318171024,mocap,-2.74603808594,10.1164287109,1.8951126709,0.162555895368,0.176888805828,0.969217272322,0.0538870156547
2021/03/16/13:39:11.326120,612514,1615898351,328171015,mocap,-2.74683691406,10.1093759766,1.89405981445,0.162917585137,0.176118708386,0.969308607495,0.0536738743684
2021/03/16/13:39:11.336306,612515,1615898351,338171005,mocap,-2.74773730469,10.1022207031,1.89318017578,0.163451851166,0.175382933553,0.969364986257,0.053440104137
2021/03/16/13:39:11.346068,612516,1615898351,348170996,mocap,-2.74862475586,10.0949638672,1.89219458008,0.16344522389,0.174815574817,0.969485887854,0.0531251997082
2021/03/16/13:39:11.356483,612517,1615898351,358170986,mocap,-2.74957861328,10.0875136719,1.89120922852,0.163440053939,0.174711516533,0.969498821764,0.0532472124454
2021/03/16/13:39:11.366395,612518,1615898351,368170977,mocap,-2.75065039063,10.0801230469,1.89055969238,0.16367518674,0.17366534449,0.969667684529,0.0528711446703
2021/03/16/13:39:11.376679,612519,1615898351,378171206,mocap,-2.75163110352,10.0725976563,1.88983166504,0.163629441,0.172971359275,0.969839283518,0.0521353502533
2021/03/16/13:39:11.386291,612520,1615898351,388171196,mocap,-2.75283032227,10.0649570312,1.88925073242,0.163647916692,0.172537198649,0.969929384839,0.0518387764837
2021/03/16/13:39:11.397547,612521,1615898351,398171186,mocap,-2.75399511719,10.0572011719,1.88872265625,0.163649266007,0.172255561606,0.969986219112,0.0517076256999
2021/03/16/13:39:11.406348,612522,1615898351,408171177,mocap,-2.75525561523,10.0493632813,1.88828564453,0.163648614426,0.171935185183,0.970048948791,0.0515990420473
2021/03/16/13:39:11.417510,612523,1615898351,418171167,mocap,-2.75653515625,10.0414804688,1.88798095703,0.163249524732,0.171823757116,0.97015243967,0.0512877903292
2021/03/16/13:39:11.426621,612524,1615898351,428171158,mocap,-2.75786645508,10.0334853516,1.88772241211,0.163865449081,0.171806031079,0.970068618668,0.0509674716369
2021/03/16/13:39:11.437288,612525,1615898351,438171148,mocap,-2.75923413086,10.0254228516,1.88758422852,0.163402857682,0.171723174158,0.970174657088,0.0507128842377
2021/03/16/13:39:11.446280,612526,1615898351,448171139,mocap,-2.76056103516,10.0173183594,1.88761865234,0.16400726345,0.171789704617,0.970090638318,0.0501405171367
2021/03/16/13:39:11.457688,612527,1615898351,458171129,mocap,-2.76200878906,10.0090322266,1.88787414551,0.163699678491,0.17208918963,0.970115015263,0.0496445099515
2021/03/16/13:39:11.465906,612528,1615898351,468171120,mocap,-2.76346923828,10.0007734375,1.88852087402,0.163674292924,0.172622397551,0.970042927163,0.0492843889064
2021/03/16/13:39:11.477088,612529,1615898351,478171110,mocap,-2.76497290039,9.99239550781,1.88953466797,0.163572071661,0.173190951762,0.96999031314,0.0486607184511
2021/03/16/13:39:11.486048,612530,1615898351,488171101,mocap,-2.76654443359,9.98388867188,1.89064123535,0.163379466818,0.173548809896,0.969986856644,0.0480983481112
2021/03/16/13:39:11.498200,612531,1615898351,498171091,mocap,-2.76803808594,9.9753359375,1.89187866211,0.163699740224,0.173507781971,0.969993400932,0.0470132155299
2021/03/16/13:39:11.506412,612532,1615898351,508171082,mocap,-2.76957788086,9.96676660156,1.89328833008,0.164160831878,0.173464483172,0.969977984916,0.0458695122024
2021/03/16/13:39:11.518183,612533,1615898351,518171072,mocap,-2.77103930664,9.95807226563,1.89478540039,0.164178341075,0.173456148701,0.97003142145,0.0446932271434
2021/03/16/13:39:11.526029,612534,1615898351,528171062,mocap,-2.77259765625,9.94939453125,1.89657019043,0.164927336701,0.173366103869,0.9699698121,0.0436088133032
2021/03/16/13:39:11.537779,612535,1615898351,538171053,mocap,-2.77415454102,9.94063476562,1.89851025391,0.16502070723,0.172728884993,0.970140267104,0.0419613628462
2021/03/16/13:39:11.546428,612536,1615898351,548171043,mocap,-2.77570556641,9.93191601562,1.90057385254,0.165173986548,0.172107532872,0.970274348899,0.040795055033
2021/03/16/13:39:11.558270,612537,1615898351,558171034,mocap,-2.77723852539,9.92315234375,1.90257617188,0.165259918157,0.171126146396,0.970505147352,0.0390480986764
2021/03/16/13:39:11.566117,612538,1615898351,568171024,mocap,-2.77880859375,9.91442773437,1.90450561523,0.165544724356,0.169770646178,0.970753152276,0.0375657682236
2021/03/16/13:39:11.577847,612539,1615898351,578171015,mocap,-2.78029223633,9.90572460937,1.90630041504,0.165301504509,0.168661354783,0.971044622331,0.0360709148328
2021/03/16/13:39:11.586378,612540,1615898351,588171005,mocap,-2.78179077148,9.89720019531,1.9079083252,0.165717425016,0.167532712541,0.971225337092,0.0345234019461
2021/03/16/13:39:11.598050,612541,1615898351,598170996,mocap,-2.78319799805,9.88872265625,1.90931982422,0.165926259423,0.16650278564,0.971413312275,0.0331886584421
2021/03/16/13:39:11.606378,612542,1615898351,608170986,mocap,-2.78454736328,9.88040625,1.91045227051,0.165748911938,0.166052237564,0.971564020528,0.031895035476
2021/03/16/13:39:11.617983,612543,1615898351,618170977,mocap,-2.78595532227,9.87219335938,1.91142431641,0.16597492629,0.165667387101,0.971625720495,0.0308237020739
2021/03/16/13:39:11.626431,612544,1615898351,628171206,mocap,-2.78725512695,9.864125,1.9122355957,0.165474553454,0.165940867321,0.971694263751,0.0298672293122
2021/03/16/13:39:11.637688,612545,1615898351,638171196,mocap,-2.7886081543,9.85618261719,1.91301782227,0.165513193905,0.16621352346,0.971662373604,0.0291664863402
2021/03/16/13:39:11.646115,612546,1615898351,648171186,mocap,-2.78984716797,9.84819140625,1.91360900879,0.165103991027,0.167008268838,0.971615077032,0.0285141195128
2021/03/16/13:39:11.657848,612547,1615898351,658171177,mocap,-2.79115112305,9.84024707031,1.91424597168,0.164583204943,0.167781465875,0.971573821008,0.0283913589265
2021/03/16/13:39:11.666071,612548,1615898351,668171167,mocap,-2.79232519531,9.83230957031,1.91482727051,0.164434591613,0.168366251439,0.971515077996,0.0277944820583
2021/03/16/13:39:11.677359,612549,1615898351,678171158,mocap,-2.7934543457,9.82433105469,1.91537939453,0.163855728099,0.169141277257,0.971497055603,0.0271293181112
2021/03/16/13:39:11.686272,612550,1615898351,688171148,mocap,-2.79454248047,9.81627539062,1.91592858887,0.163566852372,0.169469561481,0.971503620394,0.0265832697528
2021/03/16/13:39:11.697335,612551,1615898351,698171139,mocap,-2.79554711914,9.80823632813,1.91649279785,0.16296107535,0.169978577334,0.97153526268,0.0258881253576
2021/03/16/13:39:11.706110,612552,1615898351,708171129,mocap,-2.79647998047,9.80009179687,1.91702954102,0.162970274095,0.170197639178,0.971522302198,0.0248568825688
2021/03/16/13:39:11.717709,612553,1615898351,718171120,mocap,-2.79737939453,9.79199707031,1.91770568848,0.162738624099,0.170567632478,0.971511274149,0.0242623074332
2021/03/16/13:39:11.725895,612554,1615898351,728171110,mocap,-2.7981796875,9.78371777344,1.91832922363,0.16230308758,0.170467749786,0.971627844573,0.0231901453016
2021/03/16/13:39:11.737590,612555,1615898351,738171101,mocap,-2.79891088867,9.77555761719,1.91910107422,0.162179863135,0.170518963012,0.971658792702,0.0223643104104
2021/03/16/13:39:11.746593,612556,1615898351,748171091,mocap,-2.79962133789,9.76724511719,1.91981213379,0.16211200601,0.17032740525,0.971719804252,0.0216539375803
2021/03/16/13:39:11.757622,612557,1615898351,758171082,mocap,-2.80028759766,9.75888574219,1.92057788086,0.161945498301,0.169780093438,0.971866486196,0.0205889437326
2021/03/16/13:39:11.766608,612558,1615898351,768171072,mocap,-2.80083276367,9.75051855469,1.92129797363,0.161586052909,0.169181456609,0.972046526955,0.019827600306
2021/03/16/13:39:11.777190,612559,1615898351,778171062,mocap,-2.80134936523,9.74207910156,1.92207861328,0.161380244063,0.168591932147,0.972201283074,0.0189166366804
2021/03/16/13:39:11.786178,612560,1615898351,788171053,mocap,-2.80186547852,9.73364453125,1.92286645508,0.161214340699,0.167724161941,0.972391559787,0.0182536551772
2021/03/16/13:39:11.797256,612561,1615898351,798171043,mocap,-2.80228466797,9.72515234375,1.92356445313,0.161184566129,0.167055453885,0.972524312274,0.017563183264
2021/03/16/13:39:11.806275,612562,1615898351,808171034,mocap,-2.80267626953,9.71662304688,1.92434997559,0.160420746437,0.165690284775,0.97289495335,0.0169503918774
2021/03/16/13:39:11.816157,612563,1615898351,818171024,mocap,-2.80293554688,9.70815625,1.92491418457,0.160915658536,0.165057742092,0.972934101052,0.016165602781
2021/03/16/13:39:11.827266,612564,1615898351,828171015,mocap,-2.80320361328,9.69963769531,1.92539013672,0.161002572008,0.164767448765,0.972978729961,0.0155647476486
2021/03/16/13:39:11.836130,612565,1615898351,838171005,mocap,-2.80346069336,9.69108496094,1.92592443848,0.160146789099,0.163640381612,0.973316282743,0.0151739093464
2021/03/16/13:39:11.847166,612566,1615898351,848170996,mocap,-2.80359765625,9.6825234375,1.92615136719,0.161256390323,0.163365291888,0.973188752406,0.0145532676749
2021/03/16/13:39:11.856252,612567,1615898351,858170986,mocap,-2.80372387695,9.67409667969,1.92653283691,0.161405179032,0.164174057257,0.97303103691,0.0143477659237
2021/03/16/13:39:11.866130,612568,1615898351,868170977,mocap,-2.80381933594,9.66537695312,1.92657507324,0.161307100613,0.162748149299,0.973294213589,0.0138359685004
2021/03/16/13:39:11.878177,612569,1615898351,878171206,mocap,-2.80389038086,9.65678222656,1.92658569336,0.161534542124,0.162587164712,0.973289949737,0.0133669153763
2021/03/16/13:39:11.886059,612570,1615898351,888171196,mocap,-2.80390234375,9.64820996094,1.92657226562,0.161752489482,0.163491932006,0.973104963249,0.0131622953849
2021/03/16/13:39:11.898226,612571,1615898351,898171186,mocap,-2.80387011719,9.63950488281,1.92623718262,0.162607108367,0.163807307799,0.972915178328,0.0127335425771
2021/03/16/13:39:11.906080,612572,1615898351,908171177,mocap,-2.80382617187,9.63063867187,1.9256862793,0.163545703198,0.163207317593,0.97286615826,0.0121495969185
2021/03/16/13:39:11.918126,612573,1615898351,918171167,mocap,-2.80377612305,9.621890625,1.92522265625,0.164317102507,0.163612304987,0.972669953705,0.0120023574163
2021/03/16/13:39:11.926277,612574,1615898351,928171158,mocap,-2.80370507813,9.61315917969,1.92468359375,0.164002746467,0.164806145408,0.972518129768,0.0122692930682
2021/03/16/13:39:11.938056,612575,1615898351,938171148,mocap,-2.80361279297,9.60424511719,1.92386975098,0.164387670265,0.164354965392,0.972531781793,0.0120861264799
2021/03/16/13:39:11.946205,612576,1615898351,948171139,mocap,-2.8035065918,9.59532519531,1.92291674805,0.164581666392,0.165085275106,0.972375668421,0.0120530504287
2021/03/16/13:39:11.957905,612577,1615898351,958171129,mocap,-2.80330151367,9.58639746094,1.921734375,0.165789229355,0.166085328089,0.97200171727,0.0119269365681
2021/03/16/13:39:11.966193,612578,1615898351,968171120,mocap,-2.80317089844,9.57737402344,1.92046386719,0.166143558745,0.166878761344,0.971804816849,0.0119666872996
2021/03/16/13:39:11.977966,612579,1615898351,978171110,mocap,-2.80297949219,9.56835449219,1.91908508301,0.166473514056,0.167942418777,0.971564963771,0.0119766813609
2021/03/16/13:39:11.986091,612580,1615898351,988171101,mocap,-2.80282714844,9.55923046875,1.91766064453,0.166245049513,0.168363683575,0.971527992561,0.0122313966843
2021/03/16/13:39:11.998062,612581,1615898351,998171091,mocap,-2.80258447266,9.55011621094,1.91601000977,0.167445219212,0.169973190197,0.971044606985,0.0119828499792
2021/03/16/13:39:12.006508,612582,1615898352,8171082,mocap,-2.80233422852,9.54084765625,1.91430603027,0.167707629455,0.17082554635,0.970847520124,0.0121601905348
2021/03/16/13:39:12.017969,612583,1615898352,18171072,mocap,-2.8020300293,9.53168554687,1.91252478027,0.168050490875,0.171796525044,0.970619213384,0.0119714426274
2021/03/16/13:39:12.026131,612584,1615898352,28171062,mocap,-2.80180151367,9.52229003906,1.91064196777,0.168385933965,0.172826683918,0.970376579577,0.0120998901906
2021/03/16/13:39:12.037651,612585,1615898352,38171053,mocap,-2.80152124023,9.51296191406,1.90873522949,0.168576342066,0.17373558382,0.970179280213,0.0122529534204
2021/03/16/13:39:12.046293,612586,1615898352,48171043,mocap,-2.80121850586,9.5034921875,1.90684033203,0.169262426336,0.174964569343,0.969839521669,0.0122036188011
2021/03/16/13:39:12.057657,612587,1615898352,58171034,mocap,-2.80087817383,9.49398828125,1.90500634766,0.169038903714,0.176102713071,0.969669029166,0.0124762725576
2021/03/16/13:39:12.065990,612588,1615898352,68171024,mocap,-2.80060058594,9.48433886719,1.90340075684,0.16918667,0.17685544695,0.969503302098,0.0127027269086
2021/03/16/13:39:12.076480,612589,1615898352,78171015,mocap,-2.8002578125,9.47454980469,1.90180969238,0.16897150175,0.177890591827,0.969345079202,0.0131786315314
2021/03/16/13:39:12.086218,612590,1615898352,88171005,mocap,-2.79995751953,9.46471972656,1.90038317871,0.168451024354,0.178374963182,0.969342727222,0.013464735936
2021/03/16/13:39:12.097436,612591,1615898352,98170996,mocap,-2.79964916992,9.45472070313,1.89911950684,0.168059664783,0.178622911373,0.969361881091,0.0136875147503
2021/03/16/13:39:12.106134,612592,1615898352,108170986,mocap,-2.79929711914,9.44468164062,1.89798291016,0.167769481544,0.178928822972,0.969345025399,0.0144255953781
2021/03/16/13:39:12.117510,612593,1615898352,118170977,mocap,-2.7989128418,9.43460253906,1.89696679687,0.167013773038,0.179466565216,0.969363456734,0.0152529040664
2021/03/16/13:39:12.126254,612594,1615898352,128171206,mocap,-2.7985378418,9.42448046875,1.89612646484,0.166786877789,0.180104909007,0.969271942246,0.0160082270924
2021/03/16/13:39:12.137551,612595,1615898352,138171196,mocap,-2.79811816406,9.41432617188,1.89542004395,0.166386545612,0.180530155006,0.969245952893,0.0169314646583
2021/03/16/13:39:12.146119,612596,1615898352,148171186,mocap,-2.79767944336,9.40414355469,1.89490478516,0.165508970691,0.181076363797,0.969276100785,0.0179438625385
2021/03/16/13:39:12.156083,612597,1615898352,158171177,mocap,-2.79723950195,9.39394628906,1.89473168945,0.164953881781,0.181789499225,0.969212629233,0.0192269265966
2021/03/16/13:39:12.167537,612598,1615898352,168171167,mocap,-2.79680688477,9.38367675781,1.89496569824,0.16398902545,0.182743262133,0.969170686685,0.0205103988326
2021/03/16/13:39:12.176072,612599,1615898352,178171158,mocap,-2.79641552734,9.37331347656,1.89560876465,0.162822840929,0.18360606612,0.969168680224,0.0221270560095
2021/03/16/13:39:12.187295,612600,1615898352,188171148,mocap,-2.7960090332,9.36291113281,1.89647436523,0.162076333511,0.183825603397,0.969219816786,0.0235022381097
2021/03/16/13:39:12.195937,612601,1615898352,198171139,mocap,-2.79552709961,9.3524140625,1.89737854004,0.161712075727,0.183938549241,0.969234652957,0.0244948943769
2021/03/16/13:39:12.207242,612602,1615898352,208171129,mocap,-2.79498632812,9.34192773438,1.89830529785,0.160772790318,0.183874831349,0.969370028288,0.0257662494928
2021/03/16/13:39:12.216274,612603,1615898352,218171120,mocap,-2.79441894531,9.33148632812,1.8993885498,0.161255030421,0.183861963381,0.969269459413,0.0266139475219
2021/03/16/13:39:12.227444,612604,1615898352,228171110,mocap,-2.79382250977,9.32110351562,1.90058654785,0.161009996499,0.18358797209,0.969335179326,0.0275780046616
2021/03/16/13:39:12.236261,612605,1615898352,238171101,mocap,-2.7932253418,9.31083007813,1.9018782959,0.161224072979,0.183559101243,0.969276777219,0.0285552016346
2021/03/16/13:39:12.246420,612606,1615898352,248171091,mocap,-2.79261669922,9.30056640625,1.90317272949,0.161782202672,0.183270544004,0.969218179413,0.0292323542064
2021/03/16/13:39:12.257186,612607,1615898352,258171082,mocap,-2.79199829102,9.29038574219,1.90447619629,0.162119987446,0.182947277104,0.969203419863,0.0298686496409
2021/03/16/13:39:12.266155,612608,1615898352,268171072,mocap,-2.79143017578,9.28028808594,1.90581225586,0.162724192385,0.182376855653,0.969192588363,0.0304178736426
2021/03/16/13:39:12.276382,612609,1615898352,278171062,mocap,-2.79091894531,9.27034082031,1.90705749512,0.163438308207,0.182098377673,0.969111298283,0.0308446161
2021/03/16/13:39:12.286210,612610,1615898352,288171053,mocap,-2.79039526367,9.26049121094,1.90825842285,0.164045628065,0.18195107435,0.969014047201,0.0315373130985
2021/03/16/13:39:12.296952,612611,1615898352,298171043,mocap,-2.78994238281,9.25076367187,1.90947595215,0.164700652497,0.182211033541,0.968836503627,0.0320728280549
2021/03/16/13:39:12.306326,612612,1615898352,308171034,mocap,-2.78951831055,9.24117480469,1.91064746094,0.165379910588,0.182483631401,0.968650966628,0.0326266706577
2021/03/16/13:39:12.318156,612613,1615898352,318171024,mocap,-2.78915185547,9.23165917969,1.91190844727,0.166067432522,0.182841865248,0.968454108119,0.0329713176012
2021/03/16/13:39:12.326396,612614,1615898352,328171015,mocap,-2.78887329102,9.22220800781,1.91313720703,0.16672546444,0.183095512731,0.968268590182,0.0336836104337
2021/03/16/13:39:12.338059,612615,1615898352,338171005,mocap,-2.78865429687,9.21280957031,1.91434069824,0.16751073477,0.183173855377,0.968105186164,0.0340562961171
2021/03/16/13:39:12.346319,612616,1615898352,348170996,mocap,-2.78845825195,9.20344628906,1.91557299805,0.168049203399,0.182984419741,0.968032655923,0.0344811024733
2021/03/16/13:39:12.358227,612617,1615898352,358170986,mocap,-2.78838671875,9.19408984375,1.91676831055,0.168990233743,0.182943080284,0.967858311755,0.0349914975831
2021/03/16/13:39:12.366216,612618,1615898352,368170977,mocap,-2.7883215332,9.18477050781,1.91793493652,0.168946350889,0.18243877588,0.967935334954,0.0356990268291
2021/03/16/13:39:12.378065,612619,1615898352,378171206,mocap,-2.78841308594,9.17556054687,1.91910180664,0.169714086289,0.182061633857,0.967848866253,0.036321807952
2021/03/16/13:39:12.386386,612620,1615898352,388171196,mocap,-2.78850146484,9.16635839844,1.92027832031,0.169447637817,0.181576038338,0.96795744162,0.0370948885376
2021/03/16/13:39:12.398403,612621,1615898352,398171186,mocap,-2.78871044922,9.15719824219,1.92134716797,0.169747706558,0.18118686653,0.967939268314,0.0380868880645
2021/03/16/13:39:12.405980,612622,1615898352,408171177,mocap,-2.78892236328,9.14807128906,1.92229541016,0.169759964449,0.180598688156,0.968005563438,0.039126816866
2021/03/16/13:39:12.417826,612623,1615898352,418171167,mocap,-2.78919799805,9.13903320313,1.92319140625,0.169868565039,0.180022883935,0.968060794361,0.0399341318035
2021/03/16/13:39:12.426197,612624,1615898352,428171158,mocap,-2.78952001953,9.12996289063,1.92399414063,0.169687080701,0.179536485277,0.968133260927,0.0411209830134
2021/03/16/13:39:12.437803,612625,1615898352,438171148,mocap,-2.78987133789,9.121,1.92468115234,0.16950494525,0.178985593467,0.968218480702,0.0422518327675
2021/03/16/13:39:12.446156,612626,1615898352,448171139,mocap,-2.79021875,9.11205761719,1.92528613281,0.169489720638,0.17838634036,0.968296967989,0.0430409305569
2021/03/16/13:39:12.457805,612627,1615898352,458171129,mocap,-2.79059814453,9.10307617187,1.92575927734,0.169305963461,0.177436625174,0.968465494094,0.0438898029977
2021/03/16/13:39:12.466155,612628,1615898352,468171120,mocap,-2.79102270508,9.09416308594,1.92619775391,0.169223340714,0.177062008665,0.968501497513,0.0449149844662
2021/03/16/13:39:12.476656,612629,1615898352,478171110,mocap,-2.7914777832,9.08524902344,1.92650769043,0.168970019456,0.176300287283,0.968640713526,0.0458531655234
2021/03/16/13:39:12.486264,612630,1615898352,488171101,mocap,-2.79187011719,9.07628613281,1.92694360352,0.167657605282,0.175580567265,0.968899853714,0.0479110372767
2021/03/16/13:39:12.497815,612631,1615898352,498171091,mocap,-2.79238842773,9.06738574219,1.92708825684,0.167220401525,0.175131273835,0.969027171938,0.0485048692192
2021/03/16/13:39:12.506314,612632,1615898352,508171082,mocap,-2.79294165039,9.05849316406,1.92719018555,0.166326165169,0.174577355592,0.969231255263,0.0494886166233
2021/03/16/13:39:12.517337,612633,1615898352,518171072,mocap,-2.79339941406,9.049625,1.92713427734,0.16667287906,0.17446688594,0.969148184867,0.0503313185306
2021/03/16/13:39:12.526161,612634,1615898352,528171062,mocap,-2.79393212891,9.04073046875,1.92706738281,0.165813356647,0.17442654424,0.969233423024,0.0516513780631
2021/03/16/13:39:12.537598,612635,1615898352,538171053,mocap,-2.79454907227,9.03186621094,1.92678222656,0.165344765382,0.174468086684,0.969266553798,0.0523865348375
2021/03/16/13:39:12.546284,612636,1615898352,548171043,mocap,-2.79509423828,9.02295996094,1.92647595215,0.164662299126,0.174834411214,0.969263563619,0.0533610052525
2021/03/16/13:39:12.557963,612637,1615898352,558171034,mocap,-2.79567016602,9.01401464844,1.92607629395,0.164152235083,0.175028785937,0.969255277163,0.0544351184772
2021/03/16/13:39:12.566324,612638,1615898352,568171024,mocap,-2.79624316406,9.00507519531,1.92555126953,0.163976302227,0.175444624133,0.969175868103,0.0550372331303
2021/03/16/13:39:12.577678,612639,1615898352,578171015,mocap,-2.79682495117,8.9961015625,1.92501623535,0.163438750654,0.176125935249,0.969116925923,0.0554960547517
2021/03/16/13:39:12.586187,612640,1615898352,588171005,mocap,-2.79744873047,8.98704296875,1.92435192871,0.162885864476,0.176599602759,0.969070973598,0.0564111743207
2021/03/16/13:39:12.597534,612641,1615898352,598170996,mocap,-2.79802807617,8.97792382813,1.92357446289,0.162692414316,0.177142866321,0.968975187094,0.0569092282925
2021/03/16/13:39:12.605994,612642,1615898352,608170986,mocap,-2.7986015625,8.96878027344,1.92270349121,0.162275460022,0.177853739256,0.968909642694,0.0569984909042
2021/03/16/13:39:12.617440,612643,1615898352,618170977,mocap,-2.79921142578,8.95954199219,1.92174963379,0.161855192626,0.178144103383,0.968878552921,0.0578094157608
2021/03/16/13:39:12.626249,612644,1615898352,628171206,mocap,-2.79988134766,8.95023828125,1.92071240234,0.161466556107,0.178789425782,0.96883437343,0.0576441121827
2021/03/16/13:39:12.637324,612645,1615898352,638171196,mocap,-2.80044482422,8.94092871094,1.9195612793,0.161326713251,0.178896555997,0.968820769278,0.0579312491071
2021/03/16/13:39:12.646299,612646,1615898352,648171186,mocap,-2.80114257812,8.9315078125,1.91832788086,0.160906078219,0.179389013553,0.968788884521,0.0581112232361
2021/03/16/13:39:12.656239,612647,1615898352,658171177,mocap,-2.80171899414,8.92207519531,1.91696240234,0.160720853499,0.179391260473,0.968826921547,0.0579825831934
2021/03/16/13:39:12.666144,612648,1615898352,668171167,mocap,-2.80238989258,8.91261621094,1.91553967285,0.160665830828,0.179888886801,0.968716451618,0.0584373464966
2021/03/16/13:39:12.676229,612649,1615898352,678171158,mocap,-2.80304516602,8.90318554687,1.91411767578,0.16028942891,0.180245128681,0.968737525244,0.0580223512169
2021/03/16/13:39:12.688071,612650,1615898352,688171148,mocap,-2.80372021484,8.89369433594,1.91257141113,0.160267957731,0.180658054642,0.968653089537,0.0582068003132
2021/03/16/13:39:12.696183,612651,1615898352,698171139,mocap,-2.80448510742,8.88414648437,1.91111035156,0.160837372995,0.181170833407,0.968496750985,0.057641303402
2021/03/16/13:39:12.708485,612652,1615898352,708171129,mocap,-2.80513378906,8.87459375,1.90971679687,0.160503500011,0.181666621828,0.968465694117,0.0575331759231
2021/03/16/13:39:12.716098,612653,1615898352,718171120,mocap,-2.80587475586,8.86501660156,1.90841601563,0.160715905649,0.181893531664,0.968423711525,0.056926731387
2021/03/16/13:39:12.727970,612654,1615898352,728171110,mocap,-2.80660498047,8.8553671875,1.90721362305,0.160882511267,0.182276366589,0.968349043101,0.0565001673168
2021/03/16/13:39:12.736297,612655,1615898352,738171101,mocap,-2.80737475586,8.84569433594,1.90614733887,0.161002953813,0.182676004126,0.968288242363,0.0559053549357
2021/03/16/13:39:12.747850,612656,1615898352,748171091,mocap,-2.80813891602,8.83598242188,1.90512121582,0.161402441752,0.183045520756,0.968194302257,0.055166798926
2021/03/16/13:39:12.756274,612657,1615898352,758171082,mocap,-2.80894311523,8.82633984375,1.90421252441,0.16166588484,0.183564297006,0.968090786757,0.0544840675937
2021/03/16/13:39:12.767798,612658,1615898352,768171072,mocap,-2.80972583008,8.81666992188,1.90336010742,0.162182299965,0.184303878005,0.967922033764,0.0534408093017
2021/03/16/13:39:12.776412,612659,1615898352,778171062,mocap,-2.81057666016,8.80696582031,1.90261413574,0.162814474292,0.185047213135,0.967715549374,0.0526839858452
2021/03/16/13:39:12.787440,612660,1615898352,788171053,mocap,-2.81135888672,8.79737890625,1.90186523437,0.163487062414,0.185680928929,0.967564118476,0.051129809455
2021/03/16/13:39:12.796142,612661,1615898352,798171043,mocap,-2.81226513672,8.787796875,1.90118237305,0.165757551979,0.186856474568,0.967051054554,0.0492071943709
2021/03/16/13:39:12.807460,612662,1615898352,808171034,mocap,-2.81314257812,8.77819726562,1.90105908203,0.165881992161,0.188429940388,0.9667679214,0.0483436367155
2021/03/16/13:39:12.816232,612663,1615898352,818171024,mocap,-2.81412353516,8.76851269531,1.90141186523,0.165925065623,0.19005565234,0.966485699755,0.0474669709382
2021/03/16/13:39:12.827288,612664,1615898352,828171015,mocap,-2.81515429687,8.75889160156,1.90218371582,0.166381884276,0.190826668674,0.96629564027,0.0466366456624
2021/03/16/13:39:12.836203,612665,1615898352,838171005,mocap,-2.81616235352,8.74915136719,1.90309008789,0.16634338302,0.191296220556,0.966274605915,0.045266057407
2021/03/16/13:39:12.846114,612666,1615898352,848170996,mocap,-2.8171496582,8.73932519531,1.90413537598,0.166496193407,0.191686204956,0.966229536264,0.0439987967534
2021/03/16/13:39:12.857490,612667,1615898352,858170986,mocap,-2.81815063477,8.72948144531,1.9053092041,0.166521453075,0.191746266909,0.966275808772,0.0426032578077
2021/03/16/13:39:12.866158,612668,1615898352,868170977,mocap,-2.81904174805,8.71972070313,1.90668164063,0.167141602975,0.191663413696,0.966239475672,0.041353278266
2021/03/16/13:39:12.876168,612669,1615898352,878171206,mocap,-2.81994628906,8.71006738281,1.90817785645,0.166994653047,0.191691998153,0.966326227167,0.0397565007134
2021/03/16/13:39:12.888150,612670,1615898352,888171196,mocap,-2.82087890625,8.70034863281,1.90956640625,0.167656238794,0.19146506006,0.966322742145,0.0381166248917
2021/03/16/13:39:12.896459,612671,1615898352,898171186,mocap,-2.82175415039,8.69078613281,1.91092651367,0.167818977852,0.190953584447,0.966461886544,0.0363995668631
2021/03/16/13:39:12.908096,612672,1615898352,908171177,mocap,-2.82258837891,8.681296875,1.91218786621,0.167909917962,0.190372485958,0.966611270235,0.035031885569
2021/03/16/13:39:12.916627,612673,1615898352,918171167,mocap,-2.82340795898,8.67186621094,1.9133626709,0.167966545687,0.190041597585,0.966727013424,0.0333213972784
2021/03/16/13:39:12.928066,612674,1615898352,928171158,mocap,-2.82427661133,8.66257128906,1.91449987793,0.167806654994,0.189710516974,0.966861106203,0.0321008068313
2021/03/16/13:39:12.935925,612675,1615898352,938171148,mocap,-2.82511279297,8.653390625,1.91556054688,0.166914547527,0.189570303775,0.967078073625,0.0310263587994
2021/03/16/13:39:12.948334,612676,1615898352,948171139,mocap,-2.82600268555,8.64437011719,1.91659606934,0.166373437507,0.189925379315,0.967125522742,0.0302731832962
2021/03/16/13:39:12.956208,612677,1615898352,958171129,mocap,-2.82683251953,8.63537109375,1.91759594727,0.164841232462,0.18986331279,0.96741318758,0.029849915675
2021/03/16/13:39:12.967139,612678,1615898352,968171120,mocap,-2.82772216797,8.62643359375,1.91853686523,0.163592427383,0.190073707078,0.967594580574,0.0294996653243
2021/03/16/13:39:12.976248,612679,1615898352,978171110,mocap,-2.82854248047,8.6176015625,1.91953796387,0.161848356604,0.190474595814,0.967820406023,0.0291237719032
2021/03/16/13:39:12.987706,612680,1615898352,988171101,mocap,-2.82932080078,8.60873339844,1.92051367187,0.159964893146,0.190353151269,0.96815731007,0.0291260410654
2021/03/16/13:39:12.996043,612681,1615898352,998171091,mocap,-2.83004882812,8.59989941406,1.92148059082,0.158524075759,0.190538435325,0.968369109123,0.0287487908346
2021/03/16/13:39:13.007789,612682,1615898353,8171082,mocap,-2.83069970703,8.59110839844,1.92249230957,0.156981879836,0.190404337735,0.968654720174,0.0284765425894
2021/03/16/13:39:13.016313,612683,1615898353,18171072,mocap,-2.83125854492,8.58225878906,1.92341638184,0.155688501101,0.190196946964,0.968913810478,0.0281468363043
2021/03/16/13:39:13.028269,612684,1615898353,28171062,mocap,-2.83173461914,8.57356542969,1.92441662598,0.154459367039,0.189833792176,0.969195909319,0.0276536670276
2021/03/16/13:39:13.035911,612685,1615898353,38171053,mocap,-2.8320456543,8.56482324219,1.92542614746,0.153723748952,0.190115375007,0.969276200713,0.0269963199131
2021/03/16/13:39:13.048026,612686,1615898353,48171043,mocap,-2.83234570313,8.55604492187,1.9263380127,0.152052057915,0.188831131479,0.96979021553,0.0270167613078
2021/03/16/13:39:13.057916,612687,1615898353,58171034,mocap,-2.83249584961,8.54743066406,1.92722692871,0.151858211914,0.189203648281,0.969770962562,0.0261791505649
2021/03/16/13:39:13.066429,612688,1615898353,68171024,mocap,-2.83262548828,8.53873046875,1.92787683105,0.151178031176,0.188046892495,0.970108487156,0.0259440251628
2021/03/16/13:39:13.076814,612689,1615898353,78171015,mocap,-2.83264477539,8.53022167969,1.92868652344,0.151176060866,0.188375326137,0.970056913564,0.0254972491989
2021/03/16/13:39:13.086169,612690,1615898353,88171005,mocap,-2.83258422852,8.52164453125,1.92926208496,0.151162103152,0.187792816037,0.970178719603,0.0252412324771
2021/03/16/13:39:13.096706,612691,1615898353,98170996,mocap,-2.83250708008,8.51317871094,1.92980004883,0.15090392876,0.187211461628,0.970340822332,0.0248708576257
2021/03/16/13:39:13.106438,612692,1615898353,108170986,mocap,-2.8323347168,8.50457519531,1.93003991699,0.151259311488,0.185939992798,0.970528838325,0.0249141616923
2021/03/16/13:39:13.116670,612693,1615898353,118170977,mocap,-2.83207739258,8.496171875,1.93041967773,0.151390106807,0.185713453585,0.970560351182,0.0245796587062
2021/03/16/13:39:13.127693,612694,1615898353,128171206,mocap,-2.83178833008,8.48776074219,1.93063928223,0.15183280363,0.185010802228,0.970631625576,0.0243318282394
2021/03/16/13:39:13.137546,612695,1615898353,138171196,mocap,-2.83143261719,8.47940429687,1.93078186035,0.151971669488,0.184473742499,0.970718015253,0.0240951385632
2021/03/16/13:39:13.145935,612696,1615898353,148171186,mocap,-2.83097241211,8.47105664062,1.93063916016,0.152514702033,0.183490872671,0.970824834612,0.0238643165555
2021/03/16/13:39:13.157548,612697,1615898353,158171177,mocap,-2.83047973633,8.46287109375,1.93068371582,0.15365681984,0.184153341255,0.970525606376,0.0236046990851
2021/03/16/13:39:13.166609,612698,1615898353,168171167,mocap,-2.82996118164,8.45468066406,1.93037304687,0.154146544088,0.183582770411,0.970553672538,0.0237016759289
2021/03/16/13:39:13.176193,612699,1615898353,178171158,mocap,-2.82932763672,8.4466015625,1.93015661621,0.155188283239,0.184398553325,0.97024690434,0.0231239386168
2021/03/16/13:39:13.186411,612700,1615898353,188171148,mocap,-2.82879760742,8.43849511719,1.92969299316,0.156148660146,0.18437436105,0.970093241934,0.0232977240394
2021/03/16/13:39:13.197630,612701,1615898353,198171139,mocap,-2.82820483398,8.43045214844,1.92915466309,0.158029459823,0.185586347763,0.969572218245,0.0226739340392
2021/03/16/13:39:13.206214,612702,1615898353,208171129,mocap,-2.82759350586,8.42243359375,1.92869628906,0.158667917965,0.186074481115,0.969364340629,0.0230985766268
2021/03/16/13:39:13.216026,612703,1615898353,218171120,mocap,-2.82695385742,8.41446191406,1.92800390625,0.159978013817,0.187751759063,0.96884323256,0.022340695247
2021/03/16/13:39:13.227462,612704,1615898353,228171110,mocap,-2.82634228516,8.4064609375,1.92727978516,0.160987803352,0.188702231978,0.968488450275,0.0224613066289
2021/03/16/13:39:13.236243,612705,1615898353,238171101,mocap,-2.82568676758,8.39847558594,1.92651098633,0.161761469326,0.189777476078,0.968152931246,0.0223074009565
2021/03/16/13:39:13.247632,612706,1615898353,248171091,mocap,-2.82504760742,8.39048925781,1.92561523437,0.162458563283,0.190904070764,0.967814855527,0.0222989411605
2021/03/16/13:39:13.256040,612707,1615898353,258171082,mocap,-2.8243972168,8.38244628906,1.9246739502,0.162715307487,0.192091084823,0.96753963876,0.022176504066
2021/03/16/13:39:13.268079,612708,1615898353,268171072,mocap,-2.82373876953,8.37438574219,1.92359265137,0.1634699021,0.193259851118,0.967178554524,0.0222232282615
