time,.header.seq,.header.stamp.secs,.header.stamp.nsecs,.header.frame_id,.pose.position.x,.pose.position.y,.pose.position.z,.pose.orientation.x,.pose.orientation.y,.pose.orientation.z,.pose.orientation.w
2021/03/16/15:13:11.970586,31745,1615903991,972450256,mocap,-2.77038623047,10.3779716797,1.93212927246,0.13616788742,0.220020062557,0.962357379206,-0.0831729840701
2021/03/16/15:13:11.982887,31746,1615903991,982450247,mocap,-2.7703425293,10.3777919922,1.93212036133,0.13609556244,0.219814686845,0.962418167549,-0.0831310223326
2021/03/16/15:13:11.991143,31747,1615903991,992450237,mocap,-2.77030908203,10.3776416016,1.93211523438,0.1360364358,0.219594275714,0.962484881666,-0.0830379573272
2021/03/16/15:13:12.002779,31748,1615903992,2450228,mocap,-2.77026635742,10.3774921875,1.93206018066,0.136207924413,0.219514119858,0.962481444663,-0.0830084741803
2021/03/16/15:13:12.010641,31749,1615903992,12450218,mocap,-2.77021264648,10.3773574219,1.93205505371,0.136280406922,0.219353736964,0.962515125218,-0.0829229854944
2021/03/16/15:13:12.022846,31750,1615903992,22450209,mocap,-2.77018530273,10.377265625,1.93220898438,0.135797271949,0.219853929856,0.962498614075,-0.0825818801199
2021/03/16/15:13:12.031017,31751,1615903992,32450199,mocap,-2.77010986328,10.3770820312,1.93201477051,0.136564534566,0.219081111305,0.962532557209,-0.0829739688597
2021/03/16/15:13:12.041214,31752,1615903992,42450190,mocap,-2.77003759766,10.3769570313,1.93199316406,0.136547316996,0.218962636529,0.962571096891,-0.0828677763203
2021/03/16/15:13:12.052900,31753,1615903992,52450180,mocap,-2.76998999023,10.3768447266,1.93197424316,0.136848670148,0.21887272961,0.962542619938,-0.0829389115455
2021/03/16/15:13:12.062597,31754,1615903992,62450171,mocap,-2.76994873047,10.3767597656,1.93198510742,0.136756140414,0.218876028797,0.962572908117,-0.0827311012628
2021/03/16/15:13:12.070894,31755,1615903992,72450161,mocap,-2.76990356445,10.3766630859,1.9319465332,0.136998822617,0.218718100526,0.962568085913,-0.0828033748764
2021/03/16/15:13:12.082822,31756,1615903992,82450151,mocap,-2.76989038086,10.3765820313,1.93195349121,0.137146859675,0.218795847561,0.962543587503,-0.0826374532579
2021/03/16/15:13:12.091470,31757,1615903992,92450142,mocap,-2.76985888672,10.3765175781,1.93198400879,0.137381819209,0.218648758818,0.962540468071,-0.0826728244096
2021/03/16/15:13:12.101212,31758,1615903992,102450132,mocap,-2.76983398437,10.3764609375,1.93193798828,0.137487890298,0.218654011981,0.962525520977,-0.0826566878887
2021/03/16/15:13:12.111952,31759,1615903992,112450123,mocap,-2.76981884766,10.3763828125,1.93193566895,0.137225704424,0.218544038951,0.962604859449,-0.0824590915286
2021/03/16/15:13:12.121074,31760,1615903992,122450113,mocap,-2.76980908203,10.3763300781,1.9319498291,0.137528135102,0.218615497096,0.962547968623,-0.0824299206705
2021/03/16/15:13:12.132683,31761,1615903992,132450104,mocap,-2.7698046875,10.3762978516,1.93192944336,0.137515221619,0.218533665829,0.962570090652,-0.0824101171276
2021/03/16/15:13:12.142562,31762,1615903992,142450094,mocap,-2.76980102539,10.3762451172,1.93195410156,0.137621936581,0.218437734644,0.962570013249,-0.082487199726
2021/03/16/15:13:12.150869,31763,1615903992,152450085,mocap,-2.76979882812,10.3761855469,1.93194970703,0.1375852962,0.218307912493,0.962614457026,-0.0823732596609
2021/03/16/15:13:12.162625,31764,1615903992,162450075,mocap,-2.76980932617,10.3761757812,1.93194445801,0.137739113436,0.2183578627,0.962577962505,-0.0824102868729
2021/03/16/15:13:12.171634,31765,1615903992,172450066,mocap,-2.7698190918,10.3761308594,1.9319173584,0.137775308243,0.218224663915,0.96260915515,-0.0823381906957
2021/03/16/15:13:12.181384,31766,1615903992,182450056,mocap,-2.76984350586,10.3761181641,1.93193908691,0.137422422758,0.218269988794,0.962661963621,-0.0821902579006
2021/03/16/15:13:12.191001,31767,1615903992,192450047,mocap,-2.76985571289,10.3761005859,1.93189147949,0.137582913388,0.2183399839,0.962622761948,-0.0821950059191
2021/03/16/15:13:12.201057,31768,1615903992,202450037,mocap,-2.76989355469,10.3760888672,1.93187890625,0.137562234521,0.218199842172,0.962663991383,-0.082118745525
2021/03/16/15:13:12.211200,31769,1615903992,212450027,mocap,-2.76990527344,10.3760761719,1.93187121582,0.137294317712,0.218217513535,0.962706217411,-0.0820251192837
2021/03/16/15:13:12.222165,31770,1615903992,222450256,mocap,-2.76995117187,10.3761171875,1.93192504883,0.137241548694,0.218315169302,0.962701326221,-0.0819109681275
2021/03/16/15:13:12.230733,31771,1615903992,232450247,mocap,-2.76996459961,10.3761240234,1.93187207031,0.137308297364,0.218333393219,0.962683897285,-0.081955271165
2021/03/16/15:13:12.241455,31772,1615903992,242450237,mocap,-2.76999707031,10.3761386719,1.93185021973,0.137122681658,0.218257098605,0.962731346281,-0.0819118984512
2021/03/16/15:13:12.251200,31773,1615903992,252450228,mocap,-2.77002929688,10.3761904297,1.93192089844,0.136883548929,0.218345434476,0.962752148496,-0.0818319798818
2021/03/16/15:13:12.260976,31774,1615903992,262450218,mocap,-2.77006494141,10.3762285156,1.93190869141,0.137131184831,0.218292888973,0.96272391681,-0.0818897158201
2021/03/16/15:13:12.271721,31775,1615903992,272450209,mocap,-2.77009423828,10.3762724609,1.93189306641,0.136953777824,0.21833362583,0.962749517288,-0.0817768784428
2021/03/16/15:13:12.281108,31776,1615903992,282450199,mocap,-2.77011230469,10.3763212891,1.9318939209,0.136703174214,0.218467808822,0.962763470346,-0.0816734547843
2021/03/16/15:13:12.290830,31777,1615903992,292450190,mocap,-2.77014428711,10.3764140625,1.93191491699,0.136686440414,0.218620198383,0.962736043844,-0.0816169286097
2021/03/16/15:13:12.302118,31778,1615903992,302450180,mocap,-2.77016308594,10.3764853516,1.93192211914,0.13677079094,0.218669359036,0.96270976196,-0.0816539985158
2021/03/16/15:13:12.311015,31779,1615903992,312450171,mocap,-2.77018652344,10.3765595703,1.93193554687,0.136635511603,0.218873151209,0.96269704641,-0.0814842034267
2021/03/16/15:13:12.321896,31780,1615903992,322450161,mocap,-2.77019238281,10.3766474609,1.93190002441,0.136692632068,0.218891913673,0.962690228081,-0.0814185492649
2021/03/16/15:13:12.330913,31781,1615903992,332450151,mocap,-2.77022631836,10.3767294922,1.93191369629,0.136797724289,0.219020952835,0.962638651782,-0.0815047438675
2021/03/16/15:13:12.340805,31782,1615903992,342450142,mocap,-2.77025463867,10.3768125,1.93193322754,0.136685490737,0.219208799383,0.962629054446,-0.0813011554201
2021/03/16/15:13:12.351025,31783,1615903992,352450132,mocap,-2.77026367188,10.3769023438,1.93193359375,0.136659443308,0.219287757429,0.962613373433,-0.0813176733438
2021/03/16/15:13:12.361908,31784,1615903992,362450123,mocap,-2.77026977539,10.3770029297,1.93190759277,0.136815638308,0.21934987929,0.962580625142,-0.0812751615604
2021/03/16/15:13:12.372638,31785,1615903992,372450113,mocap,-2.77029882813,10.3770800781,1.93193774414,0.136736547907,0.219500101804,0.962569897145,-0.0811296866856
2021/03/16/15:13:12.380610,31786,1615903992,382450104,mocap,-2.77031079102,10.3771357422,1.93193493652,0.13675247448,0.219563841967,0.962565423241,-0.0809833205273
2021/03/16/15:13:12.392668,31787,1615903992,392450094,mocap,-2.77036914063,10.3772851563,1.93207116699,0.136312411239,0.220254443575,0.962502770915,-0.0805935265707
2021/03/16/15:13:12.400915,31788,1615903992,402450085,mocap,-2.77037133789,10.3773017578,1.93194311523,0.13694076536,0.219743814545,0.962505062201,-0.0808942456326
2021/03/16/15:13:12.412824,31789,1615903992,412450075,mocap,-2.77040844727,10.3773623047,1.93196777344,0.136485737955,0.219749898959,0.962570531849,-0.080867786725
2021/03/16/15:13:12.420975,31790,1615903992,422450066,mocap,-2.77045849609,10.3774121094,1.93196533203,0.136588966023,0.219717774627,0.962573016481,-0.0807511042512
2021/03/16/15:13:12.432719,31791,1615903992,432450056,mocap,-2.77049023437,10.3774511719,1.93192443848,0.136690960847,0.219829197001,0.962540576439,-0.0806619049591
2021/03/16/15:13:12.440835,31792,1615903992,442450047,mocap,-2.77054248047,10.3775048828,1.93192993164,0.136753250636,0.219864901456,0.962525745456,-0.0806360265069
2021/03/16/15:13:12.452787,31793,1615903992,452450037,mocap,-2.77059008789,10.3775712891,1.93196728516,0.136394731625,0.219920691193,0.962574518093,-0.0805088280002
2021/03/16/15:13:12.460662,31794,1615903992,462450027,mocap,-2.77060205078,10.3775888672,1.93192358398,0.136436699542,0.219923678539,0.962565779296,-0.0805339525741
2021/03/16/15:13:12.471537,31795,1615903992,472450256,mocap,-2.77063378906,10.3776279297,1.93193225098,0.136379854692,0.219921899649,0.962584270776,-0.0804140406488
2021/03/16/15:13:12.481243,31796,1615903992,482450247,mocap,-2.77065063477,10.3776464844,1.9319239502,0.136316197092,0.219939640174,0.962600192206,-0.0802827627776
2021/03/16/15:13:12.492746,31797,1615903992,492450237,mocap,-2.77068823242,10.3776865234,1.9319276123,0.136330028294,0.21983672065,0.96261388427,-0.0803769305579
2021/03/16/15:13:12.501306,31798,1615903992,502450228,mocap,-2.77072119141,10.3777021484,1.93189978027,0.136239919218,0.219718081734,0.962663735978,-0.0802570484625
2021/03/16/15:13:12.512432,31799,1615903992,512450218,mocap,-2.77075878906,10.3777265625,1.93193432617,0.136114228066,0.219868417934,0.962660841384,-0.0800931025551
2021/03/16/15:13:12.521222,31800,1615903992,522450209,mocap,-2.7707890625,10.3777529297,1.93191064453,0.136235560285,0.219779098454,0.962660082906,-0.0801410020429
2021/03/16/15:13:12.532496,31801,1615903992,532450199,mocap,-2.77079980469,10.3777412109,1.93185620117,0.136245239231,0.219697059886,0.962686327449,-0.0800341849152
2021/03/16/15:13:12.540911,31802,1615903992,542450190,mocap,-2.77084521484,10.3777763672,1.9318894043,0.136193321192,0.219832655956,0.962664626026,-0.0800112709788
2021/03/16/15:13:12.552440,31803,1615903992,552450180,mocap,-2.77084008789,10.3777714844,1.93184680176,0.136156346812,0.219703055893,0.962707463422,-0.0799146952861
2021/03/16/15:13:12.560925,31804,1615903992,562450171,mocap,-2.77087109375,10.3777880859,1.93184338379,0.136382421691,0.219969829748,0.962612506558,-0.079939145848
2021/03/16/15:13:12.572433,31805,1615903992,572450161,mocap,-2.77090893555,10.3777910156,1.93184411621,0.136437949444,0.220147030544,0.962572087648,-0.0798433146754
2021/03/16/15:13:12.580927,31806,1615903992,582450151,mocap,-2.77092871094,10.3777958984,1.93182312012,0.136417612542,0.220201848499,0.962571236216,-0.0797369756619
2021/03/16/15:13:12.592744,31807,1615903992,592450142,mocap,-2.77097045898,10.3777451172,1.9317800293,0.136503833708,0.22028797338,0.962538772892,-0.0797433939431
2021/03/16/15:13:12.600743,31808,1615903992,602450132,mocap,-2.77102734375,10.3776914062,1.93181604004,0.136631989861,0.220525548148,0.962475383431,-0.0796324235582
2021/03/16/15:13:12.612284,31809,1615903992,612450123,mocap,-2.7711081543,10.3776123047,1.93179516602,0.136702354083,0.220736004164,0.962425800659,-0.0795277353706
2021/03/16/15:13:12.621455,31810,1615903992,622450113,mocap,-2.77119873047,10.3775234375,1.93178991699,0.136914299566,0.220888411093,0.962358269536,-0.0795571033379
2021/03/16/15:13:12.632142,31811,1615903992,632450104,mocap,-2.77131616211,10.3774003906,1.93181750488,0.136774949309,0.220923324795,0.962390994426,-0.0793036857288
2021/03/16/15:13:12.642093,31812,1615903992,642450094,mocap,-2.77143408203,10.3772509766,1.93184448242,0.136614113266,0.221060528071,0.962406547456,-0.0790093046719
2021/03/16/15:13:12.650872,31813,1615903992,652450085,mocap,-2.77156103516,10.3770908203,1.93187561035,0.136638121019,0.221106282071,0.962413956153,-0.0787490717954
2021/03/16/15:13:12.662049,31814,1615903992,662450075,mocap,-2.77171289062,10.3768632812,1.93183898926,0.136677006954,0.221124535189,0.962404224969,-0.0787492390453
2021/03/16/15:13:12.671008,31815,1615903992,672450066,mocap,-2.77186791992,10.3765839844,1.93186120605,0.13684260824,0.221366389141,0.962348499079,-0.0784626987778
2021/03/16/15:13:12.682081,31816,1615903992,682450056,mocap,-2.77205859375,10.3763339844,1.93187658691,0.136888137738,0.221262062216,0.962373629548,-0.0783692260268
2021/03/16/15:13:12.691190,31817,1615903992,692450047,mocap,-2.77222924805,10.3759912109,1.93178466797,0.136699245504,0.221252948117,0.962417246308,-0.0781887958881
2021/03/16/15:13:12.702127,31818,1615903992,702450037,mocap,-2.7724362793,10.3756455078,1.9317734375,0.136746613168,0.221417329504,0.962397133607,-0.0778876291858
2021/03/16/15:13:12.710998,31819,1615903992,712450027,mocap,-2.77264086914,10.3752509766,1.93168139648,0.136582308454,0.221492042694,0.962426474166,-0.0776005046576
2021/03/16/15:13:12.721155,31820,1615903992,722450256,mocap,-2.77288134766,10.3748466797,1.93160961914,0.136731932549,0.22145175326,0.962439843564,-0.0772854086411
2021/03/16/15:13:12.730832,31821,1615903992,732450247,mocap,-2.77314428711,10.3743671875,1.93148522949,0.136679051007,0.221459330573,0.962486344711,-0.076776580104
2021/03/16/15:13:12.743227,31822,1615903992,742450237,mocap,-2.77343920898,10.3738515625,1.9313302002,0.136787073249,0.221616285164,0.962473239155,-0.0762941352093
2021/03/16/15:13:12.750848,31823,1615903992,752450228,mocap,-2.77377709961,10.3733544922,1.93116894531,0.136871924046,0.221853096128,0.962453174071,-0.075704438288
2021/03/16/15:13:12.762909,31824,1615903992,762450218,mocap,-2.77413476562,10.3728056641,1.93102038574,0.137292456974,0.22185765991,0.962413058132,-0.075439176469
2021/03/16/15:13:12.770901,31825,1615903992,772450209,mocap,-2.77446728516,10.3721943359,1.93085656738,0.137235519352,0.222029726219,0.962429524294,-0.0748239381461
2021/03/16/15:13:12.782878,31826,1615903992,782450199,mocap,-2.7747980957,10.3715449219,1.93067541504,0.137545229113,0.222468958568,0.962319411639,-0.0743654639843
2021/03/16/15:13:12.791314,31827,1615903992,792450190,mocap,-2.775171875,10.3708701172,1.93054626465,0.137865835467,0.222763272792,0.962235504507,-0.073975555936
2021/03/16/15:13:12.803144,31828,1615903992,802450180,mocap,-2.77556640625,10.3701289063,1.93037365723,0.138198228449,0.222760653281,0.962239561825,-0.0733073771013
2021/03/16/15:13:12.810815,31829,1615903992,812450171,mocap,-2.77594921875,10.3693642578,1.93015979004,0.138447136821,0.222782162448,0.962235852941,-0.072819336512
2021/03/16/15:13:12.822699,31830,1615903992,822450161,mocap,-2.77636767578,10.3685429688,1.92988928223,0.138710281963,0.222918418114,0.962208837277,-0.0722564135494
2021/03/16/15:13:12.831186,31831,1615903992,832450151,mocap,-2.77682763672,10.3676591797,1.9296184082,0.138986376909,0.223085554936,0.962150893127,-0.0719810888345
2021/03/16/15:13:12.842713,31832,1615903992,842450142,mocap,-2.77736206055,10.3667255859,1.92938696289,0.139251752698,0.223132724055,0.962144605245,-0.0714037401193
2021/03/16/15:13:12.850987,31833,1615903992,852450132,mocap,-2.77783959961,10.3657910156,1.92909729004,0.139737780841,0.222874469687,0.962169950114,-0.0709176067164
2021/03/16/15:13:12.862594,31834,1615903992,862450123,mocap,-2.77835888672,10.3647333984,1.92881555176,0.139822419274,0.222948209531,0.962185630611,-0.0703036176461
2021/03/16/15:13:12.871337,31835,1615903992,872450113,mocap,-2.77890161133,10.3636308594,1.92851147461,0.139805605636,0.222998755922,0.962205554152,-0.0699029034798
2021/03/16/15:13:12.881619,31836,1615903992,882450104,mocap,-2.77954296875,10.3624804688,1.92817199707,0.140318657852,0.222710868896,0.962215395749,-0.0696568738211
2021/03/16/15:13:12.891292,31837,1615903992,892450094,mocap,-2.78018652344,10.3613203125,1.92788293457,0.140867255875,0.222600895129,0.962192893885,-0.0692105722618
2021/03/16/15:13:12.900847,31838,1615903992,902450085,mocap,-2.78079516602,10.3600742188,1.92758984375,0.140656907712,0.222296804539,0.962322276291,-0.0688156718286
2021/03/16/15:13:12.912636,31839,1615903992,912450075,mocap,-2.78143383789,10.3588251953,1.92728674316,0.140821688795,0.222202833067,0.962361521172,-0.068230986305
2021/03/16/15:13:12.921034,31840,1615903992,922450066,mocap,-2.78212744141,10.3574785156,1.92697058105,0.141590890025,0.222076868144,0.962302184832,-0.0678851145453
2021/03/16/15:13:12.931662,31841,1615903992,932450056,mocap,-2.78285302734,10.3560771484,1.92673803711,0.141978277162,0.221813840003,0.962321068493,-0.0676679483372
2021/03/16/15:13:12.942580,31842,1615903992,942450047,mocap,-2.7835222168,10.3546337891,1.92646936035,0.142317781256,0.221508623174,0.962355644994,-0.0674625405769
2021/03/16/15:13:12.950728,31843,1615903992,952450037,mocap,-2.78422070312,10.3531171875,1.92618273926,0.142814628808,0.221312956112,0.962362457951,-0.066955571738
2021/03/16/15:13:12.962254,31844,1615903992,962450027,mocap,-2.78499707031,10.3515410156,1.9259720459,0.143603986007,0.220747617594,0.962377260482,-0.0669208628961
2021/03/16/15:13:12.971029,31845,1615903992,972450256,mocap,-2.78573901367,10.3499052734,1.92568554688,0.143791951833,0.220199368173,0.9624773574,-0.0668838214758
2021/03/16/15:13:12.980671,31846,1615903992,982450247,mocap,-2.78651367187,10.3482587891,1.92543652344,0.144415215868,0.2197316788,0.962504613234,-0.0666866883758
2021/03/16/15:13:12.990922,31847,1615903992,992450237,mocap,-2.78730126953,10.3465595703,1.92521899414,0.145025289489,0.219292361554,0.962534283362,-0.0663797484428
2021/03/16/15:13:13.002402,31848,1615903993,2450228,mocap,-2.78809399414,10.3447910156,1.92484716797,0.145155169485,0.218862551479,0.962603110203,-0.066516292688
2021/03/16/15:13:13.011276,31849,1615903993,12450218,mocap,-2.78893383789,10.3429882812,1.9244284668,0.146065744785,0.218465199017,0.962572358557,-0.0662738016055
2021/03/16/15:13:13.022358,31850,1615903993,22450209,mocap,-2.78977563477,10.3411796875,1.92405712891,0.146297675221,0.217915621403,0.962660407968,-0.0662925645753
2021/03/16/15:13:13.030963,31851,1615903993,32450199,mocap,-2.79062060547,10.3393203125,1.92359423828,0.146743011558,0.217794351237,0.962613535972,-0.0663875573683
2021/03/16/15:13:13.042305,31852,1615903993,42450190,mocap,-2.79153173828,10.3375205078,1.92321081543,0.146680081451,0.218125670087,0.962574858665,-0.0659983974025
2021/03/16/15:13:13.050947,31853,1615903993,52450180,mocap,-2.79232080078,10.3355566406,1.92244042969,0.147653392826,0.217528764848,0.962531837333,-0.0664242108179
2021/03/16/15:13:13.062312,31854,1615903993,62450171,mocap,-2.7931965332,10.333546875,1.9218182373,0.14843577693,0.217394460317,0.962418384312,-0.0667632562223
2021/03/16/15:13:13.071048,31855,1615903993,72450161,mocap,-2.79411181641,10.3315761719,1.92124206543,0.14882881443,0.217662043453,0.962312350621,-0.0665443940494
2021/03/16/15:13:13.082089,31856,1615903993,82450151,mocap,-2.79494335937,10.3294960938,1.92057751465,0.148863665049,0.217863249989,0.962246220746,-0.0667639064361
2021/03/16/15:13:13.090931,31857,1615903993,92450142,mocap,-2.79581713867,10.3273505859,1.92006115723,0.149858999352,0.218301671192,0.961994605396,-0.0667311023987
2021/03/16/15:13:13.101944,31858,1615903993,102450132,mocap,-2.79671533203,10.3251835937,1.91957849121,0.149978295235,0.218809358295,0.96187090317,-0.0665832912633
2021/03/16/15:13:13.110870,31859,1615903993,112450123,mocap,-2.79752416992,10.3229150391,1.91906884766,0.14983075829,0.219136910112,0.961801884495,-0.0668348479603
2021/03/16/15:13:13.122235,31860,1615903993,122450113,mocap,-2.79843652344,10.3206005859,1.9187467041,0.151138075779,0.219297483942,0.961524357738,-0.0673558332278
2021/03/16/15:13:13.130881,31861,1615903993,132450104,mocap,-2.79923364258,10.3182001953,1.91809960938,0.151058470483,0.22041074157,0.961319242806,-0.0668263312666
2021/03/16/15:13:13.141916,31862,1615903993,142450094,mocap,-2.8,10.3157353516,1.91746228027,0.151443742091,0.221147822588,0.961052492286,-0.0673538734086
2021/03/16/15:13:13.150925,31863,1615903993,152450085,mocap,-2.80077563477,10.3132119141,1.91684460449,0.152155472819,0.221796232417,0.960763178885,-0.0677440418946
2021/03/16/15:13:13.162916,31864,1615903993,162450075,mocap,-2.80156396484,10.3106152344,1.91625183105,0.152253707635,0.223015751717,0.960465284173,-0.067743772083
2021/03/16/15:13:13.171137,31865,1615903993,172450066,mocap,-2.80234472656,10.3079560547,1.91558361816,0.152817318969,0.224172635065,0.96006437503,-0.0683366325142
2021/03/16/15:13:13.182950,31866,1615903993,182450056,mocap,-2.80307739258,10.3051728516,1.91499707031,0.152654750345,0.224888477002,0.959897905611,-0.0686857088144
2021/03/16/15:13:13.190875,31867,1615903993,192450047,mocap,-2.8038359375,10.3022597656,1.91441650391,0.152885069625,0.225920479356,0.959600425541,-0.0689429049096
2021/03/16/15:13:13.202606,31868,1615903993,202450037,mocap,-2.80460449219,10.29928125,1.91395532227,0.152624273603,0.226896986025,0.959386869289,-0.0692851312309
2021/03/16/15:13:13.211204,31869,1615903993,212450027,mocap,-2.80528027344,10.2961572266,1.91343469238,0.15210762174,0.227469839032,0.959298092248,-0.0697703834984
2021/03/16/15:13:13.222900,31870,1615903993,222450256,mocap,-2.80594628906,10.2928720703,1.91302661133,0.152126630862,0.228207860111,0.959094179164,-0.0701214607641
2021/03/16/15:13:13.230643,31871,1615903993,232450247,mocap,-2.80671069336,10.2895341797,1.91279675293,0.151949859148,0.228952341028,0.95892248323,-0.070425414433
2021/03/16/15:13:13.242650,31872,1615903993,242450237,mocap,-2.80736132812,10.2859638672,1.91241870117,0.151920943405,0.229372325358,0.958801524022,-0.0707672784143
2021/03/16/15:13:13.250828,31873,1615903993,252450228,mocap,-2.8078894043,10.2822451172,1.91209692383,0.151860305812,0.229423911553,0.958746591211,-0.0714708839382
2021/03/16/15:13:13.262736,31874,1615903993,262450218,mocap,-2.80845727539,10.2784443359,1.91188903809,0.151462894285,0.229315210737,0.958788267078,-0.0721011329654
2021/03/16/15:13:13.270898,31875,1615903993,272450209,mocap,-2.80901831055,10.2744726562,1.91160620117,0.151680405163,0.228804967168,0.958811074193,-0.0729565569726
2021/03/16/15:13:13.282580,31876,1615903993,282450199,mocap,-2.80951391602,10.2703447266,1.91127722168,0.151915220034,0.228359519085,0.958815037214,-0.0738066518857
2021/03/16/15:13:13.291255,31877,1615903993,292450190,mocap,-2.80996166992,10.2661435547,1.91103918457,0.151728726813,0.22780211412,0.958947610247,-0.0741894722885
2021/03/16/15:13:13.302265,31878,1615903993,302450180,mocap,-2.81034082031,10.2618291016,1.91070654297,0.151255288776,0.226734462889,0.959209672059,-0.0750342079764
2021/03/16/15:13:13.310961,31879,1615903993,312450171,mocap,-2.81076733398,10.2574042969,1.9102767334,0.152039133929,0.226388507164,0.959086302023,-0.0760645557988
2021/03/16/15:13:13.322389,31880,1615903993,322450161,mocap,-2.81112158203,10.2528798828,1.90982104492,0.15187270958,0.225429036017,0.95927430255,-0.0768715974102
2021/03/16/15:13:13.330839,31881,1615903993,332450151,mocap,-2.81143383789,10.2483310547,1.90931506348,0.152067330854,0.224805844918,0.959339720857,-0.0774929805839
2021/03/16/15:13:13.342559,31882,1615903993,342450142,mocap,-2.81173388672,10.2437070313,1.90878320313,0.152000700965,0.22416351235,0.959445415236,-0.0781728599313
2021/03/16/15:13:13.351016,31883,1615903993,352450132,mocap,-2.81200952148,10.2389638672,1.9082076416,0.151887366999,0.223681819541,0.959519953448,-0.078855058653
2021/03/16/15:13:13.362397,31884,1615903993,362450123,mocap,-2.81224145508,10.2341689453,1.90749536133,0.151984713001,0.223077286065,0.959575315618,-0.0797017905538
2021/03/16/15:13:13.370923,31885,1615903993,372450113,mocap,-2.81243676758,10.2293017578,1.90681030273,0.152052515209,0.22271871075,0.959588918849,-0.0804083459116
2021/03/16/15:13:13.382287,31886,1615903993,382450104,mocap,-2.81256103516,10.2242910156,1.90602160645,0.151429893705,0.222210489825,0.959759540717,-0.0809512769594
2021/03/16/15:13:13.391016,31887,1615903993,392450094,mocap,-2.81270776367,10.219265625,1.90526269531,0.151458477623,0.22198644355,0.959767357992,-0.0814184877584
2021/03/16/15:13:13.402205,31888,1615903993,402450085,mocap,-2.81282421875,10.2141640625,1.90448071289,0.151648783697,0.221760879241,0.959755084764,-0.0818225995152
2021/03/16/15:13:13.411056,31889,1615903993,412450075,mocap,-2.81289697266,10.2089082031,1.90356799316,0.151853121096,0.221662258777,0.95969925163,-0.0823638765196
2021/03/16/15:13:13.422227,31890,1615903993,422450066,mocap,-2.8129519043,10.2036396484,1.90276843262,0.151371428826,0.221314415868,0.95982058674,-0.0827711224173
2021/03/16/15:13:13.430961,31891,1615903993,432450056,mocap,-2.81294311523,10.1982958984,1.90185717773,0.151289265886,0.221272837548,0.959817466221,-0.0830681304485
2021/03/16/15:13:13.441914,31892,1615903993,442450047,mocap,-2.81286230469,10.1928662109,1.90093518066,0.151210320107,0.221509212054,0.959742430988,-0.0834480845961
2021/03/16/15:13:13.450684,31893,1615903993,452450037,mocap,-2.8127824707,10.1873603516,1.89998937988,0.150965677673,0.221513174679,0.959746452267,-0.0838333053804
2021/03/16/15:13:13.462033,31894,1615903993,462450027,mocap,-2.81265307617,10.1817607422,1.89900915527,0.150844262775,0.221755024871,0.959695284497,-0.083998114364
2021/03/16/15:13:13.471010,31895,1615903993,472450256,mocap,-2.81247460938,10.1760820313,1.89794555664,0.150565122653,0.22178857703,0.959709165509,-0.0842513847552
2021/03/16/15:13:13.482258,31896,1615903993,482450247,mocap,-2.81228735352,10.1703125,1.89696679687,0.150295716423,0.222035187109,0.959692023828,-0.0842781055109
2021/03/16/15:13:13.490912,31897,1615903993,492450237,mocap,-2.81208666992,10.1644765625,1.89603466797,0.150293027124,0.22230433642,0.959598399069,-0.0846386785545
2021/03/16/15:13:13.502264,31898,1615903993,502450228,mocap,-2.81186328125,10.1585546875,1.89509375,0.150573637574,0.222732302257,0.959412683064,-0.0851187119041
2021/03/16/15:13:13.511082,31899,1615903993,512450218,mocap,-2.81155566406,10.1525634766,1.89426171875,0.15018825127,0.223110942645,0.959402377828,-0.0849239809831
2021/03/16/15:13:13.521092,31900,1615903993,522450209,mocap,-2.81116479492,10.1464482422,1.89337597656,0.150091759079,0.223488640751,0.95932787708,-0.084942996631
2021/03/16/15:13:13.532849,31901,1615903993,532450199,mocap,-2.81069067383,10.1401826172,1.89238244629,0.149578836581,0.224229272118,0.959247273383,-0.0848060892595
2021/03/16/15:13:13.540778,31902,1615903993,542450190,mocap,-2.81020581055,10.1339257812,1.89164172363,0.150127756557,0.224488004343,0.959088321809,-0.0849493133892
2021/03/16/15:13:13.552824,31903,1615903993,552450180,mocap,-2.80969873047,10.1276738281,1.89122216797,0.148790238063,0.224536739289,0.959325888865,-0.0844899716737
2021/03/16/15:13:13.560748,31904,1615903993,562450171,mocap,-2.809140625,10.1212705078,1.8905904541,0.149040590569,0.224891665817,0.959215109235,-0.0843623673193
2021/03/16/15:13:13.572851,31905,1615903993,572450161,mocap,-2.80856274414,10.1148242187,1.89005578613,0.149898744011,0.225707084603,0.958896166752,-0.0842901250845
2021/03/16/15:13:13.580906,31906,1615903993,582450151,mocap,-2.80792871094,10.1082519531,1.88960107422,0.149734102204,0.226071568235,0.958890222717,-0.0836713258439
2021/03/16/15:13:13.592735,31907,1615903993,592450142,mocap,-2.80733520508,10.1016630859,1.88930285645,0.150173292557,0.226894179386,0.958676547118,-0.0831040599841
2021/03/16/15:13:13.601117,31908,1615903993,602450132,mocap,-2.8066940918,10.0949775391,1.8890291748,0.149763258313,0.227197182,0.95874506029,-0.0822211979761
2021/03/16/15:13:13.612471,31909,1615903993,612450123,mocap,-2.80603369141,10.0881982422,1.88889648438,0.149300928815,0.227705227753,0.958770627132,-0.0813538727395
2021/03/16/15:13:13.621029,31910,1615903993,622450113,mocap,-2.80535107422,10.0813857422,1.88906018066,0.149481931267,0.228619331022,0.958597691846,-0.080491116227
2021/03/16/15:13:13.632793,31911,1615903993,632450104,mocap,-2.80465209961,10.0744873047,1.88950415039,0.148754136316,0.229663901826,0.958575913404,-0.0791132548902
2021/03/16/15:13:13.641237,31912,1615903993,642450094,mocap,-2.80394775391,10.0675419922,1.89030810547,0.148512594337,0.230864352935,0.958417923276,-0.0779791662165
2021/03/16/15:13:13.652791,31913,1615903993,652450085,mocap,-2.80319360352,10.0605,1.89135681152,0.148527017338,0.231554293606,0.958339552064,-0.0768611684837
2021/03/16/15:13:13.660489,31914,1615903993,662450075,mocap,-2.80237158203,10.0533242187,1.89243041992,0.148515163905,0.232467645696,0.958193373135,-0.0759439853356
2021/03/16/15:13:13.672445,31915,1615903993,672450066,mocap,-2.8015090332,10.0460361328,1.89360998535,0.148183397699,0.232827986384,0.958227352142,-0.0750543898754
2021/03/16/15:13:13.681107,31916,1615903993,682450056,mocap,-2.80058007812,10.0386787109,1.89494177246,0.148005350902,0.233166666954,0.958252209706,-0.0740299624348
2021/03/16/15:13:13.692568,31917,1615903993,692450047,mocap,-2.79966674805,10.0312919922,1.89643395996,0.14831649884,0.233109225053,0.95825958832,-0.073490644814
2021/03/16/15:13:13.701025,31918,1615903993,702450037,mocap,-2.79872265625,10.0238701172,1.89800952148,0.148536822991,0.232882825177,0.958337507377,-0.0727434520894
2021/03/16/15:13:13.712708,31919,1615903993,712450027,mocap,-2.79776416016,10.0163984375,1.89972167969,0.148543300669,0.232588642981,0.958447844291,-0.0722159633216
2021/03/16/15:13:13.720583,31920,1615903993,722450256,mocap,-2.79682397461,10.0088925781,1.90138037109,0.148738753285,0.231764941506,0.958662379139,-0.0716116734777
2021/03/16/15:13:13.732293,31921,1615903993,732450247,mocap,-2.79590551758,10.0013515625,1.90303393555,0.148696249754,0.230815851173,0.958938108055,-0.0710715710967
2021/03/16/15:13:13.741201,31922,1615903993,742450237,mocap,-2.79493896484,9.99384863281,1.90468640137,0.149089545447,0.22968499453,0.95916795236,-0.070809347263
2021/03/16/15:13:13.751601,31923,1615903993,752450228,mocap,-2.79398706055,9.98631054687,1.90617578125,0.148832835313,0.228162158341,0.959599579237,-0.070423450921
2021/03/16/15:13:13.760979,31924,1615903993,762450218,mocap,-2.79312524414,9.97891894531,1.90765222168,0.148597153098,0.226758089928,0.960005145059,-0.0699269834545
2021/03/16/15:13:13.772187,31925,1615903993,772450209,mocap,-2.7922734375,9.97156738281,1.90895861816,0.148605076694,0.225760600962,0.960279596164,-0.0693670037898
2021/03/16/15:13:13.780785,31926,1615903993,782450199,mocap,-2.7915,9.96429882812,1.91028271484,0.148501751828,0.224030347863,0.96073190304,-0.0689335893277
2021/03/16/15:13:13.792092,31927,1615903993,792450190,mocap,-2.79070776367,9.95713964844,1.91129870605,0.148240254618,0.223340280809,0.960961760238,-0.0685305545308
2021/03/16/15:13:13.800827,31928,1615903993,802450180,mocap,-2.78995068359,9.95011035156,1.91224108887,0.14795285718,0.222911287788,0.961153269788,-0.0678594076163
2021/03/16/15:13:13.812129,31929,1615903993,812450171,mocap,-2.78911523438,9.94328515625,1.9131673584,0.146474176864,0.223425338837,0.961272367421,-0.0676895927141
2021/03/16/15:13:13.820836,31930,1615903993,822450161,mocap,-2.78840991211,9.93629492187,1.91369958496,0.146304580741,0.223533640575,0.961328194443,-0.0669012036876
2021/03/16/15:13:13.832050,31931,1615903993,832450151,mocap,-2.78789135742,9.92936816406,1.91431176758,0.146090040752,0.224178386345,0.961331790575,-0.0651378503956
2021/03/16/15:13:13.841125,31932,1615903993,842450142,mocap,-2.78728979492,9.92252929688,1.91470800781,0.144931799488,0.225458866528,0.961286566687,-0.0639625355111
2021/03/16/15:13:13.852113,31933,1615903993,852450132,mocap,-2.78671899414,9.91577832031,1.91519238281,0.143902579016,0.226260395972,0.961325334578,-0.0628639520668
2021/03/16/15:13:13.861401,31934,1615903993,862450123,mocap,-2.78614697266,9.90907519531,1.91572229004,0.143717728232,0.227645087239,0.961096905458,-0.0617710906714
2021/03/16/15:13:13.871998,31935,1615903993,872450113,mocap,-2.78561303711,9.90219433594,1.91605761719,0.142680364873,0.228464126767,0.961114580229,-0.0608704867209
2021/03/16/15:13:13.880593,31936,1615903993,882450104,mocap,-2.7851340332,9.89539257812,1.9166184082,0.142685858937,0.229131817083,0.961007759193,-0.0600286115742
2021/03/16/15:13:13.890792,31937,1615903993,892450094,mocap,-2.78458496094,9.88843847656,1.91695861816,0.141458283162,0.229274048168,0.961209088225,-0.0591612760099
2021/03/16/15:13:13.900875,31938,1615903993,902450085,mocap,-2.78413037109,9.88151464844,1.91756652832,0.141775912385,0.229606228946,0.961122153924,-0.0585216524877
2021/03/16/15:13:13.910885,31939,1615903993,912450075,mocap,-2.78362792969,9.87437402344,1.91802453613,0.140606366875,0.229154487898,0.961459266308,-0.0575686999247
2021/03/16/15:13:13.920661,31940,1615903993,922450066,mocap,-2.78319384766,9.86720898438,1.91854040527,0.140416943126,0.228782004589,0.961607738072,-0.0570302111222
2021/03/16/15:13:13.932894,31941,1615903993,932450056,mocap,-2.78276074219,9.85999707031,1.91914428711,0.139935503146,0.228003913485,0.961892266196,-0.0565291167371
2021/03/16/15:13:13.940744,31942,1615903993,942450047,mocap,-2.78239648437,9.85277929687,1.91982373047,0.140206786599,0.22767963324,0.961963818808,-0.0559433779267
2021/03/16/15:13:13.951710,31943,1615903993,952450037,mocap,-2.78193237305,9.84566992188,1.9205111084,0.138069063423,0.227246794854,0.96238747967,-0.0557330072104
2021/03/16/15:13:13.960882,31944,1615903993,962450027,mocap,-2.78162548828,9.83833496094,1.9211081543,0.138335056583,0.22575981453,0.962720883092,-0.0553570841447
2021/03/16/15:13:13.972787,31945,1615903993,972450256,mocap,-2.78126782227,9.830859375,1.92142480469,0.137762265901,0.224453101164,0.963145038661,-0.0547174426509
2021/03/16/15:13:13.981021,31946,1615903993,982450247,mocap,-2.78100366211,9.82354101563,1.92201293945,0.13772331533,0.223051435781,0.963506722031,-0.0541769045104
2021/03/16/15:13:13.992398,31947,1615903993,992450237,mocap,-2.78077807617,9.81622460938,1.92245166016,0.137077666451,0.222589844222,0.963751533782,-0.0533522452274
2021/03/16/15:13:14.001146,31948,1615903994,2450228,mocap,-2.78055200195,9.80883105469,1.92269482422,0.137698841701,0.221669988372,0.963897294924,-0.0529477780596
2021/03/16/15:13:14.012644,31949,1615903994,12450218,mocap,-2.78031860352,9.80132128906,1.92274414063,0.136586112917,0.220631341684,0.964344296934,-0.0520203168046
2021/03/16/15:13:14.020806,31950,1615903994,22450209,mocap,-2.78016186523,9.79385058594,1.92270166016,0.136023581718,0.220676810515,0.964475020712,-0.050865226973
2021/03/16/15:13:14.032815,31951,1615903994,32450199,mocap,-2.78002783203,9.7864609375,1.92283410645,0.136360988302,0.219610256277,0.964708674007,-0.0501417036379
2021/03/16/15:13:14.041223,31952,1615903994,42450190,mocap,-2.7799284668,9.7789609375,1.92278295898,0.135751351275,0.219123611044,0.964964785687,-0.048983361624
2021/03/16/15:13:14.052587,31953,1615903994,52450180,mocap,-2.77982446289,9.77147753906,1.92273388672,0.136124327622,0.219037343941,0.964970769514,-0.0482101042829
2021/03/16/15:13:14.060904,31954,1615903994,62450171,mocap,-2.77973120117,9.76393261719,1.92250622559,0.135856098493,0.218834390365,0.965108889084,-0.0471112456456
2021/03/16/15:13:14.072382,31955,1615903994,72450161,mocap,-2.77961816406,9.75622851563,1.92204541016,0.13509637246,0.218465583751,0.965347490587,-0.0461083863503
2021/03/16/15:13:14.080923,31956,1615903994,82450151,mocap,-2.77958837891,9.74856054687,1.92162145996,0.134924351989,0.218583763959,0.965394214408,-0.0450618459107
2021/03/16/15:13:14.092270,31957,1615903994,92450142,mocap,-2.77958618164,9.74091113281,1.92124597168,0.135456468704,0.21855908657,0.965363551673,-0.0442343152756
2021/03/16/15:13:14.100744,31958,1615903994,102450132,mocap,-2.77956005859,9.73311914062,1.92071887207,0.135192046159,0.218737846061,0.965397965182,-0.0434008101909
2021/03/16/15:13:14.112167,31959,1615903994,112450123,mocap,-2.7796081543,9.72525390625,1.92004284668,0.135235996999,0.219015117965,0.965359793048,-0.0427092380747
2021/03/16/15:13:14.120875,31960,1615903994,122450113,mocap,-2.77966015625,9.71730371094,1.91923522949,0.134697511401,0.219216473177,0.965418547871,-0.0420445896164
2021/03/16/15:13:14.131491,31961,1615903994,132450104,mocap,-2.77977807617,9.70929980469,1.9184486084,0.134953808994,0.21939150859,0.965369324646,-0.0414356061641
2021/03/16/15:13:14.141125,31962,1615903994,142450094,mocap,-2.77992578125,9.70126464844,1.91765148926,0.13515865408,0.220225353829,0.965180373061,-0.0407403471537
2021/03/16/15:13:14.151291,31963,1615903994,152450085,mocap,-2.7801015625,9.69311035156,1.91668200684,0.134860468654,0.220903304442,0.965091410987,-0.0401615286523
2021/03/16/15:13:14.160869,31964,1615903994,162450075,mocap,-2.78026391602,9.68487695313,1.91558703613,0.13443988805,0.220904877494,0.965170206602,-0.0396664849204
2021/03/16/15:13:14.172392,31965,1615903994,172450066,mocap,-2.78052612305,9.67662890625,1.91459289551,0.13488833094,0.221788403333,0.964927275899,-0.03912027161
2021/03/16/15:13:14.180969,31966,1615903994,182450056,mocap,-2.78075048828,9.668171875,1.9133404541,0.134015453632,0.222044152298,0.965004949965,-0.0387518408854
2021/03/16/15:13:14.192023,31967,1615903994,192450047,mocap,-2.78108227539,9.65969824219,1.91208740234,0.133928477205,0.222746433062,0.964862159214,-0.0385773005297
2021/03/16/15:13:14.201247,31968,1615903994,202450037,mocap,-2.78141162109,9.65122851563,1.91096203613,0.13464837694,0.223221985485,0.964657027984,-0.0384523399033
2021/03/16/15:13:14.211985,31969,1615903994,212450027,mocap,-2.78173266602,9.64251074219,1.90955078125,0.133864159841,0.223387431269,0.964730205882,-0.038393619898
2021/03/16/15:13:14.220718,31970,1615903994,222450256,mocap,-2.78215893555,9.63386328125,1.90829077148,0.1345212928,0.224001333523,0.964491374423,-0.0385204279513
2021/03/16/15:13:14.231987,31971,1615903994,232450247,mocap,-2.78254882812,9.6250625,1.90687878418,0.134418407634,0.224334943921,0.964423539862,-0.0386362233199
2021/03/16/15:13:14.240915,31972,1615903994,242450237,mocap,-2.78304931641,9.61619042969,1.90546447754,0.134821190741,0.225017371645,0.964205426483,-0.0387081594271
2021/03/16/15:13:14.250859,31973,1615903994,252450228,mocap,-2.78355615234,9.60739746094,1.90408911133,0.134554234561,0.225632333787,0.964085779265,-0.0390361505501
2021/03/16/15:13:14.260905,31974,1615903994,262450218,mocap,-2.78408251953,9.59845996094,1.90273413086,0.135142352308,0.226697810072,0.963744769299,-0.0392512390079
2021/03/16/15:13:14.272927,31975,1615903994,272450209,mocap,-2.78467211914,9.58945996094,1.9013873291,0.134906583158,0.227583718102,0.963566556386,-0.039311153329
2021/03/16/15:13:14.280778,31976,1615903994,282450199,mocap,-2.78532104492,9.58036914063,1.90018225098,0.135349481355,0.228899604384,0.963174511146,-0.0397536061006
2021/03/16/15:13:14.290897,31977,1615903994,292450190,mocap,-2.78606738281,9.57129199219,1.89915307617,0.135324361702,0.229932062881,0.962922147966,-0.0399936967759
2021/03/16/15:13:14.302824,31978,1615903994,302450180,mocap,-2.78680810547,9.56202832031,1.89827319336,0.135246197716,0.230812714358,0.962705180357,-0.0404064621175
2021/03/16/15:13:14.311089,31979,1615903994,312450171,mocap,-2.78763720703,9.55279394531,1.89761218262,0.13496517302,0.232128643444,0.962409249276,-0.0408550482797
2021/03/16/15:13:14.322743,31980,1615903994,322450161,mocap,-2.78841967773,9.54336816406,1.89692749023,0.135246280659,0.232477093593,0.962265090019,-0.0413370123206
2021/03/16/15:13:14.330703,31981,1615903994,332450151,mocap,-2.78930126953,9.5339453125,1.89647277832,0.135594718331,0.233351611283,0.961963632923,-0.0422737532525
2021/03/16/15:13:14.342754,31982,1615903994,342450142,mocap,-2.79014868164,9.52455175781,1.89623913574,0.135415792246,0.234785852312,0.961620258832,-0.0427158394784
2021/03/16/15:13:14.350882,31983,1615903994,352450132,mocap,-2.79109179687,9.51510742187,1.89625549316,0.135821409786,0.235793076788,0.96127935082,-0.0435449877382
2021/03/16/15:13:14.362636,31984,1615903994,362450123,mocap,-2.79198193359,9.50551074219,1.89647521973,0.136082527996,0.23730802556,0.960842980799,-0.0441273367976
2021/03/16/15:13:14.371165,31985,1615903994,372450113,mocap,-2.79304931641,9.49588476563,1.89713476562,0.136518374507,0.238328193879,0.960497096177,-0.0448077793072
2021/03/16/15:13:14.382545,31986,1615903994,382450104,mocap,-2.79408544922,9.48619335937,1.89807128906,0.137060156643,0.239278716841,0.96014743984,-0.0455752969417
2021/03/16/15:13:14.391465,31987,1615903994,392450094,mocap,-2.79513720703,9.47638183594,1.8990982666,0.137532043008,0.239691221826,0.959918939985,-0.0467833397427
2021/03/16/15:13:14.402499,31988,1615903994,402450085,mocap,-2.79618652344,9.46646289062,1.9003605957,0.137677267228,0.240082633785,0.959751211019,-0.0477798386648
2021/03/16/15:13:14.410857,31989,1615903994,412450075,mocap,-2.79729443359,9.45652636719,1.9017677002,0.137891777614,0.240396767758,0.959601256316,-0.0485867327868
2021/03/16/15:13:14.421492,31990,1615903994,422450066,mocap,-2.79844677734,9.44661230469,1.90345166016,0.138424021486,0.240559480383,0.959427236011,-0.049692212141
2021/03/16/15:13:14.430952,31991,1615903994,432450056,mocap,-2.79956958008,9.43665039062,1.9051439209,0.138834624573,0.240262035487,0.959383995871,-0.0508080682387
2021/03/16/15:13:14.442390,31992,1615903994,442450047,mocap,-2.80072216797,9.426671875,1.90679223633,0.138751994724,0.239767225049,0.959453879602,-0.0520367164965
2021/03/16/15:13:14.450871,31993,1615903994,452450037,mocap,-2.80180493164,9.41671289062,1.90824353027,0.139199436417,0.238889073074,0.959539699396,-0.053283125808
2021/03/16/15:13:14.460845,31994,1615903994,462450027,mocap,-2.80290087891,9.40671679687,1.90961413574,0.139221493157,0.237878411959,0.959720523257,-0.054477086139
2021/03/16/15:13:14.472092,31995,1615903994,472450256,mocap,-2.80397949219,9.39677246094,1.91080310059,0.139027572701,0.236521025086,0.960023561688,-0.0555328035904
2021/03/16/15:13:14.480954,31996,1615903994,482450247,mocap,-2.80507080078,9.38700683594,1.911953125,0.139009942258,0.235604877602,0.960183910347,-0.0566872572534
2021/03/16/15:13:14.492462,31997,1615903994,492450237,mocap,-2.80612695313,9.37728710938,1.91296765137,0.13839936979,0.234365709357,0.960522484518,-0.0575750082928
2021/03/16/15:13:14.500955,31998,1615903994,502450228,mocap,-2.80710791016,9.36763769531,1.91370471191,0.137698341546,0.233691347811,0.960721464606,-0.0586667852804
2021/03/16/15:13:14.512368,31999,1615903994,512450218,mocap,-2.80813818359,9.35818554687,1.91459606934,0.137203771671,0.233270052428,0.96086149768,-0.0592063526265
2021/03/16/15:13:14.520941,32000,1615903994,522450209,mocap,-2.80915942383,9.34872753906,1.9152857666,0.136480749285,0.233318394273,0.960915069008,-0.0598143732982
2021/03/16/15:13:14.532351,32001,1615903994,532450199,mocap,-2.8101237793,9.33931738281,1.91603710937,0.136118403011,0.234001738257,0.960800696148,-0.0598078843062
2021/03/16/15:13:14.540821,32002,1615903994,542450190,mocap,-2.81106103516,9.33001367187,1.91656225586,0.135005700263,0.235133534431,0.960666742404,-0.0600424828336
2021/03/16/15:13:14.552130,32003,1615903994,552450180,mocap,-2.81193920898,9.32079980469,1.91727075195,0.134654985407,0.235996202836,0.960519017222,-0.0598084553262
2021/03/16/15:13:14.560781,32004,1615903994,562450171,mocap,-2.81274145508,9.31153417969,1.91787231445,0.133891787474,0.237271827499,0.960297487702,-0.0600317477168
2021/03/16/15:13:14.571968,32005,1615903994,572450161,mocap,-2.81353613281,9.30227734375,1.91846948242,0.133903070001,0.238815271845,0.959925234685,-0.0598395852924
2021/03/16/15:13:14.580797,32006,1615903994,582450151,mocap,-2.81422875977,9.29314160156,1.9192088623,0.133257037957,0.240069403717,0.959709786579,-0.0597191221039
2021/03/16/15:13:14.592564,32007,1615903994,592450142,mocap,-2.81478369141,9.28382617188,1.91975769043,0.132384261216,0.240540826716,0.959709444991,-0.0597686736675
2021/03/16/15:13:14.601192,32008,1615903994,602450132,mocap,-2.81536328125,9.2744921875,1.92056164551,0.132588947751,0.242446161427,0.959210215778,-0.0596305929696
2021/03/16/15:13:14.612555,32009,1615903994,612450123,mocap,-2.81582641602,9.26518554687,1.9213013916,0.132160019285,0.242610896113,0.959209710896,-0.0599201004057
2021/03/16/15:13:14.620955,32010,1615903994,622450113,mocap,-2.8162409668,9.25575292969,1.9220189209,0.131749801441,0.243030808373,0.959153310032,-0.0600245994184
2021/03/16/15:13:14.632084,32011,1615903994,632450104,mocap,-2.81648291016,9.24623925781,1.9227199707,0.130889269721,0.242307624117,0.959415944683,-0.0606305187987
2021/03/16/15:13:14.641144,32012,1615903994,642450094,mocap,-2.81671264648,9.23670410156,1.92339587402,0.130736988186,0.241788124179,0.959525870287,-0.0612898227349
2021/03/16/15:13:14.653316,32013,1615903994,652450085,mocap,-2.81688037109,9.22712890625,1.92406799316,0.130371830203,0.240807155924,0.959766038298,-0.0621631482325
2021/03/16/15:13:14.661194,32014,1615903994,662450075,mocap,-2.81692773438,9.217484375,1.92469030762,0.130184345026,0.239865379071,0.959956210834,-0.063251167458
2021/03/16/15:13:14.672917,32015,1615903994,672450066,mocap,-2.81692016602,9.20783300781,1.92522790527,0.130104766035,0.238596152922,0.96022348316,-0.0641521404479
2021/03/16/15:13:14.680883,32016,1615903994,682450056,mocap,-2.81676904297,9.19818457031,1.92565539551,0.129934658332,0.237109227137,0.960527953046,-0.0654389825697
2021/03/16/15:13:14.693112,32017,1615903994,692450047,mocap,-2.81653466797,9.18847851563,1.92590161133,0.129950729204,0.235836215304,0.960752337535,-0.0667010218883
2021/03/16/15:13:14.701015,32018,1615903994,702450037,mocap,-2.81625073242,9.1787734375,1.92601086426,0.129454281846,0.234400850709,0.961087207453,-0.0678910828235
2021/03/16/15:13:14.712746,32019,1615903994,712450027,mocap,-2.81590136719,9.16923339844,1.92613549805,0.129760634733,0.233119101801,0.961254811814,-0.0693314521428
2021/03/16/15:13:14.721191,32020,1615903994,722450256,mocap,-2.81546679688,9.15972558594,1.9261015625,0.130336600401,0.232423321317,0.961229481571,-0.0709200580452
2021/03/16/15:13:14.732868,32021,1615903994,732450247,mocap,-2.81497998047,9.15032226563,1.92607800293,0.131425033223,0.231995888165,0.961066942878,-0.0724961582113
2021/03/16/15:13:14.741242,32022,1615903994,742450237,mocap,-2.81440014648,9.14087988281,1.92563061523,0.131570023104,0.231775834901,0.961007960768,-0.073708841892
2021/03/16/15:13:14.752868,32023,1615903994,752450228,mocap,-2.8137565918,9.13151855469,1.92514916992,0.131842817981,0.231574573004,0.960925327007,-0.0749213145714
2021/03/16/15:13:14.760926,32024,1615903994,762450218,mocap,-2.81310522461,9.12217578125,1.92458898926,0.132621560395,0.231987401877,0.960611233721,-0.0762851709851
2021/03/16/15:13:14.772970,32025,1615903994,772450209,mocap,-2.81237939453,9.11287988281,1.92386987305,0.133630752586,0.232267590964,0.960327986342,-0.0772317028472
2021/03/16/15:13:14.780751,32026,1615903994,782450199,mocap,-2.81167163086,9.10362207031,1.92305700684,0.134952986177,0.233332654361,0.959782402379,-0.0784939519893
2021/03/16/15:13:14.792669,32027,1615903994,792450190,mocap,-2.81086181641,9.09426171875,1.92212133789,0.135526892043,0.233758437848,0.959538371624,-0.0792185331871
2021/03/16/15:13:14.801142,32028,1615903994,802450180,mocap,-2.81004907227,9.08493164062,1.92104333496,0.135845426272,0.234599505705,0.959221493993,-0.0800200523798
2021/03/16/15:13:14.812591,32029,1615903994,812450171,mocap,-2.80923608398,9.07558984375,1.91995581055,0.136973770941,0.23582300338,0.958698183385,-0.0807680313411
2021/03/16/15:13:14.821083,32030,1615903994,822450161,mocap,-2.80839086914,9.06617675781,1.91867675781,0.137213040576,0.23664503639,0.958395635439,-0.0815445096931
2021/03/16/15:13:14.832536,32031,1615903994,832450151,mocap,-2.80748999023,9.05669140625,1.91734289551,0.138313407521,0.237554131146,0.957952616401,-0.0822448558916
2021/03/16/15:13:14.840798,32032,1615903994,842450142,mocap,-2.80657568359,9.0471953125,1.91589331055,0.138623527555,0.238232222222,0.957695601955,-0.082753034266
2021/03/16/15:13:14.852657,32033,1615903994,852450132,mocap,-2.8056315918,9.03766601562,1.91439697266,0.139147833156,0.238776627118,0.957433818305,-0.0833311331504
2021/03/16/15:13:14.860837,32034,1615903994,862450123,mocap,-2.80465673828,9.02796484375,1.91271899414,0.140013493696,0.239668585418,0.957049280114,-0.0837368818012
2021/03/16/15:13:14.872498,32035,1615903994,872450113,mocap,-2.80366503906,9.01837792969,1.91115026855,0.140687843538,0.240198847857,0.956783893304,-0.0841191465147
2021/03/16/15:13:14.880894,32036,1615903994,882450104,mocap,-2.80260717773,9.00878710937,1.90945983887,0.140990153345,0.240639065766,0.956610334048,-0.084328414619
2021/03/16/15:13:14.890717,32037,1615903994,892450094,mocap,-2.80159033203,8.99899609375,1.9077121582,0.141937587535,0.241516814951,0.956259061733,-0.0842138351594
2021/03/16/15:13:14.902464,32038,1615903994,902450085,mocap,-2.80050097656,8.98929785156,1.90608093262,0.142041091248,0.24265099361,0.955998949992,-0.0837307084347
2021/03/16/15:13:14.910935,32039,1615903994,912450075,mocap,-2.79940942383,8.97957226563,1.90463513184,0.142235363511,0.243545054814,0.955768811324,-0.0834320154652
2021/03/16/15:13:14.922246,32040,1615903994,922450066,mocap,-2.79823486328,8.96975,1.90322558594,0.141784980554,0.244209079653,0.955763720928,-0.0823082509775
2021/03/16/15:13:14.930916,32041,1615903994,932450056,mocap,-2.79701733398,8.95987890625,1.90207727051,0.141633572871,0.244779789731,0.955705495155,-0.0815462780284
2021/03/16/15:13:14.942050,32042,1615903994,942450047,mocap,-2.79577099609,8.94980957031,1.90085803223,0.141518481117,0.245245585951,0.955702368995,-0.0803748372672
2021/03/16/15:13:14.950908,32043,1615903994,952450037,mocap,-2.79444067383,8.93984472656,1.9000189209,0.141412450623,0.245378783405,0.955745954998,-0.0796331441757
2021/03/16/15:13:14.961114,32044,1615903994,962450027,mocap,-2.79307543945,8.92973144531,1.89923657227,0.141584940036,0.24530604984,0.955794099201,-0.078970160217
2021/03/16/15:13:14.970690,32045,1615903994,972450256,mocap,-2.79158081055,8.91962109375,1.89859802246,0.141308091836,0.245553294117,0.955877581861,-0.0776766108099
2021/03/16/15:13:14.982402,32046,1615903994,982450247,mocap,-2.79007055664,8.90955273437,1.89836401367,0.140635331881,0.245954656353,0.955969669353,-0.0764853622239
2021/03/16/15:13:14.990837,32047,1615903994,992450237,mocap,-2.78860375977,8.89939355469,1.89838952637,0.140762705829,0.246441941323,0.955941081481,-0.0750258779104
2021/03/16/15:13:15.000947,32048,1615903995,2450228,mocap,-2.78699926758,8.88933007813,1.89882580566,0.140510594099,0.24718534004,0.955897309517,-0.0735970056498
2021/03/16/15:13:15.010817,32049,1615903995,12450218,mocap,-2.78533666992,8.87917480469,1.89934765625,0.13949675078,0.247830674392,0.955973870171,-0.0723503045953
2021/03/16/15:13:15.022046,32050,1615903995,22450209,mocap,-2.78367333984,8.86894921875,1.89999230957,0.139143584039,0.24808586715,0.956048156903,-0.0711646279897
2021/03/16/15:13:15.030746,32051,1615903995,32450199,mocap,-2.78190625,8.85875195312,1.90087536621,0.139606479827,0.248612084285,0.955917449858,-0.0701704231384
2021/03/16/15:13:15.043068,32052,1615903995,42450190,mocap,-2.78006958008,8.84858984375,1.90194372559,0.13991734098,0.248779919589,0.955874939524,-0.0695325872797
2021/03/16/15:13:15.050796,32053,1615903995,52450180,mocap,-2.77822753906,8.83836914062,1.9030592041,0.141145382328,0.24876570837,0.955764430311,-0.0686146085591
2021/03/16/15:13:15.062889,32054,1615903995,62450171,mocap,-2.77636694336,8.82820703125,1.90436108398,0.142028918407,0.248144562598,0.955828771503,-0.0681425984199
2021/03/16/15:13:15.070940,32055,1615903995,72450161,mocap,-2.77447705078,8.81806835937,1.90551940918,0.141980585365,0.247425303254,0.956049832418,-0.0677564942646
2021/03/16/15:13:15.080936,32056,1615903995,82450151,mocap,-2.77263500977,8.80789648438,1.90687512207,0.143843662199,0.246558231571,0.955993977724,-0.0677757224906
2021/03/16/15:13:15.093080,32057,1615903995,92450142,mocap,-2.77082421875,8.79772753906,1.90818383789,0.145176738456,0.244862455345,0.956253747995,-0.0674156081969
2021/03/16/15:13:15.100632,32058,1615903995,102450132,mocap,-2.76903320312,8.78770996094,1.90942114258,0.146491233132,0.243226868631,0.956436112313,-0.0679040659137
2021/03/16/15:13:15.112661,32059,1615903995,112450123,mocap,-2.7673190918,8.77775488281,1.91053479004,0.147426743562,0.241331949469,0.956771978953,-0.0679090054175
2021/03/16/15:13:15.120922,32060,1615903995,122450113,mocap,-2.76570239258,8.76773730469,1.91147924805,0.148782046104,0.239874706276,0.956923677276,-0.0679786875792
2021/03/16/15:13:15.132151,32061,1615903995,132450104,mocap,-2.76422363281,8.75803613281,1.91248706055,0.150573524691,0.238689909373,0.956930972704,-0.0681018514609
2021/03/16/15:13:15.141133,32062,1615903995,142450094,mocap,-2.7628347168,8.74853808594,1.91348657227,0.150896430457,0.237438443487,0.957229344633,-0.067566544112
2021/03/16/15:13:15.152507,32063,1615903995,152450085,mocap,-2.76146166992,8.73906542969,1.91446044922,0.151837502367,0.237213879954,0.95715145991,-0.0673500789218
2021/03/16/15:13:15.161046,32064,1615903995,162450075,mocap,-2.76036474609,8.72965820313,1.91540563965,0.15271734821,0.236388021479,0.957265723952,-0.0666368038986
2021/03/16/15:13:15.172627,32065,1615903995,172450066,mocap,-2.75929858398,8.72037207031,1.91650878906,0.153184075024,0.236035049888,0.957312172901,-0.0661475418476
2021/03/16/15:13:15.180855,32066,1615903995,182450056,mocap,-2.75834375,8.71115332031,1.91754370117,0.154035530151,0.235656953356,0.957301580435,-0.0656699037738
2021/03/16/15:13:15.192305,32067,1615903995,192450047,mocap,-2.75743896484,8.70197167969,1.9185847168,0.154588124638,0.234422935545,0.957572052413,-0.0648394564062
2021/03/16/15:13:15.201324,32068,1615903995,202450037,mocap,-2.75661914062,8.69288769531,1.91966455078,0.154826660143,0.233717111179,0.957762551678,-0.0639992917193
2021/03/16/15:13:15.212230,32069,1615903995,212450027,mocap,-2.75597143555,8.68388671875,1.92074328613,0.15513905501,0.233028841807,0.957950524222,-0.0629302976766
2021/03/16/15:13:15.220988,32070,1615903995,222450256,mocap,-2.75538183594,8.67486523437,1.92180053711,0.155229080093,0.232047812292,0.958258048846,-0.0616381491537
2021/03/16/15:13:15.232370,32071,1615903995,232450247,mocap,-2.75488574219,8.66600390625,1.92285192871,0.15564600727,0.231381971898,0.958413422216,-0.0606664464546
2021/03/16/15:13:15.241078,32072,1615903995,242450237,mocap,-2.75444897461,8.65723046875,1.92389672852,0.156259139085,0.230718797396,0.958521092031,-0.0599102120422
2021/03/16/15:13:15.252867,32073,1615903995,252450228,mocap,-2.75405395508,8.64846972656,1.92488842773,0.156257477342,0.229928989468,0.958776797265,-0.0588499375732
2021/03/16/15:13:15.260950,32074,1615903995,262450218,mocap,-2.75376049805,8.63982910156,1.92580957031,0.156651050984,0.229446334717,0.958893610433,-0.0577742034128
2021/03/16/15:13:15.272238,32075,1615903995,272450209,mocap,-2.75356494141,8.63130566406,1.92669018555,0.156929052397,0.228453345223,0.959128009738,-0.0570596384997
2021/03/16/15:13:15.281076,32076,1615903995,282450199,mocap,-2.75342651367,8.62274414063,1.92746972656,0.157565518475,0.227855130679,0.959217354002,-0.0561890532051
2021/03/16/15:13:15.292396,32077,1615903995,292450190,mocap,-2.75332275391,8.61426953125,1.9282109375,0.157194411979,0.227519155452,0.959427026338,-0.0549974481189
2021/03/16/15:13:15.301052,32078,1615903995,302450180,mocap,-2.75335742188,8.6058671875,1.92884375,0.156425616173,0.226904045837,0.959761031205,-0.0538919995992
2021/03/16/15:13:15.311106,32079,1615903995,312450171,mocap,-2.75340380859,8.5974375,1.92936193848,0.156696706293,0.226455152424,0.959873719391,-0.0529778024134
2021/03/16/15:13:15.322068,32080,1615903995,322450161,mocap,-2.75356835937,8.58909960937,1.9298885498,0.156482240044,0.225611374195,0.960169306791,-0.0518432976625
2021/03/16/15:13:15.331098,32081,1615903995,332450151,mocap,-2.75378344727,8.58085058594,1.93033447266,0.15592842789,0.225413905801,0.960359562392,-0.0508371158016
2021/03/16/15:13:15.342017,32082,1615903995,342450142,mocap,-2.75411791992,8.57258691406,1.93068200684,0.155457450416,0.224939763028,0.960597505356,-0.0498750701336
2021/03/16/15:13:15.351048,32083,1615903995,352450132,mocap,-2.75441967773,8.56427441406,1.93084851074,0.15472474372,0.224929692737,0.960781852398,-0.0486324547903
2021/03/16/15:13:15.360935,32084,1615903995,362450123,mocap,-2.75472729492,8.55609179688,1.93092724609,0.153949356011,0.224769303654,0.960986632355,-0.0477813615761
2021/03/16/15:13:15.373201,32085,1615903995,372450113,mocap,-2.75508032227,8.54792480469,1.93082739258,0.15331126969,0.224509597676,0.961192360863,-0.0469078290259
2021/03/16/15:13:15.380917,32086,1615903995,382450104,mocap,-2.75550708008,8.53981152344,1.93077148437,0.152484136955,0.224751521598,0.961292263387,-0.0463953448373
2021/03/16/15:13:15.391121,32087,1615903995,392450094,mocap,-2.75590356445,8.53162011719,1.93038757324,0.152086877291,0.225368971589,0.961264066333,-0.0452747965114
2021/03/16/15:13:15.401923,32088,1615903995,402450085,mocap,-2.75628393555,8.523578125,1.92999926758,0.151595838725,0.225443229304,0.961351359806,-0.0446947358649
2021/03/16/15:13:15.410943,32089,1615903995,412450075,mocap,-2.75669873047,8.51541894531,1.92946716309,0.151002128899,0.226160784524,0.961304664248,-0.0440794197009
2021/03/16/15:13:15.421099,32090,1615903995,422450066,mocap,-2.75721728516,8.50724804688,1.92877453613,0.150957114174,0.22680150368,0.961178214465,-0.0436974133804
2021/03/16/15:13:15.431849,32091,1615903995,432450056,mocap,-2.75765234375,8.49919335938,1.92802001953,0.150184295733,0.228029643281,0.961040305244,-0.0429964475338
2021/03/16/15:13:15.440868,32092,1615903995,442450047,mocap,-2.75811352539,8.4910703125,1.92717163086,0.150490943121,0.228632634652,0.96086667738,-0.0426007594846
2021/03/16/15:13:15.452811,32093,1615903995,452450037,mocap,-2.75868115234,8.48282519531,1.92618371582,0.150280324154,0.230241722454,0.960520700453,-0.0424800695175
2021/03/16/15:13:15.460726,32094,1615903995,462450027,mocap,-2.75921264648,8.47476953125,1.92517480469,0.14986591378,0.230801066778,0.960471598564,-0.0420164228898
2021/03/16/15:13:15.472914,32095,1615903995,472450256,mocap,-2.75975585937,8.46655859375,1.92406188965,0.149745333892,0.2320656184,0.960206366179,-0.0415405641987
2021/03/16/15:13:15.480799,32096,1615903995,482450247,mocap,-2.76044018555,8.45829785156,1.92277661133,0.149759054943,0.233237941335,0.959925956516,-0.0414059222572
2021/03/16/15:13:15.492912,32097,1615903995,492450237,mocap,-2.76100244141,8.45002734375,1.92145959473,0.149236536344,0.234252522657,0.959775873858,-0.0410424108893
2021/03/16/15:13:15.500897,32098,1615903995,502450228,mocap,-2.76168994141,8.44169042969,1.92005163574,0.149065428674,0.235184340092,0.959571643023,-0.0411107594653
2021/03/16/15:13:15.512674,32099,1615903995,512450218,mocap,-2.76237329102,8.43334375,1.91866186523,0.149619385898,0.236102094111,0.95925573173,-0.0412101801064
2021/03/16/15:13:15.520951,32100,1615903995,522450209,mocap,-2.76302124023,8.42493554688,1.91717443848,0.149272991039,0.237267823647,0.959028332357,-0.0410636033109
2021/03/16/15:13:15.532988,32101,1615903995,532450199,mocap,-2.76383398438,8.41656054688,1.91568615723,0.149354975031,0.238374884832,0.958724140045,-0.0414552772577
2021/03/16/15:13:15.541372,32102,1615903995,542450190,mocap,-2.76448071289,8.40804101563,1.91421240234,0.149373311269,0.239531122624,0.958437163319,-0.0413601055766
2021/03/16/15:13:15.552565,32103,1615903995,552450180,mocap,-2.76538012695,8.39955664063,1.91292175293,0.149850968145,0.240782192995,0.958010246748,-0.0422491838405
2021/03/16/15:13:15.560842,32104,1615903995,562450171,mocap,-2.76613110352,8.39096289062,1.9116003418,0.149186097267,0.241567519136,0.957924017707,-0.0420739850635
2021/03/16/15:13:15.572712,32105,1615903995,572450161,mocap,-2.76712426758,8.38227050781,1.91035961914,0.150055451248,0.243008108102,0.957363584776,-0.0434210952841
2021/03/16/15:13:15.581154,32106,1615903995,582450151,mocap,-2.7678659668,8.37359375,1.90941345215,0.14928138671,0.243801003567,0.957284854841,-0.0433802269415
2021/03/16/15:13:15.592548,32107,1615903995,592450142,mocap,-2.76890356445,8.36480371094,1.90845593262,0.150099430994,0.244926806851,0.956797855489,-0.0449319564012
2021/03/16/15:13:15.600998,32108,1615903995,602450132,mocap,-2.76975634766,8.35614355469,1.90780615234,0.15004213973,0.245325419175,0.956677453176,-0.0455086582753
