time,.header.seq,.header.stamp.secs,.header.stamp.nsecs,.header.frame_id,.pose.position.x,.pose.position.y,.pose.position.z,.pose.orientation.x,.pose.orientation.y,.pose.orientation.z,.pose.orientation.w
2021/03/16/13:20:40.327684,542230,1615897240,328171015,mocap,-2.78856567383,10.3945195312,1.92936486816,0.160170058503,0.172757221875,0.971833850382,-0.00628211545159
2021/03/16/13:20:40.337999,542231,1615897240,338171005,mocap,-2.78855297852,10.3944912109,1.92936083984,0.160412942781,0.172854119971,0.971776388139,-0.00630818085406
2021/03/16/13:20:40.346853,542232,1615897240,348170996,mocap,-2.7884987793,10.3944511719,1.92932727051,0.160383330395,0.172755912536,0.971799166441,-0.00624182834217
2021/03/16/13:20:40.357221,542233,1615897240,358170986,mocap,-2.7884621582,10.3944287109,1.9293145752,0.160384530766,0.172737311636,0.971802624157,-0.00618724177977
2021/03/16/13:20:40.367132,542234,1615897240,368170977,mocap,-2.78843774414,10.3944199219,1.92931811523,0.160558737989,0.172762580116,0.971769380503,-0.00618480160921
2021/03/16/13:20:40.376675,542235,1615897240,378171206,mocap,-2.78840234375,10.394390625,1.92930871582,0.160468700309,0.172624377938,0.971809240551,-0.0061171517916
2021/03/16/13:20:40.387935,542236,1615897240,388171196,mocap,-2.78836279297,10.3943583984,1.92931396484,0.160377209168,0.172637457889,0.971822227873,-0.00608451474782
2021/03/16/13:20:40.396637,542237,1615897240,398171186,mocap,-2.78832373047,10.3943457031,1.92932202148,0.160515873189,0.172513717467,0.971820939882,-0.00614322611129
2021/03/16/13:20:40.408006,542238,1615897240,408171177,mocap,-2.78827783203,10.3943271484,1.92931469727,0.160697238117,0.172546714278,0.971785404454,-0.00609540133686
2021/03/16/13:20:40.418052,542239,1615897240,418171167,mocap,-2.78820922852,10.3942841797,1.92926708984,0.160787605061,0.17257854516,0.971765125295,-0.00604388226985
2021/03/16/13:20:40.426716,542240,1615897240,428171158,mocap,-2.78819555664,10.3942578125,1.92930895996,0.160805236564,0.172546127291,0.971768199781,-0.00600651510496
2021/03/16/13:20:40.436806,542241,1615897240,438171148,mocap,-2.78816088867,10.3942412109,1.9293182373,0.16084733202,0.172502342761,0.971768966484,-0.00601283087278
2021/03/16/13:20:40.446932,542242,1615897240,448171139,mocap,-2.78812841797,10.3942148437,1.92929882813,0.160800701811,0.172431702922,0.971789812911,-0.00591523112584
2021/03/16/13:20:40.456668,542243,1615897240,458171129,mocap,-2.78810009766,10.3941884766,1.92929199219,0.160675466407,0.172341478428,0.971826521164,-0.00591893968765
2021/03/16/13:20:40.467825,542244,1615897240,468171120,mocap,-2.78807470703,10.3941748047,1.92926831055,0.160686071111,0.172398547051,0.971815335567,-0.00580333703788
2021/03/16/13:20:40.477030,542245,1615897240,478171110,mocap,-2.78807495117,10.3941748047,1.9292935791,0.160661310495,0.172335185151,0.971830622773,-0.00581144415823
2021/03/16/13:20:40.487344,542246,1615897240,488171101,mocap,-2.78804077148,10.3941503906,1.92927624512,0.160612748764,0.172203448966,0.971862131751,-0.00578959367268
2021/03/16/13:20:40.497966,542247,1615897240,498171091,mocap,-2.78801977539,10.3941328125,1.92923779297,0.160897508229,0.172304859593,0.971796314391,-0.00591146164744
2021/03/16/13:20:40.506611,542248,1615897240,508171082,mocap,-2.78800585938,10.3941269531,1.92923840332,0.160821178158,0.172211335892,0.971826145502,-0.00580897258597
2021/03/16/13:20:40.518636,542249,1615897240,518171072,mocap,-2.78797729492,10.3941201172,1.92924243164,0.160876551794,0.172074545922,0.971840190571,-0.00597759690382
2021/03/16/13:20:40.526565,542250,1615897240,528171062,mocap,-2.78796777344,10.394125,1.92922973633,0.160873343672,0.172098014898,0.971837062647,-0.00589633504174
2021/03/16/13:20:40.536887,542251,1615897240,538171053,mocap,-2.78794726563,10.3941074219,1.92920825195,0.160779304687,0.172031780221,0.971865711904,-0.00566726666147
2021/03/16/13:20:40.547744,542252,1615897240,548171043,mocap,-2.78793676758,10.3941357422,1.92922033691,0.160775648253,0.172003697245,0.971871177936,-0.00568662937184
2021/03/16/13:20:40.558749,542253,1615897240,558171034,mocap,-2.78790869141,10.3941542969,1.92921228027,0.160757433709,0.171953608075,0.97188368913,-0.00557523255154
2021/03/16/13:20:40.566734,542254,1615897240,568171024,mocap,-2.78788916016,10.3941621094,1.9291953125,0.160842907925,0.171932057669,0.971873424136,-0.00556579109338
2021/03/16/13:20:40.577254,542255,1615897240,578171015,mocap,-2.78786669922,10.3941982422,1.92921081543,0.160925178561,0.171918104918,0.971862331075,-0.00555441459809
2021/03/16/13:20:40.588508,542256,1615897240,588171005,mocap,-2.78782373047,10.3942451172,1.92920800781,0.160791132578,0.171826164319,0.971901305723,-0.00546201605728
2021/03/16/13:20:40.596762,542257,1615897240,598170996,mocap,-2.78768212891,10.3943408203,1.92918103027,0.161113217061,0.171742681905,0.971857662292,-0.00629823714723
2021/03/16/13:20:40.607443,542258,1615897240,608170986,mocap,-2.78778588867,10.3943242188,1.9292109375,0.160919388191,0.171990759045,0.971851973859,-0.00528024568194
2021/03/16/13:20:40.617747,542259,1615897240,618170977,mocap,-2.78776782227,10.3943730469,1.92921203613,0.16096466442,0.172053549968,0.971833421057,-0.00526931148698
2021/03/16/13:20:40.626607,542260,1615897240,628171206,mocap,-2.78774462891,10.3944248047,1.9292253418,0.161156493871,0.172033942622,0.971804816849,-0.00532043606956
2021/03/16/13:20:40.638708,542261,1615897240,638171196,mocap,-2.78771728516,10.3944707031,1.92920800781,0.161123527363,0.172088405022,0.971800975802,-0.00525752340779
2021/03/16/13:20:40.646672,542262,1615897240,648171186,mocap,-2.78773022461,10.3945351563,1.92923632813,0.161132963716,0.17219005799,0.971781379324,-0.00526240305128
2021/03/16/13:20:40.658572,542263,1615897240,658171177,mocap,-2.78771020508,10.3945957031,1.92923071289,0.161048689044,0.172255085669,0.971784338755,-0.00516723399525
2021/03/16/13:20:40.666854,542264,1615897240,668171167,mocap,-2.7875949707,10.3946904297,1.92920495605,0.161084026978,0.172075466764,0.971805330521,-0.00603041859467
2021/03/16/13:20:40.678617,542265,1615897240,678171158,mocap,-2.78773217773,10.3947001953,1.92923486328,0.161015203829,0.172388892435,0.971765991672,-0.00519909998422
2021/03/16/13:20:40.687032,542266,1615897240,688171148,mocap,-2.78761376953,10.3948066406,1.92921777344,0.161047491618,0.172142104821,0.971799105106,-0.00610676383807
2021/03/16/13:20:40.698413,542267,1615897240,698171139,mocap,-2.78775512695,10.3948652344,1.92927355957,0.16070676187,0.172473943747,0.971802317487,-0.00513242424297
2021/03/16/13:20:40.706795,542268,1615897240,708171129,mocap,-2.78774584961,10.3949003906,1.9292512207,0.160771380994,0.172565358954,0.97177509242,-0.0051892873947
2021/03/16/13:20:40.718243,542269,1615897240,718171120,mocap,-2.78778051758,10.3949609375,1.92928271484,0.160607989707,0.172571014536,0.971801443475,-0.00512591976907
2021/03/16/13:20:40.726697,542270,1615897240,728171110,mocap,-2.78779467773,10.3950332031,1.92928271484,0.160619190601,0.172653578671,0.971784653098,-0.00517561320931
2021/03/16/13:20:40.738223,542271,1615897240,738171101,mocap,-2.78782495117,10.3951025391,1.92930200195,0.160472635582,0.172695255786,0.971801566143,-0.00515638591382
2021/03/16/13:20:40.746625,542272,1615897240,748171091,mocap,-2.78783081055,10.3951757812,1.9292956543,0.160316854451,0.172692551773,0.97182787048,-0.00513666498374
2021/03/16/13:20:40.758670,542273,1615897240,758171082,mocap,-2.78784130859,10.3952392578,1.92929345703,0.160313381389,0.172892628885,0.971793293662,-0.00505408712015
2021/03/16/13:20:40.766801,542274,1615897240,768171072,mocap,-2.787859375,10.3953076172,1.92932727051,0.160118677123,0.173025258019,0.971802118151,-0.00499057764418
2021/03/16/13:20:40.778334,542275,1615897240,778171062,mocap,-2.787859375,10.3953730469,1.9293170166,0.160081142161,0.173035922195,0.971806856201,-0.00490211758419
2021/03/16/13:20:40.786911,542276,1615897240,788171053,mocap,-2.78787963867,10.3954501953,1.92934362793,0.160014455148,0.173053478022,0.971814223901,-0.0049980451072
2021/03/16/13:20:40.798131,542277,1615897240,798171043,mocap,-2.7878762207,10.3955009766,1.9293338623,0.160046847123,0.173191993905,0.971784614763,-0.00491977549272
2021/03/16/13:20:40.806947,542278,1615897240,808171034,mocap,-2.78786547852,10.3955693359,1.92932470703,0.159926197059,0.173234786871,0.971797495079,-0.00478966787839
2021/03/16/13:20:40.817149,542279,1615897240,818171024,mocap,-2.78786669922,10.3956181641,1.92933227539,0.159857064903,0.173361762165,0.97178603314,-0.00483065504363
2021/03/16/13:20:40.827902,542280,1615897240,828171015,mocap,-2.78785913086,10.3956640625,1.92933972168,0.159911382595,0.173373294154,0.971775284095,-0.00478077152638
2021/03/16/13:20:40.838154,542281,1615897240,838171005,mocap,-2.78784472656,10.3957080078,1.92931262207,0.159962199709,0.173331302586,0.971773605025,-0.00494283795815
2021/03/16/13:20:40.846490,542282,1615897240,848170996,mocap,-2.78781542969,10.3957578125,1.92932910156,0.159959645311,0.173407461559,0.971760571051,-0.00491486856397
2021/03/16/13:20:40.857853,542283,1615897240,858170986,mocap,-2.78779541016,10.395796875,1.92932580566,0.159806347423,0.173497805439,0.971770047534,-0.00483745273431
2021/03/16/13:20:40.867960,542284,1615897240,868170977,mocap,-2.78778808594,10.3958398438,1.92933374023,0.159745666718,0.173467932433,0.971785136113,-0.00488307427252
2021/03/16/13:20:40.877760,542285,1615897240,878171206,mocap,-2.7877565918,10.3958681641,1.92932495117,0.159777263722,0.173562311049,0.971763162526,-0.00486863449829
2021/03/16/13:20:40.886769,542286,1615897240,888171196,mocap,-2.78775317383,10.3959082031,1.92933154297,0.159825714791,0.173514768617,0.971763285199,-0.00494787788092
2021/03/16/13:20:40.896706,542287,1615897240,898171186,mocap,-2.78771508789,10.3959355469,1.92933752441,0.159818600351,0.17360659375,0.97174789726,-0.00497899399581
2021/03/16/13:20:40.906760,542288,1615897240,908171177,mocap,-2.78767822266,10.3959550781,1.92932873535,0.159839484929,0.173561763507,0.97175219088,-0.0050326766264
2021/03/16/13:20:40.916834,542289,1615897240,918171167,mocap,-2.78764575195,10.3959697266,1.92932177734,0.159734041327,0.173560621349,0.971769618181,-0.00505504787654
2021/03/16/13:20:40.928042,542290,1615897240,928171158,mocap,-2.78761010742,10.3960107422,1.92935424805,0.159834737594,0.173758230246,0.971717611368,-0.00508156117633
2021/03/16/13:20:40.936942,542291,1615897240,938171148,mocap,-2.78755810547,10.3960185547,1.9293223877,0.159843019172,0.173734469371,0.971720310301,-0.00511571017788
2021/03/16/13:20:40.947567,542292,1615897240,948171139,mocap,-2.7875012207,10.3960136719,1.92931420898,0.159886514189,0.173787581093,0.971703035467,-0.00523425325451
2021/03/16/13:20:40.958584,542293,1615897240,958171129,mocap,-2.78745385742,10.3960185547,1.92934191895,0.159782329648,0.17379176326,0.971719436216,-0.00523209374871
2021/03/16/13:20:40.966690,542294,1615897240,968171120,mocap,-2.78741357422,10.3960097656,1.92934484863,0.159874002797,0.173814343193,0.971699807424,-0.00532514481826
2021/03/16/13:20:40.979064,542295,1615897240,978171110,mocap,-2.78734399414,10.3959824219,1.92933837891,0.1598080119,0.173796172925,0.971714329701,-0.00524894844325
2021/03/16/13:20:40.986498,542296,1615897240,988171101,mocap,-2.78727050781,10.39596875,1.92932641602,0.15998000276,0.173933627377,0.971661085401,-0.00531242706992
2021/03/16/13:20:40.997556,542297,1615897240,998171091,mocap,-2.78721264648,10.3959433594,1.92935632324,0.160006467668,0.17400808775,0.971643372437,-0.00531799600556
2021/03/16/13:20:41.008495,542298,1615897241,8171082,mocap,-2.78712304688,10.3958876953,1.92934265137,0.160264890197,0.174072140253,0.971588406516,-0.00547952322282
2021/03/16/13:20:41.016665,542299,1615897241,18171072,mocap,-2.78705224609,10.3958134766,1.9293494873,0.160055590947,0.174214974102,0.971597508928,-0.00544311417298
2021/03/16/13:20:41.026929,542300,1615897241,28171062,mocap,-2.78697314453,10.3957353516,1.92933654785,0.160056652498,0.174368312113,0.971570071071,-0.00539991059432
2021/03/16/13:20:41.036467,542301,1615897241,38171053,mocap,-2.78691186523,10.3956445312,1.92937512207,0.160105406696,0.174359361898,0.971563153971,-0.00548655784656
2021/03/16/13:20:41.048569,542302,1615897241,48171043,mocap,-2.78683837891,10.3955195313,1.92936584473,0.160099750347,0.174477373964,0.971543729079,-0.00533735876254
2021/03/16/13:20:41.056630,542303,1615897241,58171034,mocap,-2.78677661133,10.3953603516,1.92938146973,0.160014289357,0.174465997983,0.97155941933,-0.00541601172147
2021/03/16/13:20:41.068184,542304,1615897241,68171024,mocap,-2.78670947266,10.3951943359,1.92939868164,0.159910655346,0.174371342558,0.971593521362,-0.00540815896257
2021/03/16/13:20:41.076409,542305,1615897241,78171015,mocap,-2.78663354492,10.3950039063,1.92941650391,0.160064154917,0.174441483221,0.971555393263,-0.00545518103367
2021/03/16/13:20:41.088537,542306,1615897241,88171005,mocap,-2.786546875,10.3947744141,1.92943676758,0.160183788888,0.174647660046,0.971498635452,-0.00545423049507
2021/03/16/13:20:41.096783,542307,1615897241,98170996,mocap,-2.78644262695,10.3945537109,1.92949169922,0.160100470388,0.174588859349,0.971522839026,-0.00547244070985
2021/03/16/13:20:41.108407,542308,1615897241,108170986,mocap,-2.78634741211,10.3943105469,1.9294934082,0.160117056446,0.174673326088,0.971505261585,-0.00541182242117
2021/03/16/13:20:41.116631,542309,1615897241,118170977,mocap,-2.78624853516,10.3940517578,1.92953051758,0.16011819309,0.174824891037,0.971478496023,-0.00528816663128
2021/03/16/13:20:41.128621,542310,1615897241,128171206,mocap,-2.78610229492,10.3937480469,1.92951916504,0.160020560345,0.175014705058,0.971461562014,-0.005070014887
2021/03/16/13:20:41.136655,542311,1615897241,138171196,mocap,-2.78596899414,10.3934111328,1.9295255127,0.159903869742,0.175033034754,0.971478334967,-0.00490282527784
2021/03/16/13:20:41.148065,542312,1615897241,148171186,mocap,-2.78581835937,10.3930527344,1.92953076172,0.159708665696,0.175157673756,0.971489325044,-0.00463014765868
2021/03/16/13:20:41.157321,542313,1615897241,158171177,mocap,-2.78564086914,10.3926767578,1.9295345459,0.159649970948,0.175191296922,0.971493911236,-0.00441314976787
2021/03/16/13:20:41.166730,542314,1615897241,168171167,mocap,-2.78544921875,10.3923085938,1.92952197266,0.1596431165,0.175187839621,0.971496327031,-0.00426378438131
2021/03/16/13:20:41.178566,542315,1615897241,178171158,mocap,-2.78524121094,10.3918857422,1.9295324707,0.1598057457,0.175152641298,0.971476486659,-0.00413541965153
2021/03/16/13:20:41.186652,542316,1615897241,188171148,mocap,-2.7850144043,10.3914589844,1.92954333496,0.160093189498,0.175338208832,0.971396131691,-0.00402861031938
2021/03/16/13:20:41.197980,542317,1615897241,198171139,mocap,-2.78478637695,10.3909951172,1.92956030273,0.160310171728,0.175411566434,0.971347571888,-0.00391448220248
2021/03/16/13:20:41.206796,542318,1615897241,208171129,mocap,-2.7845546875,10.3904580078,1.92952172852,0.160291613067,0.17547395714,0.971340438432,-0.00363892649826
2021/03/16/13:20:41.217944,542319,1615897241,218171120,mocap,-2.78427807617,10.3898916016,1.92948535156,0.160082306489,0.1754750314,0.971375974797,-0.00329903630926
2021/03/16/13:20:41.226503,542320,1615897241,228171110,mocap,-2.78398754883,10.3893115234,1.92945117188,0.160046313935,0.175386985919,0.971398532389,-0.00307811971637
2021/03/16/13:20:41.238223,542321,1615897241,238171101,mocap,-2.78367285156,10.3886933594,1.92942590332,0.160305196878,0.175150141562,0.971398724138,-0.00303289036657
2021/03/16/13:20:41.246620,542322,1615897241,248171091,mocap,-2.78337133789,10.3880644531,1.9293927002,0.160626737329,0.17521359139,0.971334662595,-0.0028652924372
2021/03/16/13:20:41.256725,542323,1615897241,258171082,mocap,-2.78304858398,10.3873916016,1.92934204102,0.16114837305,0.175119535783,0.971265273164,-0.00284994705464
2021/03/16/13:20:41.268105,542324,1615897241,268171072,mocap,-2.78271411133,10.3866708984,1.92927453613,0.161145583425,0.174918796952,0.971302522849,-0.00263198094675
2021/03/16/13:20:41.277895,542325,1615897241,278171062,mocap,-2.78234301758,10.3859648437,1.9292590332,0.16140181345,0.174900621821,0.97126394608,-0.00235933390496
2021/03/16/13:20:41.286611,542326,1615897241,288171053,mocap,-2.78195800781,10.3851728516,1.92915039063,0.161311977928,0.174697483959,0.9713158161,-0.00219535706358
2021/03/16/13:20:41.296725,542327,1615897241,298171043,mocap,-2.78158520508,10.3843935547,1.92911181641,0.161239553508,0.17453094573,0.971358087888,-0.00205553122446
2021/03/16/13:20:41.306683,542328,1615897241,308171034,mocap,-2.78122070312,10.3835546875,1.92904260254,0.161208927753,0.174266824893,0.971410903944,-0.00190130907153
2021/03/16/13:20:41.316833,542329,1615897241,318171024,mocap,-2.78086425781,10.3827451172,1.92896130371,0.161346939277,0.174403160241,0.971363848245,-0.00172327838599
2021/03/16/13:20:41.326386,542330,1615897241,328171015,mocap,-2.78051782227,10.3818632813,1.92881811523,0.161697583844,0.174510853805,0.971286253136,-0.00169498025636
2021/03/16/13:20:41.338675,542331,1615897241,338171005,mocap,-2.78016967773,10.3809824219,1.92876074219,0.161425614285,0.174358992188,0.97135899298,-0.0015567703469
2021/03/16/13:20:41.346704,542332,1615897241,348170996,mocap,-2.77978613281,10.3801171875,1.9286920166,0.161353405102,0.174502497812,0.971345102031,-0.00162904370145
2021/03/16/13:20:41.358781,542333,1615897241,358170986,mocap,-2.7794140625,10.379203125,1.9285760498,0.161521755887,0.174589311539,0.971301272523,-0.00177222025551
2021/03/16/13:20:41.366699,542334,1615897241,368170977,mocap,-2.77908789063,10.3782675781,1.92850439453,0.161138516289,0.174355837887,0.971406478428,-0.00196718578796
2021/03/16/13:20:41.376966,542335,1615897241,378171206,mocap,-2.77869750977,10.3773427734,1.92841516113,0.160943154307,0.174496989219,0.971413296936,-0.00207804425181
2021/03/16/13:20:41.388425,542336,1615897241,388171196,mocap,-2.7783449707,10.3763798828,1.9282890625,0.160694077731,0.174703548212,0.971417461648,-0.0020507116694
2021/03/16/13:20:41.396678,542337,1615897241,398171186,mocap,-2.77790405273,10.3753671875,1.92816833496,0.160270492559,0.174775486581,0.971474438944,-0.00207775720219
2021/03/16/13:20:41.408246,542338,1615897241,408171177,mocap,-2.7775402832,10.3744033203,1.92809985352,0.160110019064,0.175011442263,0.971457919016,-0.0023001366173
2021/03/16/13:20:41.416757,542339,1615897241,418171167,mocap,-2.77713427734,10.373390625,1.9279909668,0.16019729836,0.175285231521,0.971393500888,-0.00256610615422
2021/03/16/13:20:41.428468,542340,1615897241,428171158,mocap,-2.77669628906,10.3723457031,1.92789160156,0.160063043778,0.175589264123,0.971360818501,-0.00252942994253
2021/03/16/13:20:41.436603,542341,1615897241,438171148,mocap,-2.77624707031,10.3712763672,1.9277376709,0.159672659374,0.175907449597,0.97136725382,-0.00262042393686
2021/03/16/13:20:41.446420,542342,1615897241,448171139,mocap,-2.77577148437,10.3702041016,1.92767041016,0.15927625135,0.176115249768,0.971394037787,-0.00284836892243
2021/03/16/13:20:41.456973,542343,1615897241,458171129,mocap,-2.77531665039,10.3691542969,1.92758935547,0.159218270815,0.176492358325,0.971334440152,-0.00306429067691
2021/03/16/13:20:41.467373,542344,1615897241,468171120,mocap,-2.77475585937,10.3680566406,1.92744372559,0.159187247642,0.177137179284,0.971222368287,-0.00299192664749
2021/03/16/13:20:41.478390,542345,1615897241,478171110,mocap,-2.77420507813,10.3669335937,1.92735327148,0.159007687748,0.177707500759,0.971148267951,-0.00276307209472
2021/03/16/13:20:41.486685,542346,1615897241,488171101,mocap,-2.77366088867,10.3658115234,1.92732702637,0.159200134544,0.178067047931,0.971050430584,-0.0029172859881
2021/03/16/13:20:41.497229,542347,1615897241,498171091,mocap,-2.7730847168,10.3646542969,1.92719787598,0.1591879961,0.178660876484,0.970943298408,-0.00293201400463
2021/03/16/13:20:41.506689,542348,1615897241,508171082,mocap,-2.77246337891,10.3634755859,1.92710632324,0.159109290823,0.179423540018,0.970815540766,-0.00293352801268
2021/03/16/13:20:41.517063,542349,1615897241,518171072,mocap,-2.77183691406,10.3622363281,1.92701745605,0.158923967009,0.179912434366,0.970755523864,-0.00289582157789
2021/03/16/13:20:41.526671,542350,1615897241,528171062,mocap,-2.77123266602,10.3610146484,1.92698925781,0.158828327086,0.180205419409,0.970716503212,-0.00300677375147
2021/03/16/13:20:41.537158,542351,1615897241,538171053,mocap,-2.77058129883,10.3597099609,1.92681848145,0.158919040615,0.181086156919,0.970537981381,-0.00292938762386
2021/03/16/13:20:41.547123,542352,1615897241,548171043,mocap,-2.76988378906,10.3583583984,1.92665356445,0.158769861674,0.181572207359,0.970471605903,-0.00291921117827
2021/03/16/13:20:41.558164,542353,1615897241,558171034,mocap,-2.7692409668,10.3570078125,1.92659521484,0.15878206247,0.18172051273,0.970440673655,-0.00328730709791
2021/03/16/13:20:41.566650,542354,1615897241,568171024,mocap,-2.76857104492,10.3556279297,1.92644909668,0.158530668182,0.182546243723,0.970326525207,-0.00336524111955
2021/03/16/13:20:41.578341,542355,1615897241,578171015,mocap,-2.76786889648,10.3541845703,1.92629345703,0.158558151206,0.182886996296,0.970257109752,-0.00357958803562
2021/03/16/13:20:41.586698,542356,1615897241,588171005,mocap,-2.76718286133,10.3527138672,1.92614367676,0.158456411683,0.183133697897,0.970226316571,-0.00380998607165
2021/03/16/13:20:41.597752,542357,1615897241,598170996,mocap,-2.76646362305,10.3511982422,1.9259140625,0.158129235916,0.183516957455,0.970207533019,-0.00374428796797
2021/03/16/13:20:41.606655,542358,1615897241,608170986,mocap,-2.76571264648,10.3496210938,1.92575830078,0.157713152424,0.183561680855,0.970267245947,-0.00362488875795
2021/03/16/13:20:41.617862,542359,1615897241,618170977,mocap,-2.765015625,10.3480263672,1.92558691406,0.15768441746,0.183645208216,0.970254161021,-0.00411499695265
2021/03/16/13:20:41.626626,542360,1615897241,628171206,mocap,-2.76425854492,10.34640625,1.92539746094,0.157401526521,0.183626297961,0.97030445716,-0.00392580368571
2021/03/16/13:20:41.637787,542361,1615897241,638171196,mocap,-2.76347949219,10.3447128906,1.92524353027,0.156883392572,0.18336267682,0.970439030664,-0.00371669805827
2021/03/16/13:20:41.646841,542362,1615897241,648171186,mocap,-2.76269042969,10.3430009766,1.92498413086,0.156695221106,0.183250804007,0.970490399698,-0.00375825531844
2021/03/16/13:20:41.657894,542363,1615897241,658171177,mocap,-2.76185107422,10.3412705078,1.92482470703,0.156110061962,0.182519291276,0.970723595202,-0.00347201606981
2021/03/16/13:20:41.666521,542364,1615897241,668171167,mocap,-2.7610390625,10.3395605469,1.9246817627,0.156095204765,0.182167439402,0.970791741669,-0.00356296560294
2021/03/16/13:20:41.677689,542365,1615897241,678171158,mocap,-2.76017041016,10.3377871094,1.9243996582,0.155518980218,0.181877242395,0.970940236658,-0.00309274047766
2021/03/16/13:20:41.686509,542366,1615897241,688171148,mocap,-2.75927148438,10.3360302734,1.92417370605,0.155113930922,0.180865784627,0.971194137332,-0.00303133135594
2021/03/16/13:20:41.697690,542367,1615897241,698171139,mocap,-2.75835864258,10.33421875,1.92393188477,0.154830518524,0.180706218674,0.971271141465,-0.00226798407713
2021/03/16/13:20:41.706648,542368,1615897241,708171129,mocap,-2.75740527344,10.33246875,1.92370458984,0.154454278219,0.180125423665,0.971439220635,-0.00213331272366
2021/03/16/13:20:41.716515,542369,1615897241,718171120,mocap,-2.75642529297,10.3306523437,1.92338208008,0.15430912269,0.179641248015,0.971553315039,-0.00136743339361
2021/03/16/13:20:41.728631,542370,1615897241,728171110,mocap,-2.75542749023,10.3288417969,1.92308630371,0.153763958492,0.179039676336,0.971751554506,-0.000596013867201
2021/03/16/13:20:41.736872,542371,1615897241,738171101,mocap,-2.75440380859,10.3270800781,1.92278564453,0.153460008947,0.178530118827,0.971893517051,-0.000101767721475
2021/03/16/13:20:41.748638,542372,1615897241,748171091,mocap,-2.75332519531,10.3252578125,1.92244104004,0.153428108028,0.17803829132,0.971988663359,0.000465543115582
2021/03/16/13:20:41.756686,542373,1615897241,758171082,mocap,-2.75219824219,10.3234287109,1.92198461914,0.15311059667,0.177641112045,0.972110556915,0.00135554583647
2021/03/16/13:20:41.768576,542374,1615897241,768171072,mocap,-2.75108398438,10.3216347656,1.92152661133,0.153100875125,0.177050019177,0.972218855595,0.00197400155048
2021/03/16/13:20:41.776494,542375,1615897241,778171062,mocap,-2.74992529297,10.3198212891,1.92100891113,0.153329878626,0.176740715344,0.972237056191,0.00278538749823
2021/03/16/13:20:41.788627,542376,1615897241,788171053,mocap,-2.74871459961,10.318078125,1.92040075684,0.152772806667,0.176267264211,0.972407412583,0.00376080972603
2021/03/16/13:20:41.796818,542377,1615897241,798171043,mocap,-2.74754125977,10.3163095703,1.91968786621,0.153089624209,0.176128616511,0.97237951486,0.00451121796829
2021/03/16/13:20:41.808564,542378,1615897241,808171034,mocap,-2.74634326172,10.3145712891,1.91890332031,0.153408544448,0.175646315861,0.972412615064,0.00528188570119
2021/03/16/13:20:41.816541,542379,1615897241,818171024,mocap,-2.74519335937,10.3128828125,1.9181517334,0.153403951765,0.176137198369,0.972317586869,0.00643608598585
2021/03/16/13:20:41.828679,542380,1615897241,828171015,mocap,-2.7440065918,10.3111992187,1.91731091309,0.153464187728,0.176415943002,0.972250106767,0.00747527838365
2021/03/16/13:20:41.836457,542381,1615897241,838171005,mocap,-2.7428371582,10.3095546875,1.91651123047,0.153483390207,0.176957792764,0.97213968095,0.00855722998858
2021/03/16/13:20:41.848351,542382,1615897241,848170996,mocap,-2.74174389648,10.3078320312,1.91567285156,0.153478024755,0.177399005479,0.972049730852,0.00966484209606
2021/03/16/13:20:41.856656,542383,1615897241,858170986,mocap,-2.74068554687,10.3061376953,1.91487268066,0.153721408685,0.178180654985,0.971853706458,0.0110344117173
2021/03/16/13:20:41.868351,542384,1615897241,868170977,mocap,-2.73958105469,10.3043583984,1.91421679687,0.153384065024,0.178425013475,0.971847688346,0.0122438975473
2021/03/16/13:20:41.876503,542385,1615897241,878171206,mocap,-2.73855151367,10.3024990234,1.9134987793,0.154020532147,0.17864125338,0.971696410682,0.0130789806125
2021/03/16/13:20:41.888240,542386,1615897241,888171196,mocap,-2.73757226562,10.3005732422,1.91283190918,0.154255244794,0.178702604399,0.97163565071,0.0139593944435
2021/03/16/13:20:41.896368,542387,1615897241,898171186,mocap,-2.7366809082,10.2986689453,1.91240551758,0.1536625445,0.177956344419,0.971853039484,0.0148673222095
2021/03/16/13:20:41.908127,542388,1615897241,908171177,mocap,-2.73563085938,10.2966445312,1.91158459473,0.154755529048,0.178695734779,0.971526198029,0.0159816467863
2021/03/16/13:20:41.916844,542389,1615897241,918171167,mocap,-2.73473339844,10.2946015625,1.91104638672,0.155139700257,0.178646146563,0.971463602087,0.0166045640246
2021/03/16/13:20:41.928272,542390,1615897241,928171158,mocap,-2.73389477539,10.2925019531,1.91057922363,0.155214359976,0.178609203252,0.971441199398,0.0175854277321
2021/03/16/13:20:41.936681,542391,1615897241,938171148,mocap,-2.73307006836,10.2903251953,1.91021923828,0.155939353883,0.17831893856,0.971367330522,0.0181870290491
2021/03/16/13:20:41.947980,542392,1615897241,948171139,mocap,-2.73227368164,10.2881064453,1.90999291992,0.156211849957,0.177837248813,0.971398256271,0.0188997970517
2021/03/16/13:20:41.956572,542393,1615897241,958171129,mocap,-2.73151049805,10.2857880859,1.90981530762,0.15633133789,0.177387516359,0.971447549819,0.0195917487597
2021/03/16/13:20:41.967896,542394,1615897241,968171120,mocap,-2.73088500977,10.2834365234,1.90984179688,0.156705204918,0.176642076488,0.971516450752,0.0199209324669
2021/03/16/13:20:41.976793,542395,1615897241,978171110,mocap,-2.73022631836,10.281,1.90983337402,0.156847775719,0.17574802283,0.971647865886,0.0202936986215
2021/03/16/13:20:41.988158,542396,1615897241,988171101,mocap,-2.72955639648,10.2784306641,1.90972387695,0.157819869998,0.17584887433,0.971459353209,0.02089963173
2021/03/16/13:20:41.996618,542397,1615897241,998171091,mocap,-2.72908837891,10.276,1.90998669434,0.157799344527,0.174854787588,0.971636187476,0.0211729964481
2021/03/16/13:20:42.007817,542398,1615897242,8171082,mocap,-2.72857519531,10.2734355469,1.9101048584,0.158451096843,0.17451918503,0.971589234709,0.0212289293242
2021/03/16/13:20:42.016798,542399,1615897242,18171072,mocap,-2.72811987305,10.27084375,1.91025231934,0.158798318734,0.174131930686,0.971588751597,0.0218280929601
2021/03/16/13:20:42.028081,542400,1615897242,28171062,mocap,-2.72773779297,10.2682070313,1.91042736816,0.15910080696,0.174111218649,0.971535515753,0.0221574805367
2021/03/16/13:20:42.036716,542401,1615897242,38171053,mocap,-2.72736547852,10.2654746094,1.91048876953,0.15940242338,0.174517394705,0.971402773864,0.0226095799501
2021/03/16/13:20:42.046813,542402,1615897242,48171043,mocap,-2.72707714844,10.2627636719,1.91060705566,0.15948090049,0.174337926851,0.971423198644,0.0225633180333
2021/03/16/13:20:42.056579,542403,1615897242,58171034,mocap,-2.72692529297,10.2600927734,1.91088134766,0.159114048112,0.174237149803,0.971496856204,0.0227592242499
2021/03/16/13:20:42.067585,542404,1615897242,68171024,mocap,-2.72676904297,10.2573066406,1.910984375,0.158642530766,0.174473234935,0.971516259026,0.0234050778267
2021/03/16/13:20:42.076720,542405,1615897242,78171015,mocap,-2.72671069336,10.2544541016,1.91107421875,0.158661141303,0.174909854615,0.971430431198,0.0235816719074
2021/03/16/13:20:42.088720,542406,1615897242,88171005,mocap,-2.72665405273,10.2515029297,1.91100671387,0.159115436265,0.175960294976,0.971158264423,0.0239137680124
2021/03/16/13:20:42.096785,542407,1615897242,98170996,mocap,-2.72672412109,10.2485898438,1.91116308594,0.158249495855,0.176326166366,0.971228106435,0.0241278606709
2021/03/16/13:20:42.106614,542408,1615897242,108170986,mocap,-2.72682836914,10.2455195313,1.91108862305,0.157938945579,0.177232898483,0.971109516264,0.0242917619853
2021/03/16/13:20:42.118603,542409,1615897242,118170977,mocap,-2.72693847656,10.2423125,1.91083032227,0.15823625211,0.178410382517,0.970841603217,0.0244459596283
2021/03/16/13:20:42.126687,542410,1615897242,128171206,mocap,-2.7271418457,10.2391308594,1.91076159668,0.157462897098,0.179365348352,0.970786023966,0.0246578245389
2021/03/16/13:20:42.138407,542411,1615897242,138171196,mocap,-2.72740771484,10.2358330078,1.91070422363,0.156390285682,0.179979577231,0.970841702983,0.0248156505391
2021/03/16/13:20:42.146741,542412,1615897242,148171186,mocap,-2.72760595703,10.2323183594,1.91033789062,0.156501312948,0.181234956052,0.970588132314,0.0248977477748
2021/03/16/13:20:42.158724,542413,1615897242,158171177,mocap,-2.7279609375,10.2288242188,1.91024279785,0.15552946377,0.181668610857,0.97066760238,0.0247289227418
2021/03/16/13:20:42.166785,542414,1615897242,168171167,mocap,-2.72824609375,10.2251347656,1.90993811035,0.154888791044,0.182572362566,0.970596860292,0.0248703913267
2021/03/16/13:20:42.178480,542415,1615897242,178171158,mocap,-2.72857275391,10.2213203125,1.90947473145,0.155170780243,0.183696499619,0.970344630768,0.0246764305896
2021/03/16/13:20:42.186538,542416,1615897242,188171148,mocap,-2.72896069336,10.2174707031,1.90920910645,0.153873170785,0.183993674094,0.970491167411,0.024824656027
2021/03/16/13:20:42.198366,542417,1615897242,198171139,mocap,-2.72932080078,10.2133837891,1.90865209961,0.154334501132,0.185014390111,0.970230355832,0.0245681562971
2021/03/16/13:20:42.206550,542418,1615897242,208171129,mocap,-2.72974316406,10.2092080078,1.90821069336,0.153919689221,0.185682208391,0.970176077818,0.0242740181829
2021/03/16/13:20:42.218389,542419,1615897242,218171120,mocap,-2.73023120117,10.2049628906,1.90777160645,0.153427333119,0.18634435191,0.970125383343,0.0243427517559
2021/03/16/13:20:42.226532,542420,1615897242,228171110,mocap,-2.7306875,10.2005957031,1.90722375488,0.153320731251,0.186769340589,0.970064271513,0.024192799872
2021/03/16/13:20:42.238541,542421,1615897242,238171101,mocap,-2.73123852539,10.1960478516,1.90668811035,0.15293911924,0.187366026238,0.970009262198,0.0241995655463
2021/03/16/13:20:42.246772,542422,1615897242,248171091,mocap,-2.73178930664,10.1914423828,1.90611242676,0.152784320886,0.187854252222,0.969946821847,0.023893623427
2021/03/16/13:20:42.258725,542423,1615897242,258171082,mocap,-2.73238867187,10.1866767578,1.90550708008,0.152314401035,0.188290967686,0.969933471426,0.0239976381821
2021/03/16/13:20:42.266636,542424,1615897242,268171072,mocap,-2.73300537109,10.1818193359,1.90494799805,0.152107092367,0.188700579851,0.969895162841,0.0236408270854
2021/03/16/13:20:42.278245,542425,1615897242,278171062,mocap,-2.73363867188,10.176859375,1.90432214355,0.151941372518,0.189129204197,0.969841465284,0.0234838165064
2021/03/16/13:20:42.286694,542426,1615897242,288171053,mocap,-2.73432714844,10.1717470703,1.9036854248,0.152018797643,0.18964250431,0.969737933535,0.0231161357771
2021/03/16/13:20:42.297141,542427,1615897242,298171043,mocap,-2.73504296875,10.166578125,1.90309973145,0.151546450667,0.189946347963,0.969754836178,0.0230131402381
2021/03/16/13:20:42.308107,542428,1615897242,308171034,mocap,-2.73580273437,10.1612382813,1.90247460938,0.15135557027,0.190282605448,0.969730649941,0.0225051690474
2021/03/16/13:20:42.316534,542429,1615897242,318171024,mocap,-2.73663647461,10.1558222656,1.90189343262,0.151231390723,0.190555475253,0.969710381595,0.0218961965661
2021/03/16/13:20:42.327038,542430,1615897242,328171015,mocap,-2.73742553711,10.1503134766,1.90121435547,0.150856289353,0.191265359431,0.969638586135,0.0214697184888
2021/03/16/13:20:42.336981,542431,1615897242,338171005,mocap,-2.73834741211,10.1446708984,1.900640625,0.150564721443,0.191642677725,0.969619061215,0.021029150009
2021/03/16/13:20:42.347119,542432,1615897242,348170996,mocap,-2.7392800293,10.1389609375,1.90007897949,0.150325820825,0.192099267359,0.969583898463,0.0201762725594
2021/03/16/13:20:42.357017,542433,1615897242,358170986,mocap,-2.7402734375,10.1332080078,1.89957763672,0.149991480337,0.192777717033,0.969516020601,0.0194421940589
2021/03/16/13:20:42.366998,542434,1615897242,368170977,mocap,-2.74135546875,10.1272910156,1.89906872559,0.149872016128,0.193317466902,0.969444156949,0.0185677943507
2021/03/16/13:20:42.378113,542435,1615897242,378171206,mocap,-2.74241015625,10.1213144531,1.89857922363,0.149612352847,0.194133220303,0.969337462148,0.0177010677256
2021/03/16/13:20:42.386977,542436,1615897242,388171196,mocap,-2.74354785156,10.115234375,1.89806396484,0.149321719033,0.194761231946,0.96926681515,0.0171150525843
2021/03/16/13:20:42.396940,542437,1615897242,398171186,mocap,-2.74477587891,10.109125,1.89768200684,0.149226292618,0.195867211822,0.96907475627,0.0161762768811
2021/03/16/13:20:42.406740,542438,1615897242,408171177,mocap,-2.74598779297,10.1028740234,1.89729516602,0.14864395738,0.196476544926,0.969054235862,0.0153567011459
2021/03/16/13:20:42.416874,542439,1615897242,418171167,mocap,-2.74735913086,10.096578125,1.89699853516,0.148671052089,0.197090154965,0.96894072378,0.014362098049
2021/03/16/13:20:42.428013,542440,1615897242,428171158,mocap,-2.74865917969,10.0901503906,1.89672338867,0.148224367125,0.197765131696,0.968885227733,0.0134131143364
2021/03/16/13:20:42.436675,542441,1615897242,438171148,mocap,-2.7501171875,10.0836279297,1.89650280762,0.147896197612,0.198317742839,0.96883438112,0.0125192064581
2021/03/16/13:20:42.447675,542442,1615897242,448171139,mocap,-2.75149365234,10.0770263672,1.89628662109,0.147655747432,0.199050178063,0.968735525577,0.0113267149055
2021/03/16/13:20:42.456657,542443,1615897242,458171129,mocap,-2.75301635742,10.0704033203,1.89621435547,0.147614754249,0.199873595736,0.968582692619,0.0103918956666
2021/03/16/13:20:42.467799,542444,1615897242,468171120,mocap,-2.75455444336,10.0637285156,1.89639404297,0.14691385396,0.201073142869,0.968451176978,0.0093930381332
2021/03/16/13:20:42.476801,542445,1615897242,478171110,mocap,-2.75615551758,10.0569833984,1.89675305176,0.146556494507,0.202204984665,0.968275877079,0.00872804495797
2021/03/16/13:20:42.487843,542446,1615897242,488171101,mocap,-2.75778369141,10.0501181641,1.89731982422,0.146278297076,0.203537878914,0.968045678519,0.00791000456152
2021/03/16/13:20:42.496668,542447,1615897242,498171091,mocap,-2.7594230957,10.0431054687,1.89797839355,0.145980308576,0.204538296152,0.967886455261,0.00704581222892
2021/03/16/13:20:42.507545,542448,1615897242,508171082,mocap,-2.76101293945,10.0359912109,1.89877148438,0.145794012333,0.205171201093,0.967788657676,0.00583002446768
2021/03/16/13:20:42.516528,542449,1615897242,518171072,mocap,-2.76264379883,10.0287988281,1.89966906738,0.146122722433,0.205943696589,0.967580135068,0.00490125304772
2021/03/16/13:20:42.528765,542450,1615897242,528171062,mocap,-2.76430859375,10.0215400391,1.9007454834,0.14583161588,0.206580508462,0.967493126362,0.00383301018589
2021/03/16/13:20:42.536594,542451,1615897242,538171053,mocap,-2.76602270508,10.0142304688,1.90200231934,0.145717236308,0.207229765168,0.96737469447,0.00291774032043
2021/03/16/13:20:42.548884,542452,1615897242,548171043,mocap,-2.76773217773,10.0068818359,1.90339929199,0.145660045999,0.207618398646,0.967302394446,0.00195722254815
2021/03/16/13:20:42.556783,542453,1615897242,558171034,mocap,-2.76946289062,9.99940722656,1.90490551758,0.145285120834,0.207565887762,0.967371328753,0.00116145259067
2021/03/16/13:20:42.567460,542454,1615897242,568171024,mocap,-2.77113769531,9.99188378906,1.90648486328,0.1449946202,0.207382177241,0.967454990688,0.000209417262278
2021/03/16/13:20:42.576531,542455,1615897242,578171015,mocap,-2.77273242187,9.98438085937,1.90803308105,0.144575626542,0.207395863558,0.967514727182,-0.000299700336845
2021/03/16/13:20:42.588681,542456,1615897242,588171005,mocap,-2.77433886719,9.9768046875,1.90950146484,0.144444075922,0.206849581517,0.967650119843,-0.00155057369498
2021/03/16/13:20:42.597311,542457,1615897242,598170996,mocap,-2.77597753906,9.96933007812,1.91099401855,0.145369854172,0.20570134274,0.967752820208,-0.00300552292641
2021/03/16/13:20:42.608478,542458,1615897242,608170986,mocap,-2.77745922852,9.96188964844,1.91224743652,0.145315015854,0.204948470434,0.967916784054,-0.00409408039152
2021/03/16/13:20:42.616599,542459,1615897242,618170977,mocap,-2.77894604492,9.95454980469,1.91336206055,0.145278311669,0.204673663361,0.967977161694,-0.00480765251246
2021/03/16/13:20:42.626868,542460,1615897242,628171206,mocap,-2.7802878418,9.94740917969,1.91432299805,0.145178451309,0.204249708194,0.968072300407,-0.00642680508621
2021/03/16/13:20:42.638521,542461,1615897242,638171196,mocap,-2.78179785156,9.94015625,1.91515734863,0.145295967471,0.204004033452,0.968107110173,-0.00632944722602
2021/03/16/13:20:42.646607,542462,1615897242,648171186,mocap,-2.78319165039,9.93311230469,1.91582629395,0.144983631011,0.204326022008,0.968082705757,-0.00681925974686
2021/03/16/13:20:42.656956,542463,1615897242,658171177,mocap,-2.78445825195,9.92626660156,1.9164362793,0.144777537521,0.20449363087,0.968071153657,-0.00775051250845
2021/03/16/13:20:42.668348,542464,1615897242,668171167,mocap,-2.78574438477,9.91939550781,1.91692687988,0.144885748236,0.204971759295,0.967950098445,-0.00820467057833
2021/03/16/13:20:42.676645,542465,1615897242,678171158,mocap,-2.78700952148,9.91256347656,1.91729833984,0.144715024694,0.205584429498,0.967844901733,-0.00829793972855
2021/03/16/13:20:42.688266,542466,1615897242,688171148,mocap,-2.78820141602,9.90577148438,1.91758605957,0.144636979321,0.20613361314,0.967737768846,-0.00852597689485
2021/03/16/13:20:42.696566,542467,1615897242,698171139,mocap,-2.78934912109,9.89899023438,1.91779016113,0.144650810681,0.207183872322,0.967508997814,-0.00879303665084
2021/03/16/13:20:42.707238,542468,1615897242,708171129,mocap,-2.79046191406,9.89224023438,1.91794470215,0.144446559172,0.207800046476,0.967404107411,-0.00914431370473
2021/03/16/13:20:42.716691,542469,1615897242,718171120,mocap,-2.79152880859,9.88549707031,1.91810021973,0.143930147054,0.208746320595,0.967275335425,-0.00935461557949
2021/03/16/13:20:42.728242,542470,1615897242,728171110,mocap,-2.79259643555,9.87873925781,1.91823571777,0.143629252626,0.209727693412,0.967106370805,-0.00949753346402
2021/03/16/13:20:42.736547,542471,1615897242,738171101,mocap,-2.79359448242,9.87194335938,1.9184822998,0.143511988576,0.210011104905,0.967058774366,-0.00984707252624
2021/03/16/13:20:42.748065,542472,1615897242,748171091,mocap,-2.79453125,9.86510742188,1.91875268555,0.142808868699,0.210340013784,0.96708738798,-0.0102313344927
2021/03/16/13:20:42.756848,542473,1615897242,758171082,mocap,-2.7954934082,9.85815820313,1.91907763672,0.141989128428,0.210581981861,0.967153425649,-0.0104193080914
2021/03/16/13:20:42.767897,542474,1615897242,768171072,mocap,-2.79634204102,9.851125,1.9195057373,0.141271888754,0.210174561366,0.967344672169,-0.0106394719017
2021/03/16/13:20:42.776692,542475,1615897242,778171062,mocap,-2.79717431641,9.84403515625,1.91997900391,0.14082559212,0.209768550162,0.967493542211,-0.0110256343192
2021/03/16/13:20:42.788745,542476,1615897242,788171053,mocap,-2.79795410156,9.83695800781,1.92060888672,0.140097310417,0.2091623048,0.967727852526,-0.0112544894751
2021/03/16/13:20:42.796656,542477,1615897242,798171043,mocap,-2.79866040039,9.82976953125,1.92123925781,0.139264197832,0.208240906734,0.968044562523,-0.0114422103961
2021/03/16/13:20:42.807969,542478,1615897242,808171034,mocap,-2.7992434082,9.822515625,1.92188366699,0.138850301138,0.207227699844,0.968314203561,-0.0120361188684
2021/03/16/13:20:42.816531,542479,1615897242,818171024,mocap,-2.79975219727,9.81522753906,1.92251074219,0.138215789282,0.20629433826,0.968597653931,-0.0125553913802
2021/03/16/13:20:42.828025,542480,1615897242,828171015,mocap,-2.80021118164,9.80797363281,1.9231619873,0.137808108562,0.205073841084,0.968910511624,-0.0128866463051
2021/03/16/13:20:42.836663,542481,1615897242,838171005,mocap,-2.80058740234,9.8006640625,1.92371325684,0.137611631159,0.203959675008,0.969162591626,-0.0136879946794
2021/03/16/13:20:42.848070,542482,1615897242,848170996,mocap,-2.80084814453,9.79335058594,1.92420788574,0.137572470848,0.202873090287,0.969384362577,-0.0145006064765
2021/03/16/13:20:42.856766,542483,1615897242,858170986,mocap,-2.80099389648,9.78600976562,1.92461108398,0.137584519315,0.20221054263,0.96951126367,-0.0151430369115
2021/03/16/13:20:42.867810,542484,1615897242,868170977,mocap,-2.80103759766,9.77864160156,1.92487109375,0.137655634841,0.201214568731,0.969694208103,-0.016024092227
2021/03/16/13:20:42.876992,542485,1615897242,878171206,mocap,-2.8010065918,9.77128710938,1.92509729004,0.13788882404,0.200579849336,0.969782087229,-0.0166458925906
2021/03/16/13:20:42.887672,542486,1615897242,888171196,mocap,-2.80090209961,9.76386328125,1.92518920898,0.138241969121,0.199714338891,0.969897905254,-0.0173608260256
2021/03/16/13:20:42.897708,542487,1615897242,898171186,mocap,-2.80070947266,9.75641796875,1.92522399902,0.138844840802,0.199432197922,0.969856676053,-0.0180812087582
2021/03/16/13:20:42.906445,542488,1615897242,908171177,mocap,-2.8004777832,9.74898730469,1.92517468262,0.139378261841,0.198956268071,0.969858949965,-0.01907123134
2021/03/16/13:20:42.916565,542489,1615897242,918171167,mocap,-2.80014916992,9.74147167969,1.92502954102,0.140033227755,0.19853721302,0.969834720231,-0.0198568913153
2021/03/16/13:20:42.927484,542490,1615897242,928171158,mocap,-2.79973144531,9.73397265625,1.92477893066,0.140831054713,0.198359370045,0.969734606753,-0.0208561054111
2021/03/16/13:20:42.936476,542491,1615897242,938171148,mocap,-2.79930444336,9.72645605469,1.92443347168,0.141921127116,0.1985638983,0.969514744916,-0.0217238428747
2021/03/16/13:20:42.946636,542492,1615897242,948171139,mocap,-2.79878295898,9.7189453125,1.92400805664,0.142944919595,0.198948008066,0.969262156925,-0.0227445272491
2021/03/16/13:20:42.958714,542493,1615897242,958171129,mocap,-2.79823657227,9.7114296875,1.92348168945,0.143808412097,0.199703226791,0.968958316986,-0.0236123602418
2021/03/16/13:20:42.966468,542494,1615897242,968171120,mocap,-2.7976472168,9.70387109375,1.92281359863,0.144695173049,0.200549278753,0.968626068248,-0.024633974616
2021/03/16/13:20:42.978625,542495,1615897242,978171110,mocap,-2.79703222656,9.69626171875,1.92205432129,0.145736857977,0.201813643223,0.968186706931,-0.0254269379364
2021/03/16/13:20:42.986540,542496,1615897242,988171101,mocap,-2.79642797852,9.68858984375,1.92121728516,0.146771827868,0.203072417825,0.967739023777,-0.0264726853917
2021/03/16/13:20:42.998591,542497,1615897242,998171091,mocap,-2.79578808594,9.68082324219,1.92027111816,0.147767191634,0.204279842366,0.967313039148,-0.0272043557943
2021/03/16/13:20:43.006721,542498,1615897243,8171082,mocap,-2.79511474609,9.67306445313,1.91932739258,0.148503754836,0.205634747918,0.966889625493,-0.0280257355465
2021/03/16/13:20:43.018694,542499,1615897243,18171072,mocap,-2.79444238281,9.66513671875,1.9181940918,0.149482071115,0.206980799712,0.966424905139,-0.0289303724492
2021/03/16/13:20:43.026574,542500,1615897243,28171062,mocap,-2.79376879883,9.65714648437,1.91707385254,0.150067472244,0.208089398984,0.966078103803,-0.0295237882814
2021/03/16/13:20:43.038410,542501,1615897243,38171053,mocap,-2.79309350586,9.64909082031,1.91589831543,0.151278041411,0.209241929097,0.96560863339,-0.0305406817553
2021/03/16/13:20:43.046746,542502,1615897243,48171043,mocap,-2.79238891602,9.64088964844,1.91464196777,0.152125928291,0.210168410765,0.965251905775,-0.0312361173291
2021/03/16/13:20:43.058117,542503,1615897243,58171034,mocap,-2.79166650391,9.63267089844,1.91335498047,0.152830695884,0.211121642563,0.964913508561,-0.031817607697
2021/03/16/13:20:43.066667,542504,1615897243,68171024,mocap,-2.7909465332,9.62434082031,1.91197521973,0.153632048539,0.212073588491,0.964552066899,-0.0325774726139
2021/03/16/13:20:43.078262,542505,1615897243,78171015,mocap,-2.79021972656,9.61595507812,1.91061523438,0.154399287581,0.213118969612,0.964181912413,-0.033081700644
2021/03/16/13:20:43.086572,542506,1615897243,88171005,mocap,-2.78952636719,9.60748046875,1.90914794922,0.155052896397,0.214159229199,0.963834559112,-0.0334270520765
2021/03/16/13:20:43.098187,542507,1615897243,98170996,mocap,-2.7888293457,9.59890820312,1.90765734863,0.155656076089,0.215218165145,0.963493777279,-0.0336461675827
2021/03/16/13:20:43.106729,542508,1615897243,108170986,mocap,-2.78817260742,9.59027246094,1.90625183105,0.155939583316,0.21600095539,0.963267231427,-0.0338035037062
2021/03/16/13:20:43.117976,542509,1615897243,118170977,mocap,-2.78750830078,9.58156640625,1.90490686035,0.156164345478,0.217184398178,0.962964610262,-0.0338051611529
2021/03/16/13:20:43.126812,542510,1615897243,128171206,mocap,-2.78688183594,9.57279980469,1.90371557617,0.156280775817,0.218023202573,0.962764460905,-0.0335677583207
2021/03/16/13:20:43.138082,542511,1615897243,138171196,mocap,-2.78624267578,9.56386523437,1.90256677246,0.156116959577,0.218764483902,0.962634619365,-0.0332294291338
2021/03/16/13:20:43.146528,542512,1615897243,148171186,mocap,-2.78561547852,9.55486914062,1.90163098145,0.155727219768,0.219328538582,0.962590718329,-0.0326054552601
2021/03/16/13:20:43.157923,542513,1615897243,158171177,mocap,-2.78499316406,9.5457734375,1.90078894043,0.155491680082,0.21970038164,0.962563116617,-0.0320362727811
2021/03/16/13:20:43.166551,542514,1615897243,168171167,mocap,-2.78436450195,9.53654882812,1.90007495117,0.155377541703,0.220029577224,0.962537456997,-0.031087941763
2021/03/16/13:20:43.177282,542515,1615897243,178171158,mocap,-2.78373291016,9.52735058594,1.89946472168,0.155036605109,0.220109103588,0.96259831911,-0.0303332522014
2021/03/16/13:20:43.187091,542516,1615897243,188171148,mocap,-2.78308496094,9.51801660156,1.89897875977,0.154562891652,0.22031825932,0.962660392489,-0.0292427661814
2021/03/16/13:20:43.197774,542517,1615897243,198171139,mocap,-2.78240722656,9.50866796875,1.89865527344,0.154083770996,0.220321445166,0.962773894378,-0.0279834963592
2021/03/16/13:20:43.206795,542518,1615897243,208171129,mocap,-2.78176855469,9.49928320312,1.89861755371,0.153318432615,0.220518523508,0.962889116143,-0.0266380572725
2021/03/16/13:20:43.218167,542519,1615897243,218171120,mocap,-2.78112109375,9.48983300781,1.89894189453,0.152722930404,0.220626631834,0.96299770139,-0.0251995117154
2021/03/16/13:20:43.226678,542520,1615897243,228171110,mocap,-2.78043994141,9.4802421875,1.89955212402,0.151909136093,0.220801451993,0.963129342841,-0.0234989735097
2021/03/16/13:20:43.237989,542521,1615897243,238171101,mocap,-2.77973510742,9.4706171875,1.90040161133,0.150994618951,0.220369067502,0.963414929621,-0.0216741490818
2021/03/16/13:20:43.246542,542522,1615897243,248171091,mocap,-2.7790065918,9.46086523437,1.90148620605,0.150887251445,0.219522846711,0.963654089718,-0.0203358840501
2021/03/16/13:20:43.257662,542523,1615897243,258171082,mocap,-2.77818164063,9.45112207031,1.90258117676,0.15045523309,0.218465246308,0.96399067993,-0.0189243403144
2021/03/16/13:20:43.267914,542524,1615897243,268171072,mocap,-2.7772890625,9.44132128906,1.90375939941,0.150428592705,0.217389001704,0.964267589573,-0.0173573871421
2021/03/16/13:20:43.277031,542525,1615897243,278171062,mocap,-2.77643530273,9.43164746094,1.90511523437,0.150566609144,0.216299680778,0.964514595134,-0.0159919319713
2021/03/16/13:20:43.286549,542526,1615897243,288171053,mocap,-2.77556738281,9.42201757813,1.90648474121,0.150810276674,0.215116672076,0.96475874955,-0.0148869697014
2021/03/16/13:20:43.296863,542527,1615897243,298171043,mocap,-2.77471191406,9.412515625,1.90777148437,0.151020581857,0.214013635666,0.964988751655,-0.0136990008017
2021/03/16/13:20:43.307621,542528,1615897243,308171034,mocap,-2.77383276367,9.40306933594,1.90904077148,0.15159237389,0.212972981934,0.965142995167,-0.0126986829473
2021/03/16/13:20:43.316569,542529,1615897243,318171024,mocap,-2.7729284668,9.39372558594,1.91016479492,0.152000647766,0.211870870876,0.965335164815,-0.0115996935986
2021/03/16/13:20:43.326676,542530,1615897243,328171015,mocap,-2.77206884766,9.38462597656,1.91121411133,0.152459142834,0.211333759038,0.965392099768,-0.0105990209502
2021/03/16/13:20:43.338683,542531,1615897243,338171005,mocap,-2.77127026367,9.37564550781,1.91214599609,0.153094423437,0.210886918807,0.965396915584,-0.00987909124387
2021/03/16/13:20:43.346358,542532,1615897243,348170996,mocap,-2.77051025391,9.3668515625,1.91297924805,0.153534417084,0.211262913615,0.965255533602,-0.00877023153313
2021/03/16/13:20:43.358901,542533,1615897243,358170986,mocap,-2.76979370117,9.35821679688,1.91368103027,0.153820791643,0.211777580357,0.96510663486,-0.00765497600148
2021/03/16/13:20:43.366825,542534,1615897243,368170977,mocap,-2.76916821289,9.34967773437,1.91424511719,0.154609079152,0.213057512917,0.964707268394,-0.00651324759653
2021/03/16/13:20:43.378482,542535,1615897243,378171206,mocap,-2.76861401367,9.34132714844,1.91484667969,0.154828408808,0.214631407524,0.964331247533,-0.00517413037007
2021/03/16/13:20:43.387192,542536,1615897243,388171196,mocap,-2.76806860352,9.33301269531,1.91536730957,0.155166150037,0.216271661382,0.963917824633,-0.00353038738426
2021/03/16/13:20:43.398539,542537,1615897243,398171186,mocap,-2.76757348633,9.32477246094,1.91587023926,0.155365461478,0.218065965144,0.963485657722,-0.00204621043464
2021/03/16/13:20:43.406473,542538,1615897243,408171177,mocap,-2.76712011719,9.31648730469,1.91638806152,0.155737195608,0.219833611316,0.963025932787,-0.000397434832774
2021/03/16/13:20:43.418288,542539,1615897243,418171167,mocap,-2.76676074219,9.30821875,1.91690661621,0.155948219369,0.22123526288,0.962670244915,0.0010480184284
2021/03/16/13:20:43.426605,542540,1615897243,428171158,mocap,-2.76637036133,9.29984472656,1.91746496582,0.156605595627,0.222383638811,0.962295688891,0.00268714526537
2021/03/16/13:20:43.438453,542541,1615897243,438171148,mocap,-2.76606201172,9.29146484375,1.91804284668,0.157096765217,0.223266073004,0.962005339808,0.00431114765294
2021/03/16/13:20:43.446489,542542,1615897243,448171139,mocap,-2.76582250977,9.28299609375,1.91868554687,0.157411142285,0.223771068649,0.961828470053,0.0058515091506
2021/03/16/13:20:43.458161,542543,1615897243,458171129,mocap,-2.76560864258,9.27451953125,1.91940783691,0.1580664408,0.223668797242,0.961735688532,0.00719201477095
2021/03/16/13:20:43.466734,542544,1615897243,468171120,mocap,-2.76547119141,9.26590429688,1.92017077637,0.158735638568,0.223170074695,0.96172787951,0.008809303719
2021/03/16/13:20:43.477010,542545,1615897243,478171110,mocap,-2.76541821289,9.25726953125,1.92102807617,0.15851283826,0.222062311052,0.962005727051,0.0103439988476
2021/03/16/13:20:43.487081,542546,1615897243,488171101,mocap,-2.76538427734,9.24855664063,1.92181665039,0.158669883089,0.220821861659,0.962251950478,0.0115221224196
2021/03/16/13:20:43.498065,542547,1615897243,498171091,mocap,-2.76536181641,9.23979296875,1.92261035156,0.15917051687,0.218940965724,0.962585346661,0.0126114412987
2021/03/16/13:20:43.507100,542548,1615897243,508171082,mocap,-2.76542285156,9.23107421875,1.92340673828,0.159547782776,0.216960023438,0.962955604202,0.0137608732139
2021/03/16/13:20:43.518292,542549,1615897243,518171072,mocap,-2.76553808594,9.2223359375,1.92413745117,0.159769563026,0.215065926725,0.9633260056,0.0149442765143
2021/03/16/13:20:43.526877,542550,1615897243,528171062,mocap,-2.76570043945,9.21355566406,1.92477233887,0.159785670884,0.213066073909,0.9637507607,0.015995932629
2021/03/16/13:20:43.538096,542551,1615897243,538171053,mocap,-2.7658503418,9.20490527344,1.92541149902,0.159403350723,0.21124481663,0.964200171992,0.0168592025649
2021/03/16/13:20:43.546726,542552,1615897243,548171043,mocap,-2.76612939453,9.19623339844,1.92597509766,0.159323278101,0.209638427484,0.96454516899,0.0179005768671
2021/03/16/13:20:43.558272,542553,1615897243,558171034,mocap,-2.76637011719,9.18754003906,1.92625585938,0.158142326636,0.208571373953,0.964933422107,0.0198110906655
2021/03/16/13:20:43.566630,542554,1615897243,568171024,mocap,-2.76670874023,9.17895703125,1.92666259766,0.158033667485,0.206757453061,0.965328010084,0.0204587620292
2021/03/16/13:20:43.577910,542555,1615897243,578171015,mocap,-2.76702075195,9.17039941406,1.92698596191,0.157136332904,0.20625923906,0.965556472211,0.0215869870921
2021/03/16/13:20:43.586460,542556,1615897243,588171005,mocap,-2.76735791016,9.16188378906,1.92724389648,0.157007420861,0.204973546499,0.965832763221,0.0223959503248
2021/03/16/13:20:43.596940,542557,1615897243,598170996,mocap,-2.7677512207,9.15334472656,1.92730883789,0.15691568041,0.204453399004,0.965939999407,0.0231557978973
2021/03/16/13:20:43.606748,542558,1615897243,608170986,mocap,-2.76818554687,9.14487304688,1.92737744141,0.156271363115,0.204140854405,0.966102165545,0.0235029671123
2021/03/16/13:20:43.617877,542559,1615897243,618170977,mocap,-2.7686262207,9.136390625,1.92732250977,0.155765889648,0.20408467158,0.966173614589,0.0243923773771
2021/03/16/13:20:43.627376,542560,1615897243,628171206,mocap,-2.7690559082,9.12789257812,1.92713146973,0.155114597675,0.203923747755,0.966292255373,0.0251762378299
2021/03/16/13:20:43.637815,542561,1615897243,638171196,mocap,-2.76954052734,9.119390625,1.92683959961,0.154489911727,0.204056838548,0.96634760735,0.0258063351609
2021/03/16/13:20:43.647021,542562,1615897243,648171186,mocap,-2.77003320313,9.11090527344,1.9264440918,0.153912282523,0.204474577246,0.966349789289,0.0258697595478
2021/03/16/13:20:43.658715,542563,1615897243,658171177,mocap,-2.77049194336,9.10237695313,1.92596472168,0.153358739042,0.204815878385,0.966351601143,0.0263842337482
2021/03/16/13:20:43.666715,542564,1615897243,668171167,mocap,-2.77101782227,9.0938125,1.92533508301,0.152571414854,0.205477621245,0.966316789821,0.0270695045666
2021/03/16/13:20:43.678703,542565,1615897243,678171158,mocap,-2.77154272461,9.08516601562,1.9245513916,0.152026348791,0.205975923652,0.966298477714,0.0270029562963
2021/03/16/13:20:43.686672,542566,1615897243,688171148,mocap,-2.77201733398,9.07655371094,1.92364929199,0.15145243861,0.206577235884,0.966259315626,0.0270359358563
2021/03/16/13:20:43.698623,542567,1615897243,698171139,mocap,-2.77258935547,9.06792285156,1.9226574707,0.150974714688,0.207276464017,0.966184826944,0.0270181562781
2021/03/16/13:20:43.706570,542568,1615897243,708171129,mocap,-2.77315234375,9.05915820312,1.92153210449,0.150511189392,0.208024067971,0.966102929032,0.0267862374656
2021/03/16/13:20:43.716641,542569,1615897243,718171120,mocap,-2.77367480469,9.050296875,1.92020239258,0.149573768863,0.208399725634,0.966165571534,0.0268575968003
2021/03/16/13:20:43.728526,542570,1615897243,728171110,mocap,-2.77426513672,9.04144238281,1.91889685059,0.14923174213,0.20918379246,0.966060319322,0.0264477315424
2021/03/16/13:20:43.736958,542571,1615897243,738171101,mocap,-2.77483911133,9.0325859375,1.91744909668,0.148716106947,0.20954149745,0.966070314457,0.0261538403119
2021/03/16/13:20:43.747495,542572,1615897243,748171091,mocap,-2.77557373047,9.02353222656,1.91611181641,0.149341528553,0.209341177986,0.96605053232,0.0248948308708
2021/03/16/13:20:43.758717,542573,1615897243,758171082,mocap,-2.77613427734,9.01455664063,1.91428869629,0.148173500692,0.210585082014,0.965951715832,0.0252153285591
2021/03/16/13:20:43.766713,542574,1615897243,768171072,mocap,-2.7767590332,9.00551953125,1.9126114502,0.147162837944,0.21116048688,0.965994762252,0.0246669882377
2021/03/16/13:20:43.777654,542575,1615897243,778171062,mocap,-2.77748291016,8.99641503906,1.9109552002,0.147041537577,0.211662909025,0.965918911027,0.0240469448152
2021/03/16/13:20:43.788638,542576,1615897243,788171053,mocap,-2.77817480469,8.98729882813,1.90928137207,0.146128104068,0.21244639254,0.965893502543,0.023724326057
2021/03/16/13:20:43.797183,542577,1615897243,798171043,mocap,-2.77897973633,8.97809863281,1.90785046387,0.147268802328,0.212289628717,0.965805616739,0.0215526847816
2021/03/16/13:20:43.808318,542578,1615897243,808171034,mocap,-2.77974023438,8.96883007813,1.90636279297,0.146796548467,0.212934438946,0.965745342496,0.0211100277684
2021/03/16/13:20:43.816619,542579,1615897243,818171024,mocap,-2.78055883789,8.95954589844,1.90489575195,0.146712187982,0.213367198605,0.965685967184,0.020014708556
2021/03/16/13:20:43.827386,542580,1615897243,828171015,mocap,-2.78132495117,8.95014941406,1.90356030273,0.146184961363,0.213853603041,0.96568311251,0.018780714316
2021/03/16/13:20:43.837414,542581,1615897243,838171005,mocap,-2.78219067383,8.94070214844,1.90232702637,0.146468452703,0.214289455012,0.965561750186,0.0178196333778
2021/03/16/13:20:43.846672,542582,1615897243,848170996,mocap,-2.78300878906,8.93125878906,1.90122802734,0.145885446082,0.215181159916,0.965471866341,0.0166904061521
2021/03/16/13:20:43.858528,542583,1615897243,858170986,mocap,-2.78390185547,8.92173535156,1.90018273926,0.146025796138,0.215712690168,0.965355278048,0.0152867147182
2021/03/16/13:20:43.866507,542584,1615897243,868170977,mocap,-2.78474755859,8.91223144531,1.8993001709,0.146285906502,0.216226086083,0.965223114244,0.0138220562471
2021/03/16/13:20:43.878133,542585,1615897243,878171206,mocap,-2.78567675781,8.90264941406,1.89849719238,0.146730688435,0.216681683801,0.965072380808,0.0124275473503
2021/03/16/13:20:43.886655,542586,1615897243,888171196,mocap,-2.78659204102,8.89307617188,1.89792260742,0.14649634719,0.217410003052,0.9649601453,0.0111183699739
2021/03/16/13:20:43.897271,542587,1615897243,898171186,mocap,-2.78767358398,8.88351660156,1.89776672363,0.1467042839,0.218638409136,0.964662797461,0.0100390366193
2021/03/16/13:20:43.906617,542588,1615897243,908171177,mocap,-2.78868969727,8.8739765625,1.89807263184,0.146326670494,0.219682253877,0.964496217911,0.00867505902005
2021/03/16/13:20:43.917039,542589,1615897243,918171167,mocap,-2.78986401367,8.86430957031,1.89878649902,0.146376297074,0.220383790626,0.964339329065,0.00739047770044
2021/03/16/13:20:43.927134,542590,1615897243,928171158,mocap,-2.79093115234,8.8544921875,1.89969873047,0.146699384556,0.220924075157,0.964175096858,0.00618322591946
2021/03/16/13:20:43.938249,542591,1615897243,938171148,mocap,-2.79202856445,8.84461914062,1.90085339355,0.146824345727,0.22064607917,0.964229944486,0.00430545207315
