time,.header.seq,.header.stamp.secs,.header.stamp.nsecs,.header.frame_id,.pose.position.x,.pose.position.y,.pose.position.z,.pose.orientation.x,.pose.orientation.y,.pose.orientation.z,.pose.orientation.w
2021/03/16/13:05:35.546891,472258,1615896335,548171043,mocap,-2.76982055664,10.4440546875,1.93473596191,0.175150660789,0.233394546386,0.95610130438,-0.0268240061069
2021/03/16/13:05:35.558693,472259,1615896335,558171034,mocap,-2.76985644531,10.4440742187,1.93471984863,0.175203310745,0.233395700497,0.956088532111,-0.0269249628092
2021/03/16/13:05:35.567076,472260,1615896335,568171024,mocap,-2.76991430664,10.4440712891,1.93467993164,0.17516766189,0.233362297147,0.956102083646,-0.0269655710724
2021/03/16/13:05:35.578822,472261,1615896335,578171015,mocap,-2.77001269531,10.4442265625,1.93488671875,0.174031456739,0.234047050423,0.956157074882,-0.026432504521
2021/03/16/13:05:35.587214,472262,1615896335,588171005,mocap,-2.77001367188,10.4441259766,1.93467224121,0.17509839437,0.23321965504,0.956145137136,-0.027122424384
2021/03/16/13:05:35.598789,472263,1615896335,598170996,mocap,-2.7700703125,10.4441445313,1.93466186523,0.175012921638,0.232944375254,0.956225293283,-0.0272136502416
2021/03/16/13:05:35.607290,472264,1615896335,608170986,mocap,-2.77012207031,10.4441464844,1.93463525391,0.174869345012,0.232845094993,0.956274885901,-0.0272436683679
2021/03/16/13:05:35.618573,472265,1615896335,618170977,mocap,-2.77016918945,10.4441572266,1.93459790039,0.174751367279,0.232745726225,0.956320050734,-0.0272644440397
2021/03/16/13:05:35.627706,472266,1615896335,628171206,mocap,-2.77023095703,10.4441835937,1.93460620117,0.174537415142,0.232552055856,0.956405419454,-0.0272928337664
2021/03/16/13:05:35.638799,472267,1615896335,638171196,mocap,-2.77025634766,10.4441865234,1.93458459473,0.174588822313,0.232409895649,0.956427270689,-0.0274092507735
2021/03/16/13:05:35.647348,472268,1615896335,648171186,mocap,-2.77027563477,10.4442080078,1.93457165527,0.174708260188,0.232290656628,0.956432295234,-0.0274836670354
2021/03/16/13:05:35.658850,472269,1615896335,658171177,mocap,-2.77029077148,10.4442402344,1.9345534668,0.174554198605,0.232208938054,0.956478987185,-0.0275278472651
2021/03/16/13:05:35.667599,472270,1615896335,668171167,mocap,-2.77029248047,10.4442802734,1.93456604004,0.174675260273,0.23203086619,0.956497393813,-0.0276217450311
2021/03/16/13:05:35.678459,472271,1615896335,678171158,mocap,-2.77028979492,10.4443369141,1.93455053711,0.174931469673,0.231965281602,0.95646128128,-0.0278011704421
2021/03/16/13:05:35.687454,472272,1615896335,688171148,mocap,-2.77027148437,10.4443789062,1.93453027344,0.174853729869,0.231931065143,0.956483045554,-0.0278268081268
2021/03/16/13:05:35.697710,472273,1615896335,698171139,mocap,-2.77025366211,10.4444316406,1.93449023437,0.174942853212,0.231967310597,0.956455516858,-0.0279107474407
2021/03/16/13:05:35.707228,472274,1615896335,708171129,mocap,-2.77022924805,10.4445117188,1.93447106934,0.175152791873,0.231995695844,0.956409852062,-0.0279232126865
2021/03/16/13:05:35.718372,472275,1615896335,718171120,mocap,-2.77020922852,10.4445908203,1.93445837402,0.175294988706,0.231874704397,0.956407709767,-0.0281084656369
2021/03/16/13:05:35.727357,472276,1615896335,728171110,mocap,-2.77023168945,10.4446347656,1.93442822266,0.175028839487,0.23193185798,0.956443668525,-0.028071792074
2021/03/16/13:05:35.738679,472277,1615896335,738171101,mocap,-2.77019042969,10.4447451172,1.93443005371,0.175264021118,0.231906769129,0.956404913091,-0.0281322957524
2021/03/16/13:05:35.747167,472278,1615896335,748171091,mocap,-2.77017456055,10.444828125,1.93442016602,0.175437227321,0.23187140262,0.956379267426,-0.0282156990103
2021/03/16/13:05:35.759553,472279,1615896335,758171082,mocap,-2.77016845703,10.4449052734,1.93438452148,0.175252092356,0.231921331105,0.956401820379,-0.0281913742696
2021/03/16/13:05:35.767306,472280,1615896335,768171072,mocap,-2.77016503906,10.4449794922,1.93439294434,0.175426722091,0.231922210112,0.956368415332,-0.0282313815427
2021/03/16/13:05:35.779469,472281,1615896335,778171062,mocap,-2.7701628418,10.4450791016,1.93438549805,0.175238136464,0.231875588533,0.95641646588,-0.0281576374632
2021/03/16/13:05:35.787374,472282,1615896335,788171053,mocap,-2.77017724609,10.4451464844,1.93435473633,0.175150785229,0.231799380039,0.95645113899,-0.0281506438539
2021/03/16/13:05:35.799443,472283,1615896335,798171043,mocap,-2.7701862793,10.4452441406,1.9343503418,0.175224548128,0.231845607398,0.956425323184,-0.0281882081722
2021/03/16/13:05:35.807328,472284,1615896335,808171034,mocap,-2.77013720703,10.4453515625,1.93432946777,0.175384705312,0.231835955652,0.956398166759,-0.0281929178063
2021/03/16/13:05:35.819265,472285,1615896335,818171024,mocap,-2.77016845703,10.4454257812,1.93432727051,0.175185405229,0.231775861217,0.956451723226,-0.0281091950745
2021/03/16/13:05:35.827403,472286,1615896335,828171015,mocap,-2.77015209961,10.4455341797,1.93431433105,0.175192810871,0.231767953549,0.956455649284,-0.0279944608458
2021/03/16/13:05:35.839139,472287,1615896335,838171005,mocap,-2.77010839844,10.4456621094,1.93432226563,0.175238808236,0.231700189846,0.956460120609,-0.0281145038346
2021/03/16/13:05:35.847302,472288,1615896335,848170996,mocap,-2.77012133789,10.4457402344,1.93430566406,0.175285678216,0.23182240471,0.956426078816,-0.027972409584
2021/03/16/13:05:35.859208,472289,1615896335,858170986,mocap,-2.77011206055,10.4458564453,1.93432702637,0.175158592663,0.231850135345,0.95644636382,-0.0278448061113
2021/03/16/13:05:35.867698,472290,1615896335,868170977,mocap,-2.77008251953,10.4459482422,1.93430102539,0.175301586933,0.231826584358,0.956424583131,-0.0278891686075
2021/03/16/13:05:35.879172,472291,1615896335,878171206,mocap,-2.77006420898,10.4460664063,1.93430505371,0.175084298211,0.231878867767,0.956455314324,-0.0277652216793
2021/03/16/13:05:35.887568,472292,1615896335,888171196,mocap,-2.77002685547,10.4461894531,1.93430322266,0.17515741634,0.231862894891,0.956444790267,-0.0277998323156
2021/03/16/13:05:35.899059,472293,1615896335,898171186,mocap,-2.77000219727,10.4463134766,1.9343026123,0.175368626271,0.23204199581,0.956362478959,-0.0278058285773
2021/03/16/13:05:35.907474,472294,1615896335,908171177,mocap,-2.76996899414,10.4464511719,1.93431347656,0.175345777577,0.232080641622,0.956358607052,-0.0277604909547
2021/03/16/13:05:35.918098,472295,1615896335,918171167,mocap,-2.76992382813,10.4465996094,1.93433813477,0.175236837622,0.232064529473,0.956381760352,-0.0277857462634
2021/03/16/13:05:35.927210,472296,1615896335,928171158,mocap,-2.76984130859,10.44675,1.93434729004,0.175613061777,0.232189003766,0.956281999289,-0.027803876224
2021/03/16/13:05:35.939134,472297,1615896335,938171148,mocap,-2.76979663086,10.4468798828,1.93434558105,0.175537381813,0.232245462007,0.956281087719,-0.0278414115296
2021/03/16/13:05:35.949138,472298,1615896335,948171139,mocap,-2.76973876953,10.4470136719,1.93435083008,0.175533539873,0.232338882534,0.956259233143,-0.0278370603656
2021/03/16/13:05:35.957249,472299,1615896335,958171129,mocap,-2.76970727539,10.4471591797,1.93438269043,0.17556486987,0.232312864381,0.95625994995,-0.0278318913476
2021/03/16/13:05:35.967921,472300,1615896335,968171120,mocap,-2.7696159668,10.4473164062,1.93439794922,0.175488128175,0.232369153939,0.95626005903,-0.0278424123725
2021/03/16/13:05:35.977739,472301,1615896335,978171110,mocap,-2.76957495117,10.4474414063,1.93439709473,0.175544194748,0.23246194594,0.956227124321,-0.0278453543038
2021/03/16/13:05:35.987369,472302,1615896335,988171101,mocap,-2.76950268555,10.4475800781,1.93440991211,0.175643017115,0.232703649949,0.956152461881,-0.0277670103351
2021/03/16/13:05:35.998025,472303,1615896335,998171091,mocap,-2.76944189453,10.4477333984,1.93442578125,0.175621808828,0.232703082878,0.956155080074,-0.0278157180469
2021/03/16/13:05:36.007931,472304,1615896336,8171082,mocap,-2.76944384766,10.4480146484,1.93467358398,0.174620306396,0.233732935041,0.956111123092,-0.0269847303897
2021/03/16/13:05:36.017712,472305,1615896336,18171072,mocap,-2.769296875,10.4480214844,1.93445397949,0.175627266902,0.233123239901,0.956058209951,-0.0275920814743
2021/03/16/13:05:36.027908,472306,1615896336,28171062,mocap,-2.76920361328,10.4481650391,1.93446740723,0.175466660556,0.233265010518,0.956058209951,-0.0274149553876
2021/03/16/13:05:36.037266,472307,1615896336,38171053,mocap,-2.76918383789,10.4484326172,1.93469763184,0.174373039123,0.234166397829,0.956057033205,-0.0267411312337
2021/03/16/13:05:36.048655,472308,1615896336,48171043,mocap,-2.76903076172,10.4484511719,1.93449023437,0.175580715098,0.233451715113,0.955993393208,-0.0273559723374
2021/03/16/13:05:36.057724,472309,1615896336,58171034,mocap,-2.76893652344,10.4485625,1.9344666748,0.175525585481,0.233615610864,0.955969739497,-0.0271361754799
2021/03/16/13:05:36.068071,472310,1615896336,68171024,mocap,-2.76881640625,10.4486806641,1.93444702148,0.175757324889,0.233869762254,0.955869397609,-0.0269810093717
2021/03/16/13:05:36.077447,472311,1615896336,78171015,mocap,-2.76869311523,10.4488291016,1.93445776367,0.175548546871,0.234004880544,0.955879078402,-0.0268254111256
2021/03/16/13:05:36.088109,472312,1615896336,88171005,mocap,-2.76858032227,10.4489619141,1.93445043945,0.175819270477,0.234159833901,0.955792345285,-0.026790795351
2021/03/16/13:05:36.097497,472313,1615896336,98170996,mocap,-2.7685090332,10.4491757813,1.93467236328,0.174898932248,0.235216100049,0.955724992492,-0.0259516544319
2021/03/16/13:05:36.107654,472314,1615896336,108170986,mocap,-2.76836889648,10.4492753906,1.93465405273,0.174811629969,0.235418936689,0.955697746003,-0.0257027569695
2021/03/16/13:05:36.117943,472315,1615896336,118170977,mocap,-2.76828076172,10.4493720703,1.93466088867,0.174639768572,0.235503782291,0.955710328598,-0.0256261059097
2021/03/16/13:05:36.127552,472316,1615896336,128171206,mocap,-2.76814916992,10.4494550781,1.9346697998,0.174867709588,0.235652685534,0.955635734932,-0.0254842799328
2021/03/16/13:05:36.138465,472317,1615896336,138171196,mocap,-2.7679921875,10.4493935547,1.93448608398,0.175984581886,0.234929010594,0.955595613481,-0.0259771472091
2021/03/16/13:05:36.147484,472318,1615896336,148171186,mocap,-2.76788378906,10.4494648438,1.93452319336,0.176121760901,0.235006087343,0.955554312979,-0.0258694678628
2021/03/16/13:05:36.158330,472319,1615896336,158171177,mocap,-2.7677734375,10.4495,1.9345168457,0.17589627712,0.234997687017,0.955606193669,-0.0255616888987
2021/03/16/13:05:36.167797,472320,1615896336,168171167,mocap,-2.76771630859,10.4494970703,1.93451623535,0.175788233382,0.235073793716,0.955614738821,-0.0252839380799
2021/03/16/13:05:36.178405,472321,1615896336,178171158,mocap,-2.76758764648,10.4495302734,1.93455773926,0.176154995094,0.235056890486,0.955548714624,-0.0253839908968
2021/03/16/13:05:36.187151,472322,1615896336,188171148,mocap,-2.76745214844,10.4495537109,1.93456994629,0.17628162671,0.235083281845,0.955525650301,-0.0251271795115
2021/03/16/13:05:36.197428,472323,1615896336,198171139,mocap,-2.76732348633,10.4495263672,1.93456896973,0.176304189023,0.23496203404,0.955551108353,-0.025134550883
2021/03/16/13:05:36.207433,472324,1615896336,208171129,mocap,-2.76720166016,10.4495087891,1.93459667969,0.176373203891,0.235044667747,0.955522835449,-0.0249521339851
2021/03/16/13:05:36.219327,472325,1615896336,218171120,mocap,-2.76713549805,10.4495859375,1.93483679199,0.175488600887,0.235657200537,0.955553813962,-0.0242145086113
2021/03/16/13:05:36.227333,472326,1615896336,228171110,mocap,-2.76694067383,10.4494179687,1.93462268066,0.176460338296,0.234848446378,0.955561096457,-0.0247174292947
2021/03/16/13:05:36.239401,472327,1615896336,238171101,mocap,-2.76684179688,10.4493378906,1.93463781738,0.176559337976,0.234748420449,0.955572066878,-0.0245356629156
2021/03/16/13:05:36.247255,472328,1615896336,248171091,mocap,-2.76670800781,10.4492841797,1.9346652832,0.176578753571,0.234656866599,0.955593664281,-0.0244304372077
2021/03/16/13:05:36.259017,472329,1615896336,258171082,mocap,-2.7666105957,10.4492792969,1.93485205078,0.17572662901,0.235330858797,0.955599153218,-0.0238704190899
2021/03/16/13:05:36.267064,472330,1615896336,268171072,mocap,-2.7664465332,10.4490498047,1.93465917969,0.176837138351,0.234421902674,0.95560462653,-0.0243884376852
2021/03/16/13:05:36.279213,472331,1615896336,278171062,mocap,-2.76634887695,10.4490341797,1.93489160156,0.175883466159,0.235125815274,0.955624710667,-0.0237122493513
2021/03/16/13:05:36.287573,472332,1615896336,288171053,mocap,-2.76619482422,10.4488847656,1.93487695313,0.176168393162,0.235084348089,0.95558536844,-0.0235932082921
2021/03/16/13:05:36.299163,472333,1615896336,298171043,mocap,-2.76605810547,10.4487392578,1.93492858887,0.1762092671,0.234968006165,0.95560932794,-0.0234764520601
2021/03/16/13:05:36.307482,472334,1615896336,308171034,mocap,-2.76588476563,10.4485693359,1.93494885254,0.176256802009,0.234917084708,0.955615549671,-0.0233754780691
2021/03/16/13:05:36.319113,472335,1615896336,318171024,mocap,-2.76570849609,10.4483955078,1.93495349121,0.176389716432,0.234901704455,0.955600314935,-0.0231493024022
2021/03/16/13:05:36.327368,472336,1615896336,328171015,mocap,-2.76554223633,10.4482070312,1.9349263916,0.176228190435,0.234927330273,0.955629786211,-0.0229017001892
2021/03/16/13:05:36.339042,472337,1615896336,338171005,mocap,-2.76537475586,10.4479658203,1.93492077637,0.176256836189,0.235000143551,0.955610629985,-0.0227327308198
2021/03/16/13:05:36.347602,472338,1615896336,348170996,mocap,-2.76520507813,10.4477421875,1.9349395752,0.176375098639,0.235113822606,0.955567232735,-0.0224631431489
2021/03/16/13:05:36.357396,472339,1615896336,358170986,mocap,-2.76496899414,10.4473544922,1.93474194336,0.177560129359,0.234173126063,0.955565805878,-0.0230072372658
2021/03/16/13:05:36.367755,472340,1615896336,368170977,mocap,-2.76478613281,10.4470566406,1.93479382324,0.177366799585,0.234089917139,0.955626433704,-0.0228264893367
2021/03/16/13:05:36.377208,472341,1615896336,378171206,mocap,-2.764578125,10.4466816406,1.93476782227,0.177305996258,0.233984527653,0.955668066326,-0.0226355892081
2021/03/16/13:05:36.388862,472342,1615896336,388171196,mocap,-2.76435693359,10.4463017578,1.93477770996,0.177113887189,0.234019876808,0.95570059932,-0.0223992430287
2021/03/16/13:05:36.397958,472343,1615896336,398171186,mocap,-2.76416235352,10.4459140625,1.93480554199,0.177044664517,0.233853997299,0.955757172752,-0.0222651046946
2021/03/16/13:05:36.407474,472344,1615896336,408171177,mocap,-2.76401391602,10.4455556641,1.93501977539,0.176321596086,0.234815291538,0.95567548828,-0.0213734813518
2021/03/16/13:05:36.418816,472345,1615896336,418171167,mocap,-2.76377832031,10.4450839844,1.93507666016,0.176253698397,0.234700465446,0.955722965598,-0.0210699969722
2021/03/16/13:05:36.428811,472346,1615896336,428171158,mocap,-2.76347436523,10.4445751953,1.93512268066,0.176243240914,0.234760545886,0.95571414856,-0.0208870021278
2021/03/16/13:05:36.437264,472347,1615896336,438171148,mocap,-2.76311474609,10.4438876953,1.93494067383,0.177372359096,0.23372343252,0.955747825932,-0.021412588589
2021/03/16/13:05:36.447673,472348,1615896336,448171139,mocap,-2.76276464844,10.44328125,1.9349095459,0.177505342073,0.233929429502,0.955684032812,-0.0209024251081
2021/03/16/13:05:36.457826,472349,1615896336,458171129,mocap,-2.76242773438,10.4426445313,1.93490319824,0.177680798127,0.234092762432,0.955616282554,-0.0206791927364
2021/03/16/13:05:36.468526,472350,1615896336,468171120,mocap,-2.76211254883,10.4420800781,1.93508911133,0.176680402998,0.235297524978,0.955527950521,-0.0196326237387
2021/03/16/13:05:36.477319,472351,1615896336,478171110,mocap,-2.7617590332,10.4413828125,1.93508898926,0.176764609781,0.235141791046,0.955551958243,-0.0195718955577
2021/03/16/13:05:36.487743,472352,1615896336,488171101,mocap,-2.76133496094,10.4405898438,1.9350333252,0.176949930128,0.235369064358,0.95546809623,-0.0192572056011
2021/03/16/13:05:36.497470,472353,1615896336,498171091,mocap,-2.76081713867,10.4396210938,1.93475134277,0.177782251965,0.234812737348,0.955445022164,-0.0195257559127
2021/03/16/13:05:36.508657,472354,1615896336,508171082,mocap,-2.760375,10.4387587891,1.93468908691,0.177748438808,0.235081902905,0.955390535835,-0.0192591637345
2021/03/16/13:05:36.517142,472355,1615896336,518171072,mocap,-2.75992700195,10.4378037109,1.93456530762,0.177814420193,0.235239307804,0.955342106134,-0.0191301213338
2021/03/16/13:05:36.528821,472356,1615896336,528171062,mocap,-2.75948168945,10.4368652344,1.93462597656,0.176794408434,0.236268624244,0.95529603715,-0.0181756363221
2021/03/16/13:05:36.537500,472357,1615896336,538171053,mocap,-2.75895849609,10.4358046875,1.93448913574,0.176535610362,0.236361538827,0.955321844478,-0.0181264238256
2021/03/16/13:05:36.547539,472358,1615896336,548171043,mocap,-2.7584375,10.4345400391,1.93413793945,0.177580715656,0.235705102267,0.955288339271,-0.0182315809284
2021/03/16/13:05:36.557330,472359,1615896336,558171034,mocap,-2.75793530273,10.4333623047,1.93397363281,0.177213745758,0.235807854296,0.955335874824,-0.0179809584433
2021/03/16/13:05:36.567583,472360,1615896336,568171024,mocap,-2.75741650391,10.4322138672,1.93400537109,0.176532422184,0.236751741608,0.955244389203,-0.0171197642549
2021/03/16/13:05:36.577108,472361,1615896336,578171015,mocap,-2.75682055664,10.4307861328,1.93361657715,0.177052295248,0.236230148203,0.955272865334,-0.017365051879
2021/03/16/13:05:36.587430,472362,1615896336,588171005,mocap,-2.75623291016,10.4293818359,1.93341149902,0.176832034115,0.236192524597,0.95532623532,-0.0171843520734
2021/03/16/13:05:36.598273,472363,1615896336,598170996,mocap,-2.75570654297,10.4280361328,1.93342004395,0.175204442425,0.237017856635,0.955441333692,-0.0160561127055
2021/03/16/13:05:36.607399,472364,1615896336,608170986,mocap,-2.75502416992,10.4263720703,1.93305700684,0.17613561021,0.236190116576,0.955469788358,-0.0163693086391
2021/03/16/13:05:36.619569,472365,1615896336,618170977,mocap,-2.7544152832,10.4248232422,1.93290942383,0.175552756371,0.235981707749,0.955634362753,-0.0160259892223
2021/03/16/13:05:36.627552,472366,1615896336,628171206,mocap,-2.75378662109,10.4231269531,1.93269042969,0.175631465814,0.235983470873,0.955628359448,-0.0154864387874
2021/03/16/13:05:36.639482,472367,1615896336,638171196,mocap,-2.75309155273,10.4214277344,1.93258129883,0.175289099548,0.235648495274,0.955779576683,-0.0151303240348
2021/03/16/13:05:36.647169,472368,1615896336,648171186,mocap,-2.75242553711,10.4196904297,1.93247497559,0.174369956881,0.235530969491,0.955988561196,-0.0143584605868
2021/03/16/13:05:36.659140,472369,1615896336,658171177,mocap,-2.75167382812,10.4178339844,1.93224780273,0.174668841437,0.235361694081,0.955983269336,-0.0138445900632
2021/03/16/13:05:36.667448,472370,1615896336,668171167,mocap,-2.75094165039,10.4159814453,1.9321151123,0.173692163564,0.235147056092,0.956222558407,-0.0132403830788
2021/03/16/13:05:36.679129,472371,1615896336,678171158,mocap,-2.7501484375,10.4140507812,1.93187512207,0.173516510975,0.234955029524,0.956312111788,-0.0124621847795
2021/03/16/13:05:36.687652,472372,1615896336,688171148,mocap,-2.74940283203,10.4121142578,1.93177099609,0.173280134827,0.234658153312,0.956435979884,-0.0118222249958
2021/03/16/13:05:36.698931,472373,1615896336,698171139,mocap,-2.74856884766,10.4100917969,1.93157019043,0.173120734647,0.234383496946,0.956541605662,-0.0110337471575
2021/03/16/13:05:36.707448,472374,1615896336,708171129,mocap,-2.74771020508,10.4080224609,1.93128613281,0.173203542017,0.234221414389,0.956573127555,-0.0104271053272
2021/03/16/13:05:36.718072,472375,1615896336,718171120,mocap,-2.74685058594,10.4059189453,1.93102966309,0.17263250673,0.233647593649,0.956825117372,-0.00961899368411
2021/03/16/13:05:36.727802,472376,1615896336,728171110,mocap,-2.7459609375,10.4038369141,1.93069995117,0.172344879285,0.233514263371,0.956916677662,-0.0088768375537
2021/03/16/13:05:36.739132,472377,1615896336,738171101,mocap,-2.74506420898,10.4017207031,1.93038964844,0.172447289801,0.233157596069,0.956990034812,-0.00833865479329
2021/03/16/13:05:36.747176,472378,1615896336,748171091,mocap,-2.74415820313,10.399640625,1.92996899414,0.172367356078,0.233127307021,0.957018653631,-0.00751310622607
2021/03/16/13:05:36.759108,472379,1615896336,758171082,mocap,-2.74318212891,10.3975888672,1.92946594238,0.172235437944,0.233173207873,0.95703508026,-0.00700489082231
2021/03/16/13:05:36.767711,472380,1615896336,768171072,mocap,-2.74225683594,10.3955791016,1.92900805664,0.172277669684,0.233074823296,0.957056932689,-0.00620920879138
2021/03/16/13:05:36.778961,472381,1615896336,778171062,mocap,-2.74130102539,10.3935908203,1.92838842773,0.172092550396,0.233241072731,0.957054651714,-0.00539812200822
2021/03/16/13:05:36.787360,472382,1615896336,788171053,mocap,-2.74034106445,10.3916210938,1.92765185547,0.172323814855,0.23345321315,0.956964038902,-0.00489130116708
2021/03/16/13:05:36.798731,472383,1615896336,798171043,mocap,-2.73939306641,10.3897128906,1.92697033691,0.172271329987,0.233990489226,0.956847449578,-0.0037418311626
2021/03/16/13:05:36.807382,472384,1615896336,808171034,mocap,-2.73844458008,10.3877988281,1.92618762207,0.171827174871,0.234193644652,0.956881445234,-0.00257945830492
2021/03/16/13:05:36.817899,472385,1615896336,818171024,mocap,-2.73761181641,10.3859082031,1.92545617676,0.171850014861,0.234295949384,0.956854636576,-0.00147452220556
2021/03/16/13:05:36.827267,472386,1615896336,828171015,mocap,-2.73661279297,10.3839326172,1.92455224609,0.171670545118,0.234830509734,0.956756887229,-0.000323489537852
2021/03/16/13:05:36.838899,472387,1615896336,838171005,mocap,-2.73576708984,10.3820527344,1.92380883789,0.171503762006,0.234846056642,0.956782919915,0.000485086776482
2021/03/16/13:05:36.847399,472388,1615896336,848170996,mocap,-2.73483178711,10.3800595703,1.92317724609,0.171212549193,0.234994918267,0.956796921049,0.00181848131481
2021/03/16/13:05:36.858773,472389,1615896336,858170986,mocap,-2.7339675293,10.3780371094,1.9225246582,0.171299847075,0.234921494475,0.956796889901,0.00282089452959
2021/03/16/13:05:36.867195,472390,1615896336,868170977,mocap,-2.73311206055,10.3759375,1.921984375,0.170971389867,0.234781720159,0.956884053647,0.00438461789571
2021/03/16/13:05:36.878825,472391,1615896336,878171206,mocap,-2.73225512695,10.3738730469,1.92162023926,0.170766210457,0.233973641191,0.95711530978,0.00505154478807
2021/03/16/13:05:36.887688,472392,1615896336,888171196,mocap,-2.73133544922,10.3716894531,1.92117687988,0.171268617784,0.233518555407,0.957131267693,0.00598963791374
2021/03/16/13:05:36.897950,472393,1615896336,898171186,mocap,-2.73046142578,10.3694257812,1.92082214355,0.171115892635,0.232630956693,0.95737020757,0.00666859971617
2021/03/16/13:05:36.907110,472394,1615896336,908171177,mocap,-2.72957592773,10.3671650391,1.92049157715,0.171283774459,0.231313236679,0.957656290344,0.00710505035326
2021/03/16/13:05:36.918495,472395,1615896336,918171167,mocap,-2.72871459961,10.3648828125,1.9202142334,0.17149118777,0.230296313038,0.957860844,0.00754858517985
2021/03/16/13:05:36.927310,472396,1615896336,928171158,mocap,-2.72783300781,10.3625859375,1.92001062012,0.172168003796,0.229056334963,0.958034993291,0.00776688435007
2021/03/16/13:05:36.938454,472397,1615896336,938171148,mocap,-2.72697949219,10.3602236328,1.91985827637,0.172715423278,0.227740371374,0.958245631884,0.00830765294089
2021/03/16/13:05:36.947315,472398,1615896336,948171139,mocap,-2.72617578125,10.3578515625,1.91977294922,0.172626448369,0.226347565705,0.958589763991,0.00851718065215
2021/03/16/13:05:36.958615,472399,1615896336,958171129,mocap,-2.7253581543,10.3554560547,1.91970446777,0.173362979263,0.225057835293,0.958757851567,0.00881042493992
2021/03/16/13:05:36.967152,472400,1615896336,968171120,mocap,-2.72459326172,10.3530341797,1.9196583252,0.173896782807,0.223919584346,0.958927471392,0.00883368779241
2021/03/16/13:05:36.978647,472401,1615896336,978171110,mocap,-2.72384545898,10.3506513672,1.91962988281,0.174156669166,0.222698003999,0.959162351793,0.00909085257023
2021/03/16/13:05:36.987412,472402,1615896336,988171101,mocap,-2.72317456055,10.3482880859,1.91974829102,0.174310366808,0.221480381224,0.959415882557,0.00913728224909
2021/03/16/13:05:36.997731,472403,1615896336,998171091,mocap,-2.72253540039,10.3458349609,1.91980664063,0.174381286613,0.220521005105,0.959621419852,0.00940119358728
2021/03/16/13:05:37.007136,472404,1615896337,8171082,mocap,-2.72196875,10.3434199219,1.91988049316,0.174797915924,0.219657370513,0.959743277166,0.00944223409171
2021/03/16/13:05:37.019255,472405,1615896337,18171072,mocap,-2.72140820313,10.3410068359,1.91991809082,0.175144602274,0.21909595999,0.959807033368,0.00958053186689
2021/03/16/13:05:37.027255,472406,1615896337,28171062,mocap,-2.72088793945,10.3385654297,1.91995666504,0.175530889613,0.218827768855,0.95979566888,0.00977641896584
2021/03/16/13:05:37.038707,472407,1615896337,38171053,mocap,-2.72043310547,10.336109375,1.91999487305,0.175441565146,0.21839983862,0.959905062007,0.0101996796672
2021/03/16/13:05:37.047731,472408,1615896337,48171043,mocap,-2.7200456543,10.3336787109,1.91999633789,0.175662134776,0.218342114664,0.959877010491,0.0102791580673
2021/03/16/13:05:37.058785,472409,1615896337,58171034,mocap,-2.71967602539,10.33121875,1.91995324707,0.175868792263,0.218521978183,0.959796297657,0.0104585172821
2021/03/16/13:05:37.067066,472410,1615896337,68171024,mocap,-2.71938085938,10.3287021484,1.9198704834,0.175754088755,0.218807416178,0.959747686595,0.0108714082317
2021/03/16/13:05:37.078621,472411,1615896337,78171015,mocap,-2.71911547852,10.3261943359,1.91981787109,0.175394133232,0.2192983521,0.959694958431,0.0114333794939
2021/03/16/13:05:37.087443,472412,1615896337,88171005,mocap,-2.71893432617,10.3235966797,1.9197935791,0.17513410254,0.219974594621,0.959581713509,0.0119232641649
2021/03/16/13:05:37.098643,472413,1615896337,98170996,mocap,-2.71880053711,10.3209570312,1.91969848633,0.174765621573,0.220549492289,0.959510037614,0.0124652024602
2021/03/16/13:05:37.107684,472414,1615896337,108170986,mocap,-2.71867797852,10.3182294922,1.91951477051,0.174242121558,0.22122473329,0.959440297753,0.013176262159
2021/03/16/13:05:37.118402,472415,1615896337,118170977,mocap,-2.71864526367,10.3154365234,1.91943481445,0.174220748343,0.22184246031,0.959296919475,0.0135083661782
2021/03/16/13:05:37.127318,472416,1615896337,128171206,mocap,-2.71866259766,10.3125292969,1.91927929688,0.173863906699,0.222628153759,0.959174275291,0.01388340144
2021/03/16/13:05:37.138468,472417,1615896337,138171196,mocap,-2.71864160156,10.3094853516,1.91898840332,0.173465612875,0.22323442715,0.959095056987,0.0145856888184
2021/03/16/13:05:37.147424,472418,1615896337,148171186,mocap,-2.71870751953,10.30640625,1.91878845215,0.172652807523,0.223771799299,0.959110352735,0.014984319368
2021/03/16/13:05:37.159417,472419,1615896337,158171177,mocap,-2.71885986328,10.3033427734,1.91880407715,0.174023762457,0.224124779789,0.958783107233,0.0147905295111
2021/03/16/13:05:37.167281,472420,1615896337,168171167,mocap,-2.71888378906,10.2998916016,1.91820825195,0.171832857208,0.225185209449,0.958912802082,0.0158535850133
2021/03/16/13:05:37.179418,472421,1615896337,178171158,mocap,-2.71912255859,10.2966396484,1.91816357422,0.172890473625,0.22513914513,0.958742557967,0.0152959178477
2021/03/16/13:05:37.187353,472422,1615896337,188171148,mocap,-2.71920214844,10.2930068359,1.9175736084,0.170499155838,0.226134575985,0.95891535835,0.0165689257234
2021/03/16/13:05:37.199219,472423,1615896337,198171139,mocap,-2.71946875,10.2894960937,1.91742126465,0.17188887626,0.226530977767,0.958580957777,0.0161395753857
2021/03/16/13:05:37.207376,472424,1615896337,208171129,mocap,-2.71969360352,10.2857148438,1.91697436523,0.171279373254,0.226619666563,0.958665728801,0.0163377995656
2021/03/16/13:05:37.218218,472425,1615896337,218171120,mocap,-2.7199206543,10.2818935547,1.91656726074,0.170453828269,0.22684191576,0.958756157471,0.016579142087
2021/03/16/13:05:37.229279,472426,1615896337,228171110,mocap,-2.72020727539,10.2779404297,1.91610754395,0.169832388654,0.226946362134,0.958836709208,0.0168662296769
2021/03/16/13:05:37.237418,472427,1615896337,238171101,mocap,-2.72033276367,10.2737246094,1.91535925293,0.167448214966,0.22756614708,0.959097946807,0.0174890363464
2021/03/16/13:05:37.249322,472428,1615896337,248171091,mocap,-2.72072436523,10.2697011719,1.9151081543,0.16917549447,0.227591910714,0.958799962106,0.016858397251
2021/03/16/13:05:37.257640,472429,1615896337,258171082,mocap,-2.72098754883,10.2652773438,1.91435754395,0.166473661477,0.228220287498,0.959103687579,0.0179479832733
2021/03/16/13:05:37.268231,472430,1615896337,268171072,mocap,-2.72145751953,10.2610166016,1.91406469727,0.168319950123,0.227954370936,0.958859243212,0.0171509142405
2021/03/16/13:05:37.278446,472431,1615896337,278171062,mocap,-2.72169506836,10.256375,1.91324365234,0.166252703636,0.228912475021,0.958976217262,0.0179926097298
2021/03/16/13:05:37.288220,472432,1615896337,288171053,mocap,-2.72218139648,10.2518925781,1.91294616699,0.167734311694,0.228645323813,0.958801865934,0.0168963072296
2021/03/16/13:05:37.297498,472433,1615896337,298171043,mocap,-2.72249072266,10.2470410156,1.91209777832,0.165547191635,0.229302527303,0.959011528112,0.0176457800638
2021/03/16/13:05:37.308117,472434,1615896337,308171034,mocap,-2.7231003418,10.2423183594,1.9117755127,0.16747331576,0.22904297785,0.958756670363,0.016663233854
2021/03/16/13:05:37.318470,472435,1615896337,318171024,mocap,-2.72347265625,10.2372558594,1.91086633301,0.165653465065,0.230001171534,0.958833818601,0.0172072094911
2021/03/16/13:05:37.327086,472436,1615896337,328171015,mocap,-2.72406176758,10.2323359375,1.91044934082,0.16745995051,0.230029154051,0.95853100255,0.0161882850522
2021/03/16/13:05:37.338733,472437,1615896337,338171005,mocap,-2.72450268555,10.2270810547,1.90953088379,0.165281084837,0.23088997498,0.958690178645,0.0168857983033
2021/03/16/13:05:37.347479,472438,1615896337,348170996,mocap,-2.72510400391,10.2218808594,1.90888525391,0.165052841817,0.231324700162,0.958626068366,0.0168077294238
2021/03/16/13:05:37.359064,472439,1615896337,358170986,mocap,-2.7257253418,10.2165166016,1.90823364258,0.165117971167,0.2317357845,0.958521255264,0.0164795016842
2021/03/16/13:05:37.367589,472440,1615896337,368170977,mocap,-2.72640380859,10.2110078125,1.90750927734,0.16530291504,0.232331302899,0.958350560649,0.0161649788708
2021/03/16/13:05:37.379125,472441,1615896337,378171206,mocap,-2.72714208984,10.2054804688,1.90692468262,0.164878667694,0.233025990301,0.958259277316,0.0159083993431
2021/03/16/13:05:37.387299,472442,1615896337,388171196,mocap,-2.72789135742,10.1998066406,1.90630932617,0.165313306557,0.233472428477,0.958081692677,0.0155435264263
2021/03/16/13:05:37.399117,472443,1615896337,398171186,mocap,-2.72874511719,10.194015625,1.90567651367,0.164828279758,0.233928046017,0.958057118429,0.0153574170202
2021/03/16/13:05:37.407966,472444,1615896337,408171177,mocap,-2.72961621094,10.1881210938,1.90506921387,0.164929729546,0.234466339252,0.957914085353,0.0149776207238
2021/03/16/13:05:37.417495,472445,1615896337,418171167,mocap,-2.73055297852,10.1821259766,1.9044654541,0.164942145376,0.235009322592,0.957782489437,0.0147450992568
2021/03/16/13:05:37.428545,472446,1615896337,428171158,mocap,-2.7315300293,10.1760136719,1.90398388672,0.164477713805,0.23543013706,0.957763524071,0.0144484797752
2021/03/16/13:05:37.437214,472447,1615896337,438171148,mocap,-2.73251074219,10.1697871094,1.90339575195,0.164815389139,0.235891349628,0.957595324204,0.0142249928179
2021/03/16/13:05:37.448736,472448,1615896337,448171139,mocap,-2.73359130859,10.1634628906,1.90290112305,0.164456058596,0.236015526376,0.957634848382,0.0136516155199
2021/03/16/13:05:37.457162,472449,1615896337,458171129,mocap,-2.73468554688,10.15703125,1.90245031738,0.164768705999,0.236676487106,0.957420238928,0.013490658689
2021/03/16/13:05:37.468788,472450,1615896337,468171120,mocap,-2.73583789063,10.1505722656,1.90209863281,0.164141697437,0.236615508232,0.957551480022,0.012874731014
2021/03/16/13:05:37.477506,472451,1615896337,478171110,mocap,-2.73701391602,10.1439501953,1.90161633301,0.164245056468,0.237153483793,0.957401250822,0.0128305003401
2021/03/16/13:05:37.488571,472452,1615896337,488171101,mocap,-2.73818847656,10.1372685547,1.9012401123,0.163911687164,0.237659938196,0.957335933531,0.0125942257286
2021/03/16/13:05:37.497335,472453,1615896337,498171091,mocap,-2.73945703125,10.1305703125,1.90091699219,0.164068044005,0.238015191213,0.957228784222,0.0119786469984
2021/03/16/13:05:37.508658,472454,1615896337,508171082,mocap,-2.74072827148,10.1238242188,1.90063415527,0.163914485312,0.238310687056,0.957187001536,0.0115364781932
2021/03/16/13:05:37.517352,472455,1615896337,518171072,mocap,-2.74210131836,10.1170800781,1.90043383789,0.163683826293,0.239078798401,0.957043168908,0.0108314634642
2021/03/16/13:05:37.527638,472456,1615896337,528171062,mocap,-2.74340625,10.1102138672,1.90035546875,0.163327039098,0.240806673425,0.956669929962,0.0109117268173
2021/03/16/13:05:37.537239,472457,1615896337,538171053,mocap,-2.74484155273,10.1033154297,1.90065881348,0.163052927367,0.242289350536,0.956346438101,0.0105403515157
2021/03/16/13:05:37.547364,472458,1615896337,548171043,mocap,-2.74633813477,10.0964296875,1.90119836426,0.162879942949,0.244153467727,0.955904519247,0.0102841961188
2021/03/16/13:05:37.557284,472459,1615896337,558171034,mocap,-2.74781884766,10.089375,1.90186938477,0.162664867835,0.245662891274,0.955555498142,0.0101775588995
2021/03/16/13:05:37.568265,472460,1615896337,568171024,mocap,-2.74930004883,10.0821982422,1.90256848145,0.162774895421,0.246882101058,0.955230271716,0.00941723893814
2021/03/16/13:05:37.577423,472461,1615896337,578171015,mocap,-2.75071191406,10.0749365234,1.9034107666,0.162678996033,0.248136376625,0.9549282323,0.00871480716897
2021/03/16/13:05:37.588535,472462,1615896337,588171005,mocap,-2.75223217773,10.0676611328,1.90444042969,0.162687677855,0.249174323734,0.954661935879,0.00809116966075
2021/03/16/13:05:37.597400,472463,1615896337,598170996,mocap,-2.75373510742,10.0603476563,1.90565039062,0.162792585929,0.250320708392,0.954350894768,0.00724488359951
2021/03/16/13:05:37.609224,472464,1615896337,608170986,mocap,-2.75531030273,10.0529169922,1.90701831055,0.162584372437,0.251201638526,0.954159261468,0.00664485935862
2021/03/16/13:05:37.617492,472465,1615896337,618170977,mocap,-2.75688745117,10.0454091797,1.90857250977,0.162522937604,0.251781692723,0.954024008153,0.00552018875679
2021/03/16/13:05:37.629586,472466,1615896337,628171206,mocap,-2.75843969727,10.0378505859,1.91015844727,0.162315354718,0.251896907836,0.954031552232,0.00504604925902
2021/03/16/13:05:37.637313,472467,1615896337,638171196,mocap,-2.75994555664,10.0301601563,1.9116907959,0.161919098303,0.251194685,0.954289545694,0.00385977367527
2021/03/16/13:05:37.649065,472468,1615896337,648171186,mocap,-2.76146606445,10.0224814453,1.91323413086,0.16192615097,0.250520471389,0.954468702352,0.00298669575373
2021/03/16/13:05:37.658180,472469,1615896337,658171177,mocap,-2.76289501953,10.01478125,1.91465588379,0.162018350058,0.249729387908,0.954663254825,0.00183424051273
2021/03/16/13:05:37.667163,472470,1615896337,668171167,mocap,-2.76433447266,10.0071152344,1.91596716309,0.161739056153,0.248438342193,0.955048808329,0.000797752575478
2021/03/16/13:05:37.678022,472471,1615896337,678171158,mocap,-2.76566040039,9.99947949219,1.91702258301,0.161483948055,0.247246653665,0.955401438029,-0.00035692781595
2021/03/16/13:05:37.688054,472472,1615896337,688171148,mocap,-2.76695825195,9.99192089844,1.91790942383,0.161480346805,0.24649765458,0.955594475148,-0.00148859656149
2021/03/16/13:05:37.698295,472473,1615896337,698171139,mocap,-2.76828515625,9.9845,1.9187421875,0.161004829178,0.24571012717,0.955875913838,-0.00228378832509
2021/03/16/13:05:37.708525,472474,1615896337,708171129,mocap,-2.76947949219,9.97712109375,1.91934765625,0.160736665314,0.24545483768,0.955984111047,-0.00316571546476
2021/03/16/13:05:37.719231,472475,1615896337,718171120,mocap,-2.77068188477,9.96978125,1.91986535645,0.160683211771,0.245331580373,0.956022532841,-0.00377229162709
2021/03/16/13:05:37.727456,472476,1615896337,728171110,mocap,-2.77175488281,9.96253515625,1.92027453613,0.16021498732,0.245481681078,0.95606058682,-0.0042487750251
2021/03/16/13:05:37.737938,472477,1615896337,738171101,mocap,-2.77285766602,9.95529589844,1.92060595703,0.160246774061,0.245403122237,0.956073936136,-0.00457376305652
2021/03/16/13:05:37.747416,472478,1615896337,748171091,mocap,-2.77384838867,9.94807910156,1.92074731445,0.15968739118,0.245515085046,0.95613674478,-0.00498029690777
2021/03/16/13:05:37.757746,472479,1615896337,758171082,mocap,-2.7747175293,9.94086132812,1.92085632324,0.159369723359,0.245771065105,0.956122040446,-0.00533957266475
2021/03/16/13:05:37.767154,472480,1615896337,768171072,mocap,-2.77567797852,9.93371972656,1.92096142578,0.159121398517,0.246031760971,0.956095218286,-0.00553890044089
2021/03/16/13:05:37.779102,472481,1615896337,778171062,mocap,-2.77641992188,9.92655566406,1.92100292969,0.158606396116,0.246329561613,0.956102107024,-0.00587593018141
2021/03/16/13:05:37.787382,472482,1615896337,788171053,mocap,-2.77716162109,9.91933007813,1.92108557129,0.157864947635,0.246674305128,0.956133775879,-0.00621641751204
2021/03/16/13:05:37.798743,472483,1615896337,798171043,mocap,-2.77780029297,9.91210449219,1.92112756348,0.157928809481,0.247065393665,0.956021098871,-0.00639024376742
2021/03/16/13:05:37.807666,472484,1615896337,808171034,mocap,-2.77829711914,9.90485351562,1.92123632813,0.157885459019,0.247084552192,0.956021028731,-0.00672299184838
2021/03/16/13:05:37.817842,472485,1615896337,818171024,mocap,-2.77875341797,9.89749707031,1.92138793945,0.15785446795,0.246879142047,0.956074723218,-0.00733401288002
2021/03/16/13:05:37.828715,472486,1615896337,828171015,mocap,-2.7791640625,9.89015527344,1.92166162109,0.157189629248,0.246860366635,0.956186373158,-0.00768147339721
2021/03/16/13:05:37.837403,472487,1615896337,838171005,mocap,-2.77948681641,9.88271679688,1.92199279785,0.157165967297,0.246320773959,0.956325021307,-0.0082089656893
2021/03/16/13:05:37.848397,472488,1615896337,848170996,mocap,-2.77975073242,9.87521777344,1.9224486084,0.15722018286,0.245752318695,0.956457433143,-0.00876331655579
2021/03/16/13:05:37.857408,472489,1615896337,858170986,mocap,-2.77993164063,9.86764648437,1.92294030762,0.157137487214,0.244918791571,0.956679376804,-0.00933671543244
2021/03/16/13:05:37.868649,472490,1615896337,868170977,mocap,-2.78000610352,9.86000195312,1.92345666504,0.15709328511,0.243812649901,0.956960371857,-0.0101952688151
2021/03/16/13:05:37.877250,472491,1615896337,878171206,mocap,-2.78000219727,9.85233789062,1.92394714355,0.157207505313,0.242710271656,0.957211956169,-0.0110805122498
2021/03/16/13:05:37.888610,472492,1615896337,888171196,mocap,-2.77992602539,9.84458691406,1.92440649414,0.157398998119,0.241359642885,0.957511874591,-0.0119202276805
2021/03/16/13:05:37.897121,472493,1615896337,898171186,mocap,-2.77977319336,9.83685449219,1.9248404541,0.157922217638,0.240107213989,0.957726510188,-0.0130012377785
2021/03/16/13:05:37.908464,472494,1615896337,908171177,mocap,-2.77951831055,9.82908007812,1.92524914551,0.15840577905,0.239015070615,0.957907318537,-0.0138918898992
2021/03/16/13:05:37.917694,472495,1615896337,918171167,mocap,-2.77920874023,9.82126171875,1.92554138184,0.158945105379,0.237998474705,0.958056138557,-0.0148862344484
2021/03/16/13:05:37.927372,472496,1615896337,928171158,mocap,-2.77886376953,9.81354199219,1.92583911133,0.159723692622,0.237083070101,0.958134268562,-0.0160834851646
2021/03/16/13:05:37.937341,472497,1615896337,938171148,mocap,-2.77843579102,9.80569335938,1.92597900391,0.160328875716,0.236258135321,0.958222204828,-0.0169393202429
2021/03/16/13:05:37.948438,472498,1615896337,948171139,mocap,-2.77799243164,9.79789550781,1.92605114746,0.161166391639,0.235761214885,0.958183591312,-0.0180621442996
2021/03/16/13:05:37.957516,472499,1615896337,958171129,mocap,-2.77753125,9.79008105469,1.9260637207,0.162203025573,0.235388080126,0.958078286537,-0.0191997447754
2021/03/16/13:05:37.968506,472500,1615896337,968171120,mocap,-2.77704345703,9.78218457031,1.92596350098,0.163080207532,0.234973674536,0.958009126839,-0.0202665789762
2021/03/16/13:05:37.977221,472501,1615896337,978171110,mocap,-2.7765090332,9.77425976563,1.92573266602,0.163671167711,0.234871369248,0.957915819828,-0.0210825237225
2021/03/16/13:05:37.987135,472502,1615896337,988171101,mocap,-2.77597265625,9.76630371094,1.92547045898,0.164532836524,0.234683868709,0.957783586274,-0.0224284337263
2021/03/16/13:05:37.997236,472503,1615896337,998171091,mocap,-2.77541870117,9.75829882812,1.9251439209,0.16535776009,0.234524982118,0.957655434542,-0.0234714985822
2021/03/16/13:05:38.009413,472504,1615896338,8171082,mocap,-2.77484838867,9.75024121094,1.92466723633,0.166012851241,0.234485566214,0.957525297047,-0.0245267819947
2021/03/16/13:05:38.017503,472505,1615896338,18171072,mocap,-2.77427612305,9.74222558594,1.92422143555,0.166301239988,0.235264214538,0.95726205028,-0.0253775795435
2021/03/16/13:05:38.029486,472506,1615896338,28171062,mocap,-2.77365185547,9.73402246094,1.92339086914,0.16786065801,0.2348822359,0.957043565943,-0.0268466131799
2021/03/16/13:05:38.037320,472507,1615896338,38171053,mocap,-2.77304272461,9.725890625,1.92279992676,0.167962893309,0.235791886016,0.956785738847,-0.0274174531315
2021/03/16/13:05:38.048298,472508,1615896338,48171043,mocap,-2.77237182617,9.71764257812,1.92190063477,0.168669749274,0.236097690146,0.956558570131,-0.0283565131551
2021/03/16/13:05:38.057622,472509,1615896338,58171034,mocap,-2.77174731445,9.7092890625,1.92093261719,0.169518406962,0.236565852382,0.956266393396,-0.029235133933
2021/03/16/13:05:38.069236,472510,1615896338,68171024,mocap,-2.77106323242,9.70084082031,1.91986877441,0.170419514726,0.236772637102,0.956021597643,-0.0303088752907
2021/03/16/13:05:38.077412,472511,1615896338,78171015,mocap,-2.77037670898,9.69238476563,1.91873254395,0.171069848159,0.236990695113,0.955831203505,-0.0309392446964
2021/03/16/13:05:38.088887,472512,1615896338,88171005,mocap,-2.76971166992,9.68383886719,1.9175078125,0.171846602824,0.237054350991,0.955647484133,-0.0318098309367
2021/03/16/13:05:38.097495,472513,1615896338,98170996,mocap,-2.76902612305,9.67518457031,1.91613305664,0.17280364941,0.23752065787,0.955333496153,-0.0325691329007
2021/03/16/13:05:38.109076,472514,1615896338,108170986,mocap,-2.76834155273,9.66648632812,1.91475317383,0.173349609139,0.237652365206,0.955186872785,-0.0330046272933
2021/03/16/13:05:38.117522,472515,1615896338,118170977,mocap,-2.76766015625,9.65774023437,1.91324633789,0.17403682802,0.237973442134,0.954964707082,-0.0334997222453
2021/03/16/13:05:38.128895,472516,1615896338,128171206,mocap,-2.76697851562,9.64898535156,1.91166296387,0.174612878709,0.238417007161,0.95472813846,-0.0340859195932
2021/03/16/13:05:38.137271,472517,1615896338,138171196,mocap,-2.76634399414,9.64019238281,1.91004968262,0.175076095322,0.23873001152,0.954558115868,-0.0342805192693
2021/03/16/13:05:38.149128,472518,1615896338,148171186,mocap,-2.76571020508,9.63131738281,1.90831079102,0.175447080956,0.239477586407,0.954290826117,-0.0346095926852
2021/03/16/13:05:38.157581,472519,1615896338,158171177,mocap,-2.76502758789,9.62242480469,1.90663208008,0.175400988418,0.240221257752,0.954119202871,-0.0344206928408
2021/03/16/13:05:38.168878,472520,1615896338,168171167,mocap,-2.76444628906,9.61350097656,1.90502368164,0.175510605057,0.240676151718,0.95398541996,-0.0343922167534
2021/03/16/13:05:38.177363,472521,1615896338,178171158,mocap,-2.76381469727,9.60450195313,1.90339489746,0.175469995059,0.241548823654,0.953780410114,-0.0341668567437
2021/03/16/13:05:38.189117,472522,1615896338,188171148,mocap,-2.76316845703,9.59541894531,1.90203198242,0.175167157631,0.241980574714,0.953752444065,-0.0334387493739
2021/03/16/13:05:38.197357,472523,1615896338,198171139,mocap,-2.76253564453,9.58622460937,1.90066381836,0.174957179,0.242354284201,0.9537149464,-0.0328968538455
2021/03/16/13:05:38.208616,472524,1615896338,208171129,mocap,-2.76183959961,9.57700976563,1.89956054688,0.174714227344,0.242726068017,0.95368531439,-0.032300294498
2021/03/16/13:05:38.217283,472525,1615896338,218171120,mocap,-2.76116088867,9.56769140625,1.89855895996,0.174627081993,0.242971424747,0.953657868999,-0.0317325101608
2021/03/16/13:05:38.229073,472526,1615896338,228171110,mocap,-2.76041259766,9.5583515625,1.89769665527,0.174354451121,0.243370942402,0.953635141774,-0.0308403640155
2021/03/16/13:05:38.237335,472527,1615896338,238171101,mocap,-2.75966210937,9.54894335938,1.8969810791,0.173853213792,0.243456104963,0.953731898652,-0.0299944184484
2021/03/16/13:05:38.248864,472528,1615896338,248171091,mocap,-2.75886767578,9.53951464844,1.89646789551,0.173653391661,0.24388602976,0.953687611235,-0.0290523181367
2021/03/16/13:05:38.257426,472529,1615896338,258171082,mocap,-2.75805981445,9.53005957031,1.8962166748,0.173094072605,0.244048100145,0.953774121731,-0.0281763241992
2021/03/16/13:05:38.268827,472530,1615896338,268171072,mocap,-2.75723095703,9.52056347656,1.89633850098,0.172241627151,0.244729616055,0.953796158232,-0.0267044104991
2021/03/16/13:05:38.277210,472531,1615896338,278171062,mocap,-2.75638549805,9.51101757812,1.89679785156,0.171428280091,0.245416649105,0.953801274752,-0.025419377752
2021/03/16/13:05:38.287805,472532,1615896338,288171053,mocap,-2.75554858398,9.50141699219,1.89759130859,0.17085815631,0.245634419199,0.953884588147,-0.023987742291
2021/03/16/13:05:38.297769,472533,1615896338,298171043,mocap,-2.75465991211,9.49163769531,1.89853881836,0.17047546858,0.245326804839,0.954059923995,-0.0228590560234
2021/03/16/13:05:38.307150,472534,1615896338,308171034,mocap,-2.75365405273,9.48183105469,1.89958190918,0.170171649457,0.244741886496,0.954296244474,-0.0214872578323
2021/03/16/13:05:38.318443,472535,1615896338,318171024,mocap,-2.75263525391,9.47198535156,1.90082324219,0.169820765855,0.244133641747,0.95454265351,-0.0201988380977
2021/03/16/13:05:38.327234,472536,1615896338,328171015,mocap,-2.75163549805,9.46226074219,1.90226159668,0.16983853027,0.243438968098,0.954743707067,-0.0188891011713
2021/03/16/13:05:38.337572,472537,1615896338,338171005,mocap,-2.75061083984,9.45250097656,1.90373181152,0.169908405842,0.242701624857,0.95494256491,-0.0176565613268
2021/03/16/13:05:38.347144,472538,1615896338,348170996,mocap,-2.74959814453,9.4427890625,1.90532763672,0.170411788223,0.241536539776,0.955166826244,-0.0166210591653
2021/03/16/13:05:38.357434,472539,1615896338,358170986,mocap,-2.74857397461,9.43304492188,1.90677185059,0.170674832502,0.24045949561,0.955413322681,-0.0153203195593
2021/03/16/13:05:38.368520,472540,1615896338,368170977,mocap,-2.74756494141,9.42344921875,1.90828710938,0.171329049232,0.239034207196,0.955667528387,-0.0144426220425
2021/03/16/13:05:38.379328,472541,1615896338,378171206,mocap,-2.74657470703,9.41370019531,1.90944030762,0.172728164581,0.236853271252,0.955969770672,-0.0136857367374
2021/03/16/13:05:38.387282,472542,1615896338,388171196,mocap,-2.74558886719,9.40441601562,1.91068066406,0.173695514639,0.235407838403,0.956153108637,-0.0135739110455
2021/03/16/13:05:38.398243,472543,1615896338,398171186,mocap,-2.74466748047,9.39495117188,1.91165490723,0.174586543357,0.234108677029,0.956319965034,-0.0128369896524
2021/03/16/13:05:38.407708,472544,1615896338,408171177,mocap,-2.74376000977,9.38569335938,1.91261706543,0.175872312061,0.23294255058,0.956379656946,-0.0120268125649
2021/03/16/13:05:38.418176,472545,1615896338,418171167,mocap,-2.74294580078,9.3765703125,1.91348583984,0.177110953859,0.232390125847,0.956295400053,-0.0112094156143
2021/03/16/13:05:38.427213,472546,1615896338,428171158,mocap,-2.74227294922,9.36743847656,1.91425024414,0.17790984068,0.23206683188,0.956235406802,-0.0103404514423
2021/03/16/13:05:38.438276,472547,1615896338,438171148,mocap,-2.74162475586,9.35843066406,1.91505175781,0.179321051208,0.231724809995,0.956065137921,-0.00932888046604
2021/03/16/13:05:38.447420,472548,1615896338,448171139,mocap,-2.74108935547,9.34947753906,1.91587438965,0.179951676129,0.231423531873,0.956029765006,-0.00822305148568
2021/03/16/13:05:38.459138,472549,1615896338,458171129,mocap,-2.74067016602,9.34046679688,1.91656762695,0.180734128362,0.230934856739,0.956009307501,-0.0071045445752
2021/03/16/13:05:38.467325,472550,1615896338,468171120,mocap,-2.74033520508,9.33147070312,1.91731030273,0.18185796234,0.230294629007,0.955957892937,-0.00604783679274
2021/03/16/13:05:38.478983,472551,1615896338,478171110,mocap,-2.74007788086,9.32253027344,1.91805444336,0.182145999175,0.229589358219,0.956078315731,-0.00507969717442
2021/03/16/13:05:38.487529,472552,1615896338,488171101,mocap,-2.73989111328,9.31355957031,1.91869836426,0.182924522276,0.228749216011,0.956136105804,-0.00401926734879
2021/03/16/13:05:38.499293,472553,1615896338,498171091,mocap,-2.73976660156,9.30463378906,1.91942553711,0.183690868229,0.227814014586,0.956216192583,-0.00300503155371
2021/03/16/13:05:38.507286,472554,1615896338,508171082,mocap,-2.73966748047,9.29573242187,1.92004614258,0.184180952474,0.22698942693,0.956320884359,-0.00188229786754
2021/03/16/13:05:38.519085,472555,1615896338,518171072,mocap,-2.73968041992,9.2869375,1.9206809082,0.184864324258,0.22651399953,0.956303339138,-0.000719189264279
2021/03/16/13:05:38.527668,472556,1615896338,528171062,mocap,-2.73978686523,9.27810351563,1.92125769043,0.185016828248,0.225987043521,0.956398564061,0.000646666417063
2021/03/16/13:05:38.539097,472557,1615896338,538171053,mocap,-2.73999023438,9.26932421875,1.92174926758,0.184907863484,0.225607207668,0.956508135393,0.00162844432222
2021/03/16/13:05:38.547126,472558,1615896338,548171043,mocap,-2.74015966797,9.26059082031,1.92210778809,0.184427670031,0.225535818161,0.956612460313,0.00355460342645
2021/03/16/13:05:38.558777,472559,1615896338,558171034,mocap,-2.74045141602,9.25180957031,1.92252722168,0.184230455675,0.224889498145,0.956797287038,0.00477575939169
2021/03/16/13:05:38.567426,472560,1615896338,568171024,mocap,-2.74075195313,9.24306347656,1.92287902832,0.184175474502,0.224186972988,0.956966935157,0.00582060323104
2021/03/16/13:05:38.579040,472561,1615896338,578171015,mocap,-2.74111938477,9.23429785156,1.92319470215,0.184217759724,0.223452987969,0.957122961827,0.00694365036755
2021/03/16/13:05:38.587289,472562,1615896338,588171005,mocap,-2.74150927734,9.22544140625,1.92338427734,0.183871907368,0.222684572441,0.957359973738,0.00803647275944
2021/03/16/13:05:38.597493,472563,1615896338,598170996,mocap,-2.74202392578,9.216625,1.92358813477,0.183961337609,0.221811981982,0.957538812687,0.00878047818155
2021/03/16/13:05:38.608863,472564,1615896338,608170986,mocap,-2.74246850586,9.20779882813,1.92375915527,0.183619562805,0.220764109229,0.957834428346,0.0100141853261
2021/03/16/13:05:38.617256,472565,1615896338,618170977,mocap,-2.74296411133,9.19882226562,1.92379284668,0.183149165545,0.219710711697,0.958155294998,0.011046255751
2021/03/16/13:05:38.628650,472566,1615896338,628171206,mocap,-2.74351611328,9.18993554688,1.92380163574,0.183116563228,0.218665077349,0.958392207093,0.01175929376
2021/03/16/13:05:38.637297,472567,1615896338,638171196,mocap,-2.744140625,9.18099902344,1.92371508789,0.182526913151,0.217549098017,0.958746295907,0.0127221447694
2021/03/16/13:05:38.648656,472568,1615896338,648171186,mocap,-2.74466967773,9.17204296875,1.92355651855,0.18189430642,0.216802503139,0.959016733342,0.0140725736515
2021/03/16/13:05:38.657224,472569,1615896338,658171177,mocap,-2.74529614258,9.16313085938,1.92331298828,0.181407684615,0.216034897702,0.959263180295,0.0153080414945
2021/03/16/13:05:38.668621,472570,1615896338,668171167,mocap,-2.74591455078,9.15418066406,1.92301550293,0.180807627875,0.215504085753,0.959479575096,0.0162954538556
2021/03/16/13:05:38.677479,472571,1615896338,678171158,mocap,-2.74659765625,9.14520800781,1.92258666992,0.180393698856,0.215034202416,0.959641909049,0.0174873992185
2021/03/16/13:05:38.688698,472572,1615896338,688171148,mocap,-2.74725366211,9.13629394531,1.92209765625,0.179616737499,0.214666309818,0.959847584238,0.0186765542359
2021/03/16/13:05:38.697226,472573,1615896338,698171139,mocap,-2.74794702148,9.12732519531,1.92152172852,0.179071064071,0.214511633707,0.959960976307,0.0198300936687
2021/03/16/13:05:38.708696,472574,1615896338,708171129,mocap,-2.74865356445,9.11837109375,1.92084594727,0.178365539527,0.21453246344,0.960064755295,0.0209096927228
2021/03/16/13:05:38.717411,472575,1615896338,718171120,mocap,-2.74931323242,9.10936132813,1.92008032227,0.177683778293,0.214755924492,0.960116632822,0.0220092835172
2021/03/16/13:05:38.728571,472576,1615896338,728171110,mocap,-2.75001879883,9.10027441406,1.91921447754,0.177013662959,0.215152356681,0.96012497487,0.0231442781438
2021/03/16/13:05:38.737410,472577,1615896338,738171101,mocap,-2.75074560547,9.091203125,1.91824621582,0.176663612469,0.215625228773,0.960069791845,0.0237006489486
2021/03/16/13:05:38.748568,472578,1615896338,748171091,mocap,-2.75143676758,9.08206445312,1.91716760254,0.17601378594,0.215928291226,0.960089627369,0.0249405632141
2021/03/16/13:05:38.758059,472579,1615896338,758171082,mocap,-2.75216210937,9.07295898437,1.91605761719,0.175712344066,0.216451627291,0.960004997601,0.0257734361573
2021/03/16/13:05:38.767263,472580,1615896338,768171072,mocap,-2.75291162109,9.06373730469,1.91476135254,0.175174152784,0.21709689474,0.959937234083,0.0265225986119
2021/03/16/13:05:38.779364,472581,1615896338,778171062,mocap,-2.75367749023,9.05455566406,1.9134543457,0.17472633096,0.217724472365,0.959855602613,0.0272760497844
2021/03/16/13:05:38.787357,472582,1615896338,788171053,mocap,-2.75441723633,9.04532128906,1.91197631836,0.174734050708,0.218493708012,0.959666302968,0.0277326881244
2021/03/16/13:05:38.799571,472583,1615896338,798171043,mocap,-2.75520166016,9.03603710938,1.9103807373,0.174116624451,0.21922168184,0.959596558935,0.0282789509728
2021/03/16/13:05:38.807239,472584,1615896338,808171034,mocap,-2.75600317383,9.0267265625,1.90883081055,0.173522222591,0.220143918499,0.959483372286,0.0286067504916
2021/03/16/13:05:38.819456,472585,1615896338,818171024,mocap,-2.75682299805,9.01742285156,1.90721447754,0.173264269227,0.221129337073,0.95928957214,0.029065874616
2021/03/16/13:05:38.827332,472586,1615896338,828171015,mocap,-2.75763330078,9.00802441406,1.90562475586,0.172498558887,0.222056399151,0.959212949903,0.0290814286409
2021/03/16/13:05:38.839174,472587,1615896338,838171005,mocap,-2.75848266602,8.99857421875,1.9040892334,0.172459413163,0.223377854149,0.958906205482,0.0293083039998
2021/03/16/13:05:38.847644,472588,1615896338,848170996,mocap,-2.75933544922,8.98911328125,1.90270788574,0.172707623336,0.224110609432,0.958703569061,0.0288786755059
2021/03/16/13:05:38.859123,472589,1615896338,858170986,mocap,-2.76018041992,8.97953808594,1.90143078613,0.17207178306,0.225000084245,0.958610811525,0.0288371086836
2021/03/16/13:05:38.867589,472590,1615896338,868170977,mocap,-2.7610300293,8.969875,1.90025390625,0.172096173798,0.225463248409,0.95852010486,0.0280792083481
2021/03/16/13:05:38.879035,472591,1615896338,878171206,mocap,-2.76187866211,8.96017578125,1.89923205566,0.172300331977,0.226047202344,0.958365557309,0.0273990002549
2021/03/16/13:05:38.887061,472592,1615896338,888171196,mocap,-2.76275219727,8.95043457031,1.89832421875,0.172594748676,0.226291160857,0.958285276963,0.0263190618356
2021/03/16/13:05:38.899315,472593,1615896338,898171186,mocap,-2.76357543945,8.94058203125,1.89748498535,0.173336176779,0.226512712298,0.958132829976,0.0250611240906
2021/03/16/13:05:38.907353,472594,1615896338,908171177,mocap,-2.76446972656,8.93074316406,1.89681323242,0.173734251711,0.226667374383,0.958055345326,0.0238383283817
2021/03/16/13:05:38.919183,472595,1615896338,918171167,mocap,-2.76543115234,8.92094140625,1.89636181641,0.17393390879,0.226764472121,0.958033049054,0.0223055921911
2021/03/16/13:05:38.927575,472596,1615896338,928171158,mocap,-2.76638110352,8.91103808594,1.8962532959,0.173817391421,0.227330283473,0.957942793231,0.0213087945662
2021/03/16/13:05:38.938933,472597,1615896338,938171148,mocap,-2.76741088867,8.90123144531,1.89670483398,0.173724344969,0.228329886703,0.957750797307,0.0199682297854
2021/03/16/13:05:38.947662,472598,1615896338,948171139,mocap,-2.7685065918,8.89132617188,1.89752734375,0.173682431853,0.228668787342,0.957698153691,0.0189536645604
2021/03/16/13:05:38.958973,472599,1615896338,958171129,mocap,-2.76952246094,8.88126464844,1.89846081543,0.174151148191,0.228782142839,0.957610885098,0.0176495088131
2021/03/16/13:05:38.967369,472600,1615896338,968171120,mocap,-2.77052490234,8.87119335938,1.89959631348,0.173893720447,0.228599341394,0.957725615551,0.0162776323207
2021/03/16/13:05:38.977987,472601,1615896338,978171110,mocap,-2.77151391602,8.86112402344,1.90085437012,0.174261609182,0.228660273962,0.957671282316,0.0145975017223
2021/03/16/13:05:38.987244,472602,1615896338,988171101,mocap,-2.77253930664,8.85110253906,1.90238085938,0.174463388497,0.228347274664,0.957729746431,0.0131820974187
2021/03/16/13:05:38.997594,472603,1615896338,998171091,mocap,-2.77353759766,8.84108203125,1.90400463867,0.174809731538,0.228202382147,0.957720053227,0.0117272295058
2021/03/16/13:05:39.008010,472604,1615896339,8171082,mocap,-2.77451342773,8.83103222656,1.90566748047,0.175094745855,0.227315607724,0.957896149298,0.0102188197946
2021/03/16/13:05:39.017823,472605,1615896339,18171072,mocap,-2.77541259766,8.82094238281,1.90734899902,0.175117673837,0.226053620956,0.95820495879,0.00876493930397
2021/03/16/13:05:39.028902,472606,1615896339,28171062,mocap,-2.77630957031,8.81086230469,1.9089420166,0.175222099781,0.224010759466,0.958676003096,0.00753192543203
2021/03/16/13:05:39.037058,472607,1615896339,38171053,mocap,-2.777171875,8.80077929687,1.91050183105,0.175640474927,0.222188241436,0.959031610821,0.00641755466068
2021/03/16/13:05:39.049088,472608,1615896339,48171043,mocap,-2.77797631836,8.79082128906,1.91199816895,0.175618496606,0.220001234519,0.959544358231,0.00567585507772
2021/03/16/13:05:39.057361,472609,1615896339,58171034,mocap,-2.7787097168,8.78090820312,1.91329272461,0.17547793529,0.218128080462,0.960000985165,0.00507330660998
2021/03/16/13:05:39.068662,472610,1615896339,68171024,mocap,-2.77937231445,8.77122558594,1.9144708252,0.176161644542,0.21612424759,0.960333316328,0.0041615786312
2021/03/16/13:05:39.077265,472611,1615896339,78171015,mocap,-2.77999682617,8.76164453125,1.91548657227,0.176399641454,0.214902013068,0.960565859563,0.00367595400685
2021/03/16/13:05:39.088553,472612,1615896339,88171005,mocap,-2.7805925293,8.75233105469,1.91649914551,0.176248385845,0.214143096076,0.960763597647,0.00354371003369
2021/03/16/13:05:39.097146,472613,1615896339,98170996,mocap,-2.78117480469,8.7431328125,1.91728137207,0.176525627759,0.214001321155,0.96074507888,0.00332246607564
2021/03/16/13:05:39.108287,472614,1615896339,108170986,mocap,-2.78164892578,8.73415722656,1.91815966797,0.176179023546,0.21410711999,0.960784969785,0.00336847041835
2021/03/16/13:05:39.117316,472615,1615896339,118170977,mocap,-2.78208789063,8.72530664062,1.91896032715,0.175984142258,0.214588776625,0.960713073451,0.00340968191342
2021/03/16/13:05:39.127463,472616,1615896339,128171206,mocap,-2.78251245117,8.71649121094,1.91974328613,0.175730945248,0.215314674644,0.960597854385,0.00316091936882
2021/03/16/13:05:39.137488,472617,1615896339,138171196,mocap,-2.78289379883,8.7076875,1.9204630127,0.175750025926,0.215632785072,0.960523748876,0.00292647187295
2021/03/16/13:05:39.148557,472618,1615896339,148171186,mocap,-2.78322338867,8.69896386719,1.92129638672,0.175188302833,0.216153862316,0.960509584874,0.00281111362835
2021/03/16/13:05:39.157501,472619,1615896339,158171177,mocap,-2.78350390625,8.69021777344,1.92216870117,0.174914454519,0.216336838058,0.960519374036,0.00241874477538
