time,.header.seq,.header.stamp.secs,.header.stamp.nsecs,.header.frame_id,.pose.position.x,.pose.position.y,.pose.position.z,.pose.orientation.x,.pose.orientation.y,.pose.orientation.z,.pose.orientation.w
2021/03/16/13:00:21.347351,453850,1615896021,348170996,mocap,-2.74158520508,10.3547167969,1.93672570801,0.157266564282,0.222840702576,0.961912761242,-0.0182507030857
2021/03/16/13:00:21.359363,453851,1615896021,358170986,mocap,-2.74165356445,10.354671875,1.93669921875,0.156654852344,0.22285344945,0.962020558305,-0.017664480533
2021/03/16/13:00:21.367880,453852,1615896021,368170977,mocap,-2.74177246094,10.3547128906,1.93675085449,0.156721277042,0.222706279367,0.96204205741,-0.017760261444
2021/03/16/13:00:21.379948,453853,1615896021,378171206,mocap,-2.74193896484,10.3547822266,1.9367208252,0.156813129248,0.222641872756,0.962036581999,-0.0180514488163
2021/03/16/13:00:21.388265,453854,1615896021,388171196,mocap,-2.74204956055,10.3548476562,1.93672851563,0.156807929354,0.222614952792,0.962043776698,-0.0180450155754
2021/03/16/13:00:21.399807,453855,1615896021,398171186,mocap,-2.74215551758,10.354890625,1.93676782227,0.156688844153,0.222623697014,0.962062448588,-0.0179759300781
2021/03/16/13:00:21.407474,453856,1615896021,408171177,mocap,-2.74223999023,10.3548740234,1.93671972656,0.156582115397,0.222632650646,0.962083025195,-0.0176915903147
2021/03/16/13:00:21.419940,453857,1615896021,418171167,mocap,-2.74237890625,10.3549931641,1.93676745605,0.156584745432,0.222626213778,0.962079617733,-0.0179333179583
2021/03/16/13:00:21.427483,453858,1615896021,428171158,mocap,-2.74244677734,10.3550195313,1.9368059082,0.156389211334,0.22242771863,0.962164274098,-0.0175569119075
2021/03/16/13:00:21.439456,453859,1615896021,438171148,mocap,-2.7425390625,10.3550546875,1.93675415039,0.156215163344,0.222590995095,0.962158334766,-0.0173611601448
2021/03/16/13:00:21.447848,453860,1615896021,448171139,mocap,-2.74265722656,10.3551162109,1.93676928711,0.15629515011,0.222466356287,0.962173093977,-0.0174206116519
2021/03/16/13:00:21.459790,453861,1615896021,458171129,mocap,-2.74277587891,10.3551992188,1.93674145508,0.15612276387,0.222629336362,0.962168564023,-0.0171323788378
2021/03/16/13:00:21.467455,453862,1615896021,468171120,mocap,-2.74289404297,10.3552587891,1.93676037598,0.156042255734,0.222584956584,0.962193575298,-0.0170370554666
2021/03/16/13:00:21.479471,453863,1615896021,478171110,mocap,-2.74300195312,10.3553027344,1.93677087402,0.15600788591,0.222434905523,0.962234343057,-0.0170095060844
2021/03/16/13:00:21.487842,453864,1615896021,488171101,mocap,-2.74311132812,10.3553583984,1.93679663086,0.15599880716,0.222273924087,0.962272910168,-0.017015214012
2021/03/16/13:00:21.499623,453865,1615896021,498171091,mocap,-2.74321240234,10.3554521484,1.9367800293,0.15575270206,0.222314181495,0.962304600475,-0.0169519147879
2021/03/16/13:00:21.508114,453866,1615896021,508171082,mocap,-2.74336865234,10.3555712891,1.93679370117,0.155864701225,0.222269759671,0.962292715764,-0.0171780095717
2021/03/16/13:00:21.519136,453867,1615896021,518171072,mocap,-2.74347973633,10.3556376953,1.9367722168,0.155932616282,0.222434615479,0.962246383347,-0.0170222364803
2021/03/16/13:00:21.527699,453868,1615896021,528171062,mocap,-2.74362402344,10.3557402344,1.93683911133,0.155725003827,0.222228506164,0.962326248079,-0.0171001074342
2021/03/16/13:00:21.539639,453869,1615896021,538171053,mocap,-2.74372192383,10.3558378906,1.93681262207,0.1555698039,0.222354864168,0.962325760317,-0.0168959729094
2021/03/16/13:00:21.548177,453870,1615896021,548171043,mocap,-2.74386352539,10.3559433594,1.93683776855,0.155398120996,0.222253638727,0.962376091462,-0.0169409965618
2021/03/16/13:00:21.559438,453871,1615896021,558171034,mocap,-2.74398095703,10.3560117188,1.93681518555,0.15521717,0.222256985534,0.962407391292,-0.0167774547558
2021/03/16/13:00:21.567629,453872,1615896021,568171024,mocap,-2.74407983398,10.3561005859,1.93682543945,0.155196708314,0.22234223984,0.962395345274,-0.0165260583828
2021/03/16/13:00:21.579296,453873,1615896021,578171015,mocap,-2.74423095703,10.3562353516,1.9368737793,0.155326269146,0.222267479934,0.962389136407,-0.0166750631363
2021/03/16/13:00:21.587622,453874,1615896021,588171005,mocap,-2.74434399414,10.3563232422,1.93684960938,0.154970317614,0.222275213122,0.962448134511,-0.0164773534124
2021/03/16/13:00:21.599150,453875,1615896021,598170996,mocap,-2.74447680664,10.3564140625,1.93688916016,0.155059797441,0.222299010718,0.962429261085,-0.0164171104763
2021/03/16/13:00:21.607872,453876,1615896021,608170986,mocap,-2.74459936523,10.3565361328,1.93690710449,0.154986779716,0.222255814115,0.962451618081,-0.0163807342328
2021/03/16/13:00:21.619014,453877,1615896021,618170977,mocap,-2.7447355957,10.3566494141,1.93691320801,0.154846411207,0.222277515074,0.962469206045,-0.0163809303257
2021/03/16/13:00:21.627678,453878,1615896021,628171206,mocap,-2.74487866211,10.3567529297,1.93691320801,0.154985343315,0.222270206979,0.962447654552,-0.0164318419121
2021/03/16/13:00:21.639155,453879,1615896021,638171196,mocap,-2.74501171875,10.3568652344,1.93695349121,0.154965976186,0.222299557666,0.96244519282,-0.0163615174253
2021/03/16/13:00:21.648011,453880,1615896021,648171186,mocap,-2.74516137695,10.3569941406,1.93694372559,0.155043130443,0.222448501745,0.962395716876,-0.0165156839277
2021/03/16/13:00:21.659260,453881,1615896021,658171177,mocap,-2.74529760742,10.3570898437,1.93694091797,0.154736060745,0.22240678074,0.962456355715,-0.0164234973484
2021/03/16/13:00:21.667759,453882,1615896021,668171167,mocap,-2.74549047852,10.3571904297,1.93698999023,0.154896316815,0.222313605333,0.96244982985,-0.0165567884882
2021/03/16/13:00:21.679141,453883,1615896021,678171158,mocap,-2.74568994141,10.3573037109,1.93699462891,0.154920733333,0.22226763416,0.962453096659,-0.0167542742252
2021/03/16/13:00:21.688040,453884,1615896021,688171148,mocap,-2.74585961914,10.3574023437,1.93697753906,0.154673340826,0.222275643263,0.962491523408,-0.0167258463443
2021/03/16/13:00:21.698672,453885,1615896021,698171139,mocap,-2.74603881836,10.3574980469,1.93698693848,0.154544442986,0.222103013793,0.962549687007,-0.0168632902943
2021/03/16/13:00:21.707912,453886,1615896021,708171129,mocap,-2.74619213867,10.3575820313,1.93696630859,0.154313692231,0.222112089295,0.962585462764,-0.0168147605681
2021/03/16/13:00:21.718843,453887,1615896021,718171120,mocap,-2.746359375,10.3577011719,1.93699108887,0.154198197423,0.222028680306,0.962624526638,-0.0167390257448
2021/03/16/13:00:21.728766,453888,1615896021,728171110,mocap,-2.74651293945,10.3578105469,1.93701721191,0.154011576647,0.22188246562,0.962689237446,-0.0166740829266
2021/03/16/13:00:21.737753,453889,1615896021,738171101,mocap,-2.74665258789,10.3578857422,1.93696069336,0.153903413102,0.22190743866,0.962700459425,-0.0166931941225
2021/03/16/13:00:21.748647,453890,1615896021,748171091,mocap,-2.74682177734,10.3579892578,1.93697387695,0.153508868239,0.221801299615,0.962788682845,-0.016648143879
2021/03/16/13:00:21.757831,453891,1615896021,758171082,mocap,-2.74696337891,10.3581015625,1.93697521973,0.153358819551,0.221870276377,0.962798340497,-0.016553197141
2021/03/16/13:00:21.769756,453892,1615896021,768171072,mocap,-2.74709423828,10.35821875,1.93697167969,0.153081629143,0.221706639823,0.96288150992,-0.0164735382329
2021/03/16/13:00:21.777853,453893,1615896021,778171062,mocap,-2.74722949219,10.3582929687,1.93692077637,0.152792085048,0.221493586156,0.962976912217,-0.0164511274371
2021/03/16/13:00:21.789804,453894,1615896021,788171053,mocap,-2.74737719727,10.3584863281,1.93693835449,0.153057714379,0.221490538835,0.962931193025,-0.0166974045132
2021/03/16/13:00:21.797542,453895,1615896021,798171043,mocap,-2.74749707031,10.3585966797,1.93691870117,0.152909640186,0.221366761989,0.96298427784,-0.0166339248572
2021/03/16/13:00:21.809397,453896,1615896021,808171034,mocap,-2.74757641602,10.3587421875,1.93691674805,0.152819731262,0.221239106017,0.963026288672,-0.0167259720858
2021/03/16/13:00:21.817773,453897,1615896021,818171024,mocap,-2.74768188477,10.3588574219,1.93691760254,0.152908403016,0.221281358127,0.963002204233,-0.0167433156723
2021/03/16/13:00:21.829494,453898,1615896021,828171015,mocap,-2.74773510742,10.3589628906,1.93689501953,0.152798811835,0.221180314213,0.96304744813,-0.0164744006847
2021/03/16/13:00:21.837712,453899,1615896021,838171005,mocap,-2.74782617187,10.3591220703,1.93687939453,0.152923591821,0.221200015875,0.963021391371,-0.0165748332518
2021/03/16/13:00:21.849890,453900,1615896021,848170996,mocap,-2.74792602539,10.3592636719,1.93689074707,0.153021521799,0.22128553239,0.962985755601,-0.0166000569089
2021/03/16/13:00:21.857980,453901,1615896021,858170986,mocap,-2.74797094727,10.3593955078,1.93683459473,0.153003023202,0.22127665584,0.962993105683,-0.0164618633077
2021/03/16/13:00:21.869518,453902,1615896021,868170977,mocap,-2.74810791016,10.3595654297,1.93687988281,0.152976465728,0.221126555951,0.963030489654,-0.0165384345627
2021/03/16/13:00:21.877819,453903,1615896021,878171206,mocap,-2.74820776367,10.3597382812,1.93689953613,0.153223045038,0.22116019191,0.96298148479,-0.0166594307095
2021/03/16/13:00:21.889338,453904,1615896021,888171196,mocap,-2.74831103516,10.3598730469,1.93686962891,0.153172011236,0.221147469784,0.962990390028,-0.0167820277394
2021/03/16/13:00:21.898007,453905,1615896021,898171186,mocap,-2.74843823242,10.360015625,1.93687719727,0.15301640581,0.220995884821,0.963051695438,-0.0166800532013
2021/03/16/13:00:21.909634,453906,1615896021,908171177,mocap,-2.74850170898,10.3601962891,1.93689477539,0.153151012262,0.220932887616,0.963040260929,-0.0169372449171
2021/03/16/13:00:21.917931,453907,1615896021,918171167,mocap,-2.74863647461,10.3603583984,1.9369017334,0.153144458756,0.220798908,0.963070185325,-0.0170417637888
2021/03/16/13:00:21.928626,453908,1615896021,928171158,mocap,-2.74873193359,10.3605498047,1.93690454102,0.153155931677,0.220860833642,0.963050093996,-0.0172703337003
2021/03/16/13:00:21.937665,453909,1615896021,938171148,mocap,-2.74884716797,10.3607314453,1.93691479492,0.153022510371,0.220699808164,0.963106467795,-0.0173673851685
2021/03/16/13:00:21.949337,453910,1615896021,948171139,mocap,-2.74892944336,10.360921875,1.93694226074,0.152965212651,0.220764357063,0.963098267612,-0.01750603259
2021/03/16/13:00:21.958012,453911,1615896021,958171129,mocap,-2.74902514648,10.361125,1.93694567871,0.153066267241,0.220801938473,0.963067562722,-0.0178351881771
2021/03/16/13:00:21.968313,453912,1615896021,968171120,mocap,-2.7491105957,10.3612851563,1.93695214844,0.152822445751,0.220803503047,0.963105616836,-0.0178515152361
2021/03/16/13:00:21.977898,453913,1615896021,978171110,mocap,-2.74917797852,10.3614882813,1.93694580078,0.152999817254,0.220790335746,0.963078927282,-0.0179350678325
2021/03/16/13:00:21.988216,453914,1615896021,988171101,mocap,-2.74924804688,10.3616650391,1.93691711426,0.152974838983,0.220942480745,0.963047208299,-0.0179778039007
2021/03/16/13:00:21.997775,453915,1615896021,998171091,mocap,-2.7493215332,10.3618447266,1.93692651367,0.152778318627,0.221061268356,0.96305363728,-0.017843576071
2021/03/16/13:00:22.009073,453916,1615896022,8171082,mocap,-2.74934985352,10.3619619141,1.93688586426,0.15248371888,0.221059392517,0.963106096467,-0.0175528110103
2021/03/16/13:00:22.017938,453917,1615896022,18171072,mocap,-2.74942895508,10.3621933594,1.9368737793,0.152588920974,0.221230847568,0.963050821222,-0.0175118115602
2021/03/16/13:00:22.028243,453918,1615896022,28171062,mocap,-2.74946533203,10.362375,1.93688439941,0.152493255143,0.221218424785,0.963068831475,-0.0175114047766
2021/03/16/13:00:22.037746,453919,1615896022,38171053,mocap,-2.74951733398,10.3625361328,1.93687060547,0.152345101605,0.221262593833,0.963085286425,-0.0173370120348
2021/03/16/13:00:22.049168,453920,1615896022,48171043,mocap,-2.74955615234,10.3626816406,1.93681616211,0.152607329079,0.221448828013,0.963002614285,-0.0172448055293
2021/03/16/13:00:22.057987,453921,1615896022,58171034,mocap,-2.74962768555,10.3628544922,1.93683752441,0.152473539961,0.22145383689,0.963024872867,-0.0171206525565
2021/03/16/13:00:22.068051,453922,1615896022,68171024,mocap,-2.74967211914,10.3630087891,1.93686291504,0.152561446181,0.221417985384,0.963019387571,-0.0171097591422
2021/03/16/13:00:22.077865,453923,1615896022,78171015,mocap,-2.7497331543,10.3631474609,1.93687280273,0.152538136568,0.221342352723,0.963041800495,-0.0170340470075
2021/03/16/13:00:22.087990,453924,1615896022,88171005,mocap,-2.74977954102,10.3632607422,1.93688916016,0.152544218862,0.22127886965,0.963055223243,-0.0170461085347
2021/03/16/13:00:22.098080,453925,1615896022,98170996,mocap,-2.74982592773,10.3634160156,1.93693798828,0.152667374271,0.221189328901,0.963057714361,-0.0169646177657
2021/03/16/13:00:22.107693,453926,1615896022,108170986,mocap,-2.74986938477,10.3635126953,1.93691271973,0.152835253578,0.221101515156,0.96304928167,-0.0170755909282
2021/03/16/13:00:22.118889,453927,1615896022,118170977,mocap,-2.74993701172,10.3636591797,1.93692944336,0.152725645786,0.221096900992,0.963068537496,-0.0170298210339
2021/03/16/13:00:22.127792,453928,1615896022,128171206,mocap,-2.7499909668,10.3638251953,1.93694274902,0.153065208789,0.221050684481,0.963019023947,-0.0173778690235
2021/03/16/13:00:22.137830,453929,1615896022,138171196,mocap,-2.75002392578,10.3639257812,1.93692907715,0.152959373069,0.22102600184,0.963045800262,-0.0171384738076
2021/03/16/13:00:22.149079,453930,1615896022,148171186,mocap,-2.75007885742,10.3640634766,1.93694262695,0.153038408177,0.221046548728,0.963030907431,-0.0170038880523
2021/03/16/13:00:22.158585,453931,1615896022,158171177,mocap,-2.7501262207,10.3641582031,1.9369206543,0.152865643817,0.221062955157,0.963053366505,-0.0170726511925
2021/03/16/13:00:22.168773,453932,1615896022,168171167,mocap,-2.75018041992,10.3642744141,1.93694165039,0.15314537493,0.221097194192,0.963001616234,-0.0170414375928
2021/03/16/13:00:22.179611,453933,1615896022,178171158,mocap,-2.75026245117,10.3644169922,1.9369317627,0.153167814399,0.221083285682,0.962997562127,-0.0172479791405
2021/03/16/13:00:22.187435,453934,1615896022,188171148,mocap,-2.75031030273,10.3644863281,1.93692614746,0.153215396877,0.22122811144,0.96295792536,-0.0171813939864
2021/03/16/13:00:22.198736,453935,1615896022,198171139,mocap,-2.7503515625,10.3645722656,1.93693054199,0.153285781859,0.22109374773,0.962977368701,-0.0171936971161
2021/03/16/13:00:22.209681,453936,1615896022,208171129,mocap,-2.75039599609,10.3646542969,1.93691113281,0.1533094916,0.221173543829,0.962956060697,-0.0171490973793
2021/03/16/13:00:22.217717,453937,1615896022,218171120,mocap,-2.7504387207,10.3647412109,1.93689221191,0.153351581589,0.221154443683,0.962953925228,-0.0171391224874
2021/03/16/13:00:22.229604,453938,1615896022,228171110,mocap,-2.75047558594,10.3647744141,1.93684753418,0.153396124893,0.221185055174,0.962939595801,-0.0171503210182
2021/03/16/13:00:22.237646,453939,1615896022,238171101,mocap,-2.75052880859,10.3648349609,1.93681188965,0.153307015315,0.22114046856,0.962967240882,-0.0169687010534
2021/03/16/13:00:22.248670,453940,1615896022,248171091,mocap,-2.75059790039,10.3648730469,1.93678308105,0.153340432501,0.221259076327,0.962937112116,-0.0168300061173
2021/03/16/13:00:22.257861,453941,1615896022,258171082,mocap,-2.75067919922,10.364921875,1.93680090332,0.153357191522,0.221198219736,0.962951201725,-0.0166702654523
2021/03/16/13:00:22.268406,453942,1615896022,268171072,mocap,-2.75072802734,10.3649130859,1.93671691895,0.153236384382,0.221325726224,0.962943944171,-0.0165074301373
2021/03/16/13:00:22.277863,453943,1615896022,278171062,mocap,-2.75082299805,10.3649179687,1.93673034668,0.15316420236,0.221260585837,0.96297128738,-0.0164553918791
2021/03/16/13:00:22.288198,453944,1615896022,288171053,mocap,-2.75090332031,10.3649003906,1.93666870117,0.153173801553,0.221269840941,0.962969260264,-0.0163596229592
2021/03/16/13:00:22.299422,453945,1615896022,298171043,mocap,-2.75101367188,10.3648457031,1.93662927246,0.153303150438,0.221173105631,0.962970668414,-0.0163736892255
2021/03/16/13:00:22.309253,453946,1615896022,308171034,mocap,-2.75109155273,10.3647470703,1.9365625,0.153052702546,0.22111338462,0.9630273718,-0.0161869736321
2021/03/16/13:00:22.317999,453947,1615896022,318171024,mocap,-2.75123681641,10.3647011719,1.93653625488,0.152934543195,0.221207209426,0.963025507272,-0.0161329142611
2021/03/16/13:00:22.328202,453948,1615896022,328171015,mocap,-2.75138232422,10.3646416016,1.93640771484,0.152952301946,0.221422698743,0.962972440203,-0.0161760225375
2021/03/16/13:00:22.339135,453949,1615896022,338171005,mocap,-2.75151391602,10.3645439453,1.93636108398,0.152826350173,0.221485669704,0.962978095982,-0.0161674883779
2021/03/16/13:00:22.347858,453950,1615896022,348170996,mocap,-2.7516574707,10.3644384766,1.93620678711,0.152782076577,0.221800579836,0.962911594,-0.0162295140192
2021/03/16/13:00:22.359230,453951,1615896022,358170986,mocap,-2.75185888672,10.3643515625,1.93605688477,0.15289384957,0.222044260112,0.962836962398,-0.0162727940492
2021/03/16/13:00:22.367781,453952,1615896022,368170977,mocap,-2.75206494141,10.3641992188,1.9358996582,0.152819192861,0.222447710576,0.962755244025,-0.0162985622063
2021/03/16/13:00:22.377994,453953,1615896022,378171206,mocap,-2.75230126953,10.3640146484,1.9356907959,0.152699488489,0.222813402314,0.962691133583,-0.0162122561068
2021/03/16/13:00:22.388215,453954,1615896022,388171196,mocap,-2.75254614258,10.3638154297,1.93549609375,0.152594452489,0.22314020728,0.962633651892,-0.0161192670293
2021/03/16/13:00:22.399296,453955,1615896022,398171186,mocap,-2.75284594727,10.3635830078,1.93536291504,0.152380044369,0.223368152746,0.962614635044,-0.0161262321465
2021/03/16/13:00:22.407572,453956,1615896022,408171177,mocap,-2.75312158203,10.3632734375,1.93514770508,0.152324592048,0.223477071124,0.962597390301,-0.016170206055
2021/03/16/13:00:22.417995,453957,1615896022,418171167,mocap,-2.75339648438,10.3629648437,1.93497106934,0.152432430259,0.223685486378,0.962531481265,-0.0161957745992
2021/03/16/13:00:22.427862,453958,1615896022,428171158,mocap,-2.75372314453,10.3626816406,1.93489624023,0.152500562854,0.22363488762,0.962528942342,-0.0164030281847
2021/03/16/13:00:22.438134,453959,1615896022,438171148,mocap,-2.75401538086,10.3623427734,1.93477148437,0.152571025071,0.223973979396,0.962437970157,-0.0164590362201
2021/03/16/13:00:22.448053,453960,1615896022,448171139,mocap,-2.75432666016,10.3620078125,1.93463928223,0.153016393608,0.22424252467,0.962302022241,-0.0166158195644
2021/03/16/13:00:22.458193,453961,1615896022,458171129,mocap,-2.75469018555,10.3616708984,1.93462268066,0.15320116052,0.224371488793,0.962238307465,-0.0168603703178
2021/03/16/13:00:22.467943,453962,1615896022,468171120,mocap,-2.75503540039,10.3612871094,1.93453820801,0.153763022702,0.224530199517,0.962108681447,-0.0170299348453
2021/03/16/13:00:22.478005,453963,1615896022,478171110,mocap,-2.75540625,10.3608769531,1.93448095703,0.154049190289,0.224633775434,0.962037371947,-0.0171060921436
2021/03/16/13:00:22.489310,453964,1615896022,488171101,mocap,-2.75579077148,10.3604775391,1.93443029785,0.154459641726,0.224765056975,0.96193691943,-0.01732792804
2021/03/16/13:00:22.497885,453965,1615896022,498171091,mocap,-2.75623291016,10.3600126953,1.93438696289,0.154687890611,0.224873195864,0.961873149486,-0.0174282021897
2021/03/16/13:00:22.507514,453966,1615896022,508171082,mocap,-2.75668896484,10.359578125,1.93434008789,0.154996187291,0.225212665118,0.961738880297,-0.01771335107
2021/03/16/13:00:22.517627,453967,1615896022,518171072,mocap,-2.75714599609,10.3590664062,1.93422021484,0.155189618719,0.225465013981,0.96164513716,-0.0178979458747
2021/03/16/13:00:22.530042,453968,1615896022,528171062,mocap,-2.75765991211,10.3585634766,1.93414245605,0.155583692541,0.225753924885,0.961506930715,-0.0182567800069
2021/03/16/13:00:22.537740,453969,1615896022,538171053,mocap,-2.75819360352,10.35809375,1.93409326172,0.15579454272,0.226185387139,0.961367503154,-0.018459518762
2021/03/16/13:00:22.550107,453970,1615896022,548171043,mocap,-2.75879321289,10.3575927734,1.93403601074,0.155666779167,0.22645592177,0.961322831221,-0.0185463850118
2021/03/16/13:00:22.557869,453971,1615896022,558171034,mocap,-2.759421875,10.3570908203,1.93396594238,0.15580714456,0.226819042262,0.961208119317,-0.018873487867
2021/03/16/13:00:22.569839,453972,1615896022,568171024,mocap,-2.76008740234,10.3565517578,1.93392126465,0.155788864096,0.227352143687,0.961079393161,-0.019163427629
2021/03/16/13:00:22.577933,453973,1615896022,578171015,mocap,-2.76075683594,10.3559970703,1.93385449219,0.156169654464,0.227989888899,0.960859714244,-0.0195003086001
2021/03/16/13:00:22.589478,453974,1615896022,588171005,mocap,-2.76145263672,10.3554052734,1.93376330566,0.156444440771,0.228720326541,0.960636657825,-0.0197321205646
2021/03/16/13:00:22.597959,453975,1615896022,598170996,mocap,-2.76220898437,10.3547978516,1.93367504883,0.156520627694,0.229288727176,0.960486422479,-0.0198446188114
2021/03/16/13:00:22.609358,453976,1615896022,608170986,mocap,-2.76297729492,10.3541503906,1.93355297852,0.156883119499,0.230177836731,0.960211192484,-0.0200077531605
2021/03/16/13:00:22.617794,453977,1615896022,618170977,mocap,-2.76375146484,10.3535625,1.93355090332,0.157040111565,0.230861482981,0.960012890486,-0.0204114325696
2021/03/16/13:00:22.629347,453978,1615896022,628171206,mocap,-2.76451293945,10.3528632813,1.93343847656,0.157243304369,0.231648907014,0.95978732397,-0.0205332199389
2021/03/16/13:00:22.638013,453979,1615896022,638171196,mocap,-2.76530664062,10.352125,1.93335876465,0.157642947667,0.232555500347,0.959502226007,-0.0205457786052
2021/03/16/13:00:22.649502,453980,1615896022,648171186,mocap,-2.76618701172,10.3514033203,1.93329309082,0.157895806826,0.23324753623,0.959292492441,-0.020552521988
2021/03/16/13:00:22.657930,453981,1615896022,658171177,mocap,-2.76700366211,10.3505517578,1.93313037109,0.158322021124,0.233909099904,0.959055414307,-0.0208180189091
2021/03/16/13:00:22.669493,453982,1615896022,668171167,mocap,-2.76781176758,10.3497265625,1.93307275391,0.15888156371,0.234735514769,0.958757564037,-0.0209719551409
2021/03/16/13:00:22.677593,453983,1615896022,678171158,mocap,-2.76876611328,10.3487636719,1.93291711426,0.159515848315,0.235242878286,0.95853191198,-0.0207856048523
2021/03/16/13:00:22.687990,453984,1615896022,688171148,mocap,-2.7696640625,10.3478183594,1.93278466797,0.159530428436,0.23547503934,0.958467239202,-0.0210261094107
2021/03/16/13:00:22.698522,453985,1615896022,698171139,mocap,-2.77060375977,10.3468115234,1.93268310547,0.159853473364,0.236183908196,0.95824013478,-0.0209733048439
2021/03/16/13:00:22.709339,453986,1615896022,708171129,mocap,-2.77159155273,10.3457666016,1.93256542969,0.160258322187,0.23675830421,0.958036004292,-0.0207314549058
2021/03/16/13:00:22.717557,453987,1615896022,718171120,mocap,-2.77261499023,10.3447119141,1.93249829102,0.160666347338,0.237027778321,0.957892151363,-0.0211372375855
2021/03/16/13:00:22.729481,453988,1615896022,728171110,mocap,-2.77353808594,10.3436337891,1.93239135742,0.161072098301,0.237266407205,0.957763197347,-0.0212152232726
2021/03/16/13:00:22.738051,453989,1615896022,738171101,mocap,-2.77462060547,10.3424941406,1.93220605469,0.16122959613,0.23776895953,0.957620167052,-0.0208456782344
2021/03/16/13:00:22.748081,453990,1615896022,748171091,mocap,-2.77562036133,10.3413740234,1.93207800293,0.161859376294,0.238235970517,0.957386402483,-0.0213645592462
2021/03/16/13:00:22.759436,453991,1615896022,758171082,mocap,-2.7766262207,10.3401904297,1.93189599609,0.162065599839,0.238617882513,0.957255823684,-0.0213901180267
2021/03/16/13:00:22.769356,453992,1615896022,768171072,mocap,-2.77770458984,10.3390234375,1.93172583008,0.162639050053,0.239212895404,0.957008937653,-0.0214386128599
2021/03/16/13:00:22.777991,453993,1615896022,778171062,mocap,-2.77876123047,10.3379111328,1.93175671387,0.162335421314,0.240631423368,0.956710629377,-0.0211780381021
2021/03/16/13:00:22.788536,453994,1615896022,788171053,mocap,-2.77977490234,10.3366650391,1.9315793457,0.162541055689,0.240974246032,0.956587233013,-0.0212762255036
2021/03/16/13:00:22.798112,453995,1615896022,798171043,mocap,-2.78084692383,10.335265625,1.9311015625,0.163821600716,0.240622420819,0.956440996593,-0.0219987717224
2021/03/16/13:00:22.807745,453996,1615896022,808171034,mocap,-2.781875,10.3339326172,1.93076477051,0.16373101489,0.24106385531,0.956342324618,-0.022129862726
2021/03/16/13:00:22.819234,453997,1615896022,818171024,mocap,-2.7829230957,10.3325947266,1.93054333496,0.164411049777,0.241609717864,0.956084744816,-0.0222645891452
2021/03/16/13:00:22.828000,453998,1615896022,828171015,mocap,-2.78403442383,10.3312236328,1.93030395508,0.164329983706,0.242017128354,0.955994686936,-0.0223054856966
2021/03/16/13:00:22.838897,453999,1615896022,838171005,mocap,-2.78506689453,10.3298007813,1.93002282715,0.164554055834,0.24231133008,0.955876693288,-0.0225153331022
2021/03/16/13:00:22.847651,454000,1615896022,848170996,mocap,-2.78621020508,10.3283691406,1.9297401123,0.164727226222,0.242944705055,0.955683019323,-0.0226445591535
2021/03/16/13:00:22.859143,454001,1615896022,858170986,mocap,-2.78733349609,10.3268544922,1.92964099121,0.163162146273,0.24388405556,0.95573846343,-0.0215096609634
2021/03/16/13:00:22.868000,454002,1615896022,868170977,mocap,-2.78831152344,10.3252939453,1.92941027832,0.163782743818,0.244009790953,0.955592237464,-0.0218614234694
2021/03/16/13:00:22.877692,454003,1615896022,878171206,mocap,-2.78941845703,10.3236679687,1.92916308594,0.163692097161,0.244339336689,0.955526016777,-0.0217535630068
2021/03/16/13:00:22.889023,454004,1615896022,888171196,mocap,-2.7903215332,10.3218876953,1.92874157715,0.164359764417,0.244100967908,0.955454332956,-0.0225300067275
2021/03/16/13:00:22.898089,454005,1615896022,898171186,mocap,-2.79143603516,10.3203076172,1.92889001465,0.16185577819,0.245567702733,0.955539513913,-0.0210579379037
2021/03/16/13:00:22.907760,454006,1615896022,908171177,mocap,-2.79249047852,10.3184941406,1.92867871094,0.161575205924,0.245956284291,0.955492963196,-0.0207883246592
2021/03/16/13:00:22.917711,454007,1615896022,918171167,mocap,-2.7933034668,10.3164785156,1.92819189453,0.162206154797,0.245217952961,0.955558671564,-0.0215627371854
2021/03/16/13:00:22.929726,454008,1615896022,928171158,mocap,-2.79420336914,10.3145712891,1.92798364258,0.162292646321,0.24576188848,0.955407505147,-0.0214168196852
2021/03/16/13:00:22.937694,454009,1615896022,938171148,mocap,-2.7951550293,10.3125878906,1.92782495117,0.1619271766,0.245808734183,0.955461483645,-0.0212368042018
2021/03/16/13:00:22.949845,454010,1615896022,948171139,mocap,-2.79593139648,10.3105097656,1.92757714844,0.161369872583,0.246266115244,0.955444889597,-0.0209243485504
2021/03/16/13:00:22.957949,454011,1615896022,958171129,mocap,-2.79671826172,10.3084042969,1.92736315918,0.160870837573,0.246393572436,0.955493337482,-0.0210538520305
2021/03/16/13:00:22.968846,454012,1615896022,968171120,mocap,-2.79744580078,10.3061220703,1.92698596191,0.16115118553,0.24608102463,0.955516270027,-0.0215194006864
2021/03/16/13:00:22.977521,454013,1615896022,978171110,mocap,-2.7982019043,10.3039033203,1.92690319824,0.15994185558,0.246753813792,0.955565657735,-0.0206259400269
2021/03/16/13:00:22.988723,454014,1615896022,988171101,mocap,-2.79881591797,10.3015947266,1.92680102539,0.159506838249,0.247427531952,0.955462645529,-0.0206957119295
2021/03/16/13:00:22.999485,454015,1615896022,998171091,mocap,-2.79959301758,10.2992285156,1.92686096191,0.157122099822,0.248173956656,0.955692054936,-0.0193658479537
2021/03/16/13:00:23.007478,454016,1615896023,8171082,mocap,-2.80015551758,10.2965859375,1.92649304199,0.157580403404,0.247342985927,0.955813095849,-0.0202777083056
2021/03/16/13:00:23.018893,454017,1615896023,18171072,mocap,-2.80061010742,10.2939970703,1.92641369629,0.157090185778,0.247307868756,0.955900676663,-0.0203814905377
2021/03/16/13:00:23.029612,454018,1615896023,28171062,mocap,-2.80096972656,10.2912363281,1.92609289551,0.157288772465,0.246874486258,0.955965788062,-0.0210388291356
2021/03/16/13:00:23.037752,454019,1615896023,38171053,mocap,-2.8015,10.288625,1.9262713623,0.155231150286,0.248105110675,0.956004304114,-0.0200725482358
2021/03/16/13:00:23.048450,454020,1615896023,48171043,mocap,-2.8017746582,10.2857265625,1.92594030762,0.155405191395,0.24745988486,0.956122258636,-0.0210488486195
2021/03/16/13:00:23.057868,454021,1615896023,58171034,mocap,-2.80195898438,10.2827333984,1.92555664062,0.156227317842,0.247272475861,0.956009837454,-0.0222380133759
2021/03/16/13:00:23.069505,454022,1615896023,68171024,mocap,-2.80225561523,10.2799414062,1.92567907715,0.154141864306,0.248589341023,0.956022828987,-0.0215401155984
2021/03/16/13:00:23.079796,454023,1615896023,78171015,mocap,-2.80233007812,10.2768535156,1.92523535156,0.154867114271,0.24845136032,0.955919460751,-0.0224961488407
2021/03/16/13:00:23.088009,454024,1615896023,88171005,mocap,-2.8024309082,10.2738359375,1.92513586426,0.153708087565,0.249513889945,0.955829044324,-0.0225273868689
2021/03/16/13:00:23.098360,454025,1615896023,98170996,mocap,-2.80229638672,10.2704873047,1.92448083496,0.155262489361,0.248812602071,0.955715364708,-0.0243719252828
2021/03/16/13:00:23.107905,454026,1615896023,108170986,mocap,-2.8022824707,10.2672578125,1.92414501953,0.155307627232,0.249350750496,0.955552207752,-0.0249745674019
2021/03/16/13:00:23.119337,454027,1615896023,118170977,mocap,-2.80231176758,10.2639814453,1.92406298828,0.153558344977,0.250619665588,0.955516207648,-0.0244621560653
2021/03/16/13:00:23.127751,454028,1615896023,128171206,mocap,-2.80217138672,10.2604492188,1.92350878906,0.154425239918,0.249833058001,0.955542219555,-0.0259875723987
2021/03/16/13:00:23.139437,454029,1615896023,138171196,mocap,-2.80205175781,10.2569238281,1.923203125,0.153745773075,0.251215301993,0.955289212793,-0.025992724696
2021/03/16/13:00:23.147756,454030,1615896023,148171186,mocap,-2.80186669922,10.2533105469,1.92280505371,0.153617725361,0.251368205059,0.955243663835,-0.0269286296554
2021/03/16/13:00:23.159141,454031,1615896023,158171177,mocap,-2.80149853516,10.2493974609,1.92195703125,0.155680090871,0.250792893654,0.955008287743,-0.0287367506632
2021/03/16/13:00:23.167985,454032,1615896023,168171167,mocap,-2.8013059082,10.2456533203,1.92166430664,0.155121007533,0.251540168586,0.954885365824,-0.0293079236448
2021/03/16/13:00:23.179101,454033,1615896023,178171158,mocap,-2.80109814453,10.2417255859,1.92125390625,0.154554133548,0.251991266135,0.954855863769,-0.0293888725768
2021/03/16/13:00:23.187774,454034,1615896023,188171148,mocap,-2.80077392578,10.2376992188,1.920734375,0.15441869955,0.252302765656,0.954764191689,-0.0303893159813
2021/03/16/13:00:23.199167,454035,1615896023,198171139,mocap,-2.80043505859,10.2335283203,1.92018066406,0.15490452252,0.252326139702,0.954654989922,-0.031144092848
2021/03/16/13:00:23.207705,454036,1615896023,208171129,mocap,-2.80010986328,10.2293037109,1.9196583252,0.15474442198,0.252610093697,0.954579587915,-0.0319389920988
2021/03/16/13:00:23.219089,454037,1615896023,218171120,mocap,-2.79972900391,10.2249443359,1.91904040527,0.15458957552,0.252877938076,0.954507591041,-0.0327118964378
2021/03/16/13:00:23.229135,454038,1615896023,228171110,mocap,-2.79931591797,10.2205205078,1.91841210937,0.15504436924,0.25302402852,0.954362011817,-0.0336635457434
2021/03/16/13:00:23.238161,454039,1615896023,238171101,mocap,-2.79888476562,10.2160273437,1.91777746582,0.154933327107,0.253436964619,0.954248360436,-0.0342845525938
2021/03/16/13:00:23.248889,454040,1615896023,248171091,mocap,-2.79844970703,10.2114423828,1.91715441895,0.155118139524,0.253560033171,0.954162228704,-0.0349300843885
2021/03/16/13:00:23.259269,454041,1615896023,258171082,mocap,-2.79797753906,10.2067734375,1.91648828125,0.155033738259,0.253996373483,0.95404116577,-0.0354378220103
2021/03/16/13:00:23.267898,454042,1615896023,268171072,mocap,-2.79748242187,10.2019951172,1.91577111816,0.155030416183,0.254290164524,0.953938098285,-0.0361135460733
2021/03/16/13:00:23.278948,454043,1615896023,278171062,mocap,-2.79700048828,10.1971367188,1.91511999512,0.155105508898,0.25491015808,0.953747467898,-0.0364536606128
2021/03/16/13:00:23.288869,454044,1615896023,288171053,mocap,-2.79647460938,10.1921796875,1.91437646484,0.155099305841,0.25531744818,0.953621516116,-0.0369217800185
2021/03/16/13:00:23.298796,454045,1615896023,298171043,mocap,-2.79591796875,10.1871152344,1.91361987305,0.155404507823,0.256021077957,0.953374048433,-0.0371559525988
2021/03/16/13:00:23.308082,454046,1615896023,308171034,mocap,-2.7953840332,10.1819658203,1.91279589844,0.155479519738,0.256680710796,0.953174245844,-0.0374163721648
2021/03/16/13:00:23.318664,454047,1615896023,318171024,mocap,-2.79479858398,10.1767490234,1.91202099609,0.155432103722,0.257144248448,0.953056473692,-0.0374306072737
2021/03/16/13:00:23.328645,454048,1615896023,328171015,mocap,-2.79420214844,10.1714013672,1.91119433594,0.155414461886,0.257860063673,0.952865369799,-0.0374448934347
2021/03/16/13:00:23.337827,454049,1615896023,338171005,mocap,-2.79356640625,10.1659619141,1.91034716797,0.156020324657,0.258385472083,0.952621936928,-0.0374972930527
2021/03/16/13:00:23.349589,454050,1615896023,348170996,mocap,-2.79284326172,10.1604042969,1.90946838379,0.156191810711,0.259063523737,0.95241147834,-0.037451128231
2021/03/16/13:00:23.357879,454051,1615896023,358170986,mocap,-2.79211938477,10.1547919922,1.90857727051,0.156292243562,0.259780258001,0.95220275724,-0.0373745256734
2021/03/16/13:00:23.367989,454052,1615896023,368170977,mocap,-2.79134936523,10.1490214844,1.90769726562,0.156358317409,0.260608807567,0.951970965156,-0.0372344363039
2021/03/16/13:00:23.378726,454053,1615896023,378171206,mocap,-2.79056494141,10.1432158203,1.90685852051,0.156595341027,0.261028310497,0.951817389427,-0.0372259502825
2021/03/16/13:00:23.387826,454054,1615896023,388171196,mocap,-2.78974951172,10.1373222656,1.90606152344,0.156625907513,0.26158678811,0.951674068343,-0.0368394767934
2021/03/16/13:00:23.399445,454055,1615896023,398171186,mocap,-2.78880566406,10.1312841797,1.90514733887,0.156992429493,0.262535069639,0.951365997433,-0.0364891296066
2021/03/16/13:00:23.408036,454056,1615896023,408171177,mocap,-2.78788867187,10.1251386719,1.90437182617,0.15730246824,0.262923720532,0.951216945325,-0.0362403913557
2021/03/16/13:00:23.418437,454057,1615896023,418171167,mocap,-2.78692675781,10.1189580078,1.90365649414,0.158070075288,0.263216891937,0.95101565541,-0.0360546486961
2021/03/16/13:00:23.427835,454058,1615896023,428171158,mocap,-2.78594995117,10.1126113281,1.90297045898,0.158534498043,0.263735247647,0.950806079374,-0.0357537969878
2021/03/16/13:00:23.438372,454059,1615896023,438171148,mocap,-2.78491723633,10.1062089844,1.90234008789,0.159446357284,0.264007620847,0.950587255517,-0.0355063276868
2021/03/16/13:00:23.447836,454060,1615896023,448171139,mocap,-2.78390576172,10.0997519531,1.90184216309,0.159715797418,0.264471594659,0.950433934389,-0.0349424467112
2021/03/16/13:00:23.459471,454061,1615896023,458171129,mocap,-2.7828425293,10.0931982422,1.90138354492,0.160121169381,0.264573257911,0.950344673799,-0.0347449980483
2021/03/16/13:00:23.467973,454062,1615896023,468171120,mocap,-2.78175488281,10.0865390625,1.90101806641,0.1608900682,0.264667779247,0.950196559235,-0.0345231977394
2021/03/16/13:00:23.479613,454063,1615896023,478171110,mocap,-2.780640625,10.0797705078,1.90068701172,0.161528411763,0.264896146695,0.950037379533,-0.0341697934841
2021/03/16/13:00:23.487972,454064,1615896023,488171101,mocap,-2.77951245117,10.0730253906,1.90058984375,0.161866843848,0.265211252368,0.949915351673,-0.0335100859274
2021/03/16/13:00:23.499561,454065,1615896023,498171091,mocap,-2.77844433594,10.0662060547,1.90077758789,0.162187499706,0.265817576806,0.94970761179,-0.033040858079
2021/03/16/13:00:23.507910,454066,1615896023,508171082,mocap,-2.77737402344,10.0593046875,1.90130273437,0.16212600259,0.266814069032,0.949469097703,-0.0321535763287
2021/03/16/13:00:23.519331,454067,1615896023,518171072,mocap,-2.77628735352,10.0523574219,1.90204968262,0.162099168411,0.267342637441,0.949349806416,-0.0314120021665
2021/03/16/13:00:23.528156,454068,1615896023,528171062,mocap,-2.77518408203,10.04525,1.90288598633,0.16297238903,0.267495625682,0.949177069985,-0.0308054127834
2021/03/16/13:00:23.539155,454069,1615896023,538171053,mocap,-2.77405566406,10.0380292969,1.90374621582,0.162609695793,0.267462668888,0.949276533841,-0.0299309815246
2021/03/16/13:00:23.548037,454070,1615896023,548171043,mocap,-2.77289892578,10.0307314453,1.9046036377,0.163455918793,0.26764480902,0.949095800467,-0.0294207202137
2021/03/16/13:00:23.558117,454071,1615896023,558171034,mocap,-2.77176391602,10.0235498047,1.90563354492,0.163478948038,0.268035032341,0.949000156806,-0.0288194141086
2021/03/16/13:00:23.567791,454072,1615896023,568171024,mocap,-2.77067773437,10.0163193359,1.90675170898,0.163347739708,0.268807058285,0.948828809415,-0.02800327647
2021/03/16/13:00:23.579245,454073,1615896023,578171015,mocap,-2.76966967773,10.0091484375,1.90808032227,0.163221121366,0.269225175352,0.948760923014,-0.0270070012384
2021/03/16/13:00:23.587708,454074,1615896023,588171005,mocap,-2.76858496094,10.0019199219,1.90938037109,0.163789865846,0.269467993721,0.948605296015,-0.026605686466
2021/03/16/13:00:23.599169,454075,1615896023,598170996,mocap,-2.76757592773,9.99465332031,1.91073181152,0.163510846466,0.269747073257,0.948593797327,-0.0258944762322
2021/03/16/13:00:23.607404,454076,1615896023,608170986,mocap,-2.7665690918,9.98731933594,1.91194140625,0.164019230709,0.269888774376,0.948483618066,-0.0252302686946
2021/03/16/13:00:23.619133,454077,1615896023,618170977,mocap,-2.76558544922,9.98003125,1.91318676758,0.163664182692,0.26986201519,0.948567508478,-0.0246618266543
2021/03/16/13:00:23.628216,454078,1615896023,628171206,mocap,-2.76468188477,9.97281640625,1.91426708984,0.164121140842,0.26970272251,0.948538344048,-0.0244890222804
2021/03/16/13:00:23.638880,454079,1615896023,638171196,mocap,-2.76371679687,9.96561132813,1.91513134766,0.164323421358,0.26954620813,0.948558907696,-0.0240550669345
2021/03/16/13:00:23.647900,454080,1615896023,648171186,mocap,-2.7627800293,9.95842773438,1.9158293457,0.164736254202,0.269170678673,0.94859594156,-0.0239759929847
2021/03/16/13:00:23.658745,454081,1615896023,658171177,mocap,-2.76194970703,9.951328125,1.91635266113,0.164864803319,0.269340419299,0.948537432891,-0.0234960152915
2021/03/16/13:00:23.667958,454082,1615896023,668171167,mocap,-2.76114111328,9.94429785156,1.91679406738,0.164704356008,0.269342339664,0.948571388623,-0.0232271374593
2021/03/16/13:00:23.678811,454083,1615896023,678171158,mocap,-2.7604387207,9.93731152344,1.91715161133,0.165118114694,0.269677951595,0.948411079868,-0.022939659384
2021/03/16/13:00:23.687809,454084,1615896023,688171148,mocap,-2.75972192383,9.93034570313,1.91745141602,0.165255000142,0.270075593818,0.948281881521,-0.0226145941152
2021/03/16/13:00:23.697750,454085,1615896023,698171139,mocap,-2.75908422852,9.923421875,1.91775378418,0.165165765027,0.270451681269,0.948198767315,-0.0222546202824
2021/03/16/13:00:23.709755,454086,1615896023,708171129,mocap,-2.75847729492,9.91645117187,1.91797229004,0.16551501253,0.270744223557,0.948063858188,-0.0218464119114
2021/03/16/13:00:23.717685,454087,1615896023,718171120,mocap,-2.75790966797,9.909578125,1.91825305176,0.165516011314,0.270816727759,0.948056156599,-0.0212670434015
2021/03/16/13:00:23.729731,454088,1615896023,728171110,mocap,-2.75737353516,9.90263378906,1.91846020508,0.165585398476,0.27122798658,0.947938393075,-0.0207282797051
2021/03/16/13:00:23.737772,454089,1615896023,738171101,mocap,-2.75684912109,9.89567871094,1.91861547852,0.166131655283,0.271483900294,0.947782623155,-0.0201210055167
2021/03/16/13:00:23.749477,454090,1615896023,748171091,mocap,-2.7563840332,9.8887578125,1.91885668945,0.16616794248,0.271597978515,0.947758049148,-0.019427505936
2021/03/16/13:00:23.757871,454091,1615896023,758171082,mocap,-2.75597631836,9.88186132812,1.91915283203,0.166413971036,0.271840455598,0.947658598882,-0.018770934191
2021/03/16/13:00:23.767971,454092,1615896023,768171072,mocap,-2.75558959961,9.87487597656,1.91946203613,0.166743190011,0.271513061707,0.947707830033,-0.0180900815347
2021/03/16/13:00:23.779470,454093,1615896023,778171062,mocap,-2.75523632813,9.86786035156,1.91983581543,0.166774460041,0.271120029861,0.947828562104,-0.0173561608265
2021/03/16/13:00:23.787835,454094,1615896023,788171053,mocap,-2.75488500977,9.86084082031,1.92030993652,0.166833906037,0.270398684681,0.948033570148,-0.016833426859
2021/03/16/13:00:23.798636,454095,1615896023,798171043,mocap,-2.75452661133,9.85367871094,1.92083300781,0.167126457249,0.269418793765,0.948272563161,-0.016168203132
2021/03/16/13:00:23.807863,454096,1615896023,808171034,mocap,-2.75415722656,9.84648632812,1.92134521484,0.168096909179,0.267880860729,0.94853596404,-0.0162109100271
2021/03/16/13:00:23.818481,454097,1615896023,818171024,mocap,-2.75382885742,9.83926855469,1.92199475098,0.168581186846,0.266285202029,0.948903781141,-0.0159434418581
2021/03/16/13:00:23.827977,454098,1615896023,828171015,mocap,-2.75360961914,9.83200683594,1.92282910156,0.168104009666,0.264704248438,0.949446811672,-0.0149480467784
2021/03/16/13:00:23.837902,454099,1615896023,838171005,mocap,-2.75328588867,9.8247421875,1.92354785156,0.168338932598,0.262774296513,0.949945799323,-0.0146508830994
2021/03/16/13:00:23.848034,454100,1615896023,848170996,mocap,-2.75299023437,9.81741796875,1.92418054199,0.169087020818,0.260786091309,0.950360925714,-0.0146393415708
2021/03/16/13:00:23.858133,454101,1615896023,858170986,mocap,-2.75264257813,9.81013183594,1.92469787598,0.170172416294,0.258515740476,0.950777563497,-0.0152636616751
2021/03/16/13:00:23.869542,454102,1615896023,868170977,mocap,-2.75239355469,9.80277734375,1.9251986084,0.170842773537,0.25661142679,0.951172454646,-0.0153061334833
2021/03/16/13:00:23.877793,454103,1615896023,878171206,mocap,-2.75215527344,9.79549414062,1.92567175293,0.17151758265,0.254871354448,0.951519708658,-0.0152498431612
2021/03/16/13:00:23.887770,454104,1615896023,888171196,mocap,-2.75192919922,9.7882109375,1.9260526123,0.171778037043,0.253127323816,0.951938484715,-0.0152308856045
2021/03/16/13:00:23.898481,454105,1615896023,898171186,mocap,-2.75175854492,9.78090429688,1.92637841797,0.17188482047,0.251830200718,0.952265038809,-0.0151147095537
2021/03/16/13:00:23.908254,454106,1615896023,908171177,mocap,-2.75168505859,9.77362207031,1.92662854004,0.171578475485,0.25041859553,0.952695898489,-0.0148954352257
2021/03/16/13:00:23.919489,454107,1615896023,918171167,mocap,-2.75158837891,9.76633789062,1.9267701416,0.171978278579,0.249144396753,0.952957208904,-0.0149360904445
2021/03/16/13:00:23.927735,454108,1615896023,928171158,mocap,-2.75153637695,9.75905078125,1.92687060547,0.172107383288,0.248666491574,0.953062102322,-0.0147195303013
2021/03/16/13:00:23.938427,454109,1615896023,938171148,mocap,-2.75162451172,9.75177539062,1.92690795898,0.171528342411,0.247722807412,0.95341513861,-0.0145260238748
2021/03/16/13:00:23.949016,454110,1615896023,948171139,mocap,-2.75164306641,9.74442089844,1.92689526367,0.171426539116,0.247349583919,0.953536366976,-0.0141254485261
2021/03/16/13:00:23.957787,454111,1615896023,958171129,mocap,-2.75173071289,9.73709765625,1.92672839355,0.17146698796,0.247094873084,0.95359695194,-0.0140015948291
2021/03/16/13:00:23.968940,454112,1615896023,968171120,mocap,-2.75192700195,9.72972753906,1.92664794922,0.170885389641,0.246671544181,0.953814233877,-0.0137743375089
2021/03/16/13:00:23.977702,454113,1615896023,978171110,mocap,-2.75209643555,9.72237207031,1.92649584961,0.170300198002,0.24646021817,0.953982124154,-0.0131643907121
2021/03/16/13:00:23.988867,454114,1615896023,988171101,mocap,-2.75231542969,9.71481738281,1.92608410645,0.170372556321,0.245853592082,0.954127230343,-0.0130547678725
2021/03/16/13:00:23.997873,454115,1615896023,998171091,mocap,-2.75260424805,9.70727539062,1.92578833008,0.169763695299,0.245545840253,0.954313412811,-0.0131694909884
2021/03/16/13:00:24.009286,454116,1615896024,8171082,mocap,-2.75296166992,9.69971582031,1.92551403809,0.16887756468,0.245626211281,0.954455814562,-0.0127369531987
2021/03/16/13:00:24.018398,454117,1615896024,18171072,mocap,-2.7532265625,9.69211132812,1.92514111328,0.168397318429,0.245555183511,0.954560402809,-0.0126270334828
2021/03/16/13:00:24.027971,454118,1615896024,28171062,mocap,-2.75362329102,9.68434667969,1.92467480469,0.16767217305,0.245446829942,0.954719741452,-0.0123330429245
2021/03/16/13:00:24.038801,454119,1615896024,38171053,mocap,-2.75401489258,9.67649609375,1.92422949219,0.166932819743,0.24520864751,0.954910185545,-0.0123560804951
2021/03/16/13:00:24.048190,454120,1615896024,48171043,mocap,-2.75440014648,9.66865136719,1.92363830566,0.166197268962,0.245449344349,0.954979694498,-0.0121193857379
2021/03/16/13:00:24.058292,454121,1615896024,58171034,mocap,-2.75485791016,9.66076269531,1.92323791504,0.165103657065,0.245818658833,0.955080504307,-0.0116272648372
2021/03/16/13:00:24.067765,454122,1615896024,68171024,mocap,-2.75531982422,9.65270410156,1.92261877441,0.164534048562,0.245333918426,0.955303087634,-0.0116541097295
2021/03/16/13:00:24.079792,454123,1615896024,78171015,mocap,-2.75579223633,9.6445,1.92165039062,0.164488955921,0.244618076494,0.955492635695,-0.0117987637004
2021/03/16/13:00:24.088698,454124,1615896024,88171005,mocap,-2.75629003906,9.63635253906,1.92093762207,0.163436864866,0.244368905249,0.955738003488,-0.0117088405908
2021/03/16/13:00:24.098912,454125,1615896024,98170996,mocap,-2.75681640625,9.62816210937,1.92010119629,0.162328817512,0.244526457498,0.955890980499,-0.011340346249
2021/03/16/13:00:24.107969,454126,1615896024,108170986,mocap,-2.75738378906,9.619953125,1.91919677734,0.16210234501,0.244464050664,0.955944152303,-0.0114428693709
2021/03/16/13:00:24.119618,454127,1615896024,118170977,mocap,-2.75790649414,9.61170507813,1.91809130859,0.161182020028,0.244957959815,0.955976184899,-0.0112024072174
2021/03/16/13:00:24.127659,454128,1615896024,128171206,mocap,-2.75848657227,9.60338867188,1.91707019043,0.160663340896,0.24535867984,0.955960425931,-0.0112281254072
2021/03/16/13:00:24.139935,454129,1615896024,138171196,mocap,-2.75902905273,9.59511914063,1.91593359375,0.160191667244,0.246017594447,0.955871774946,-0.0110967082832
2021/03/16/13:00:24.147707,454130,1615896024,148171186,mocap,-2.75958764648,9.58677539063,1.91466833496,0.159739614838,0.24680158451,0.955744863619,-0.0111344701923
2021/03/16/13:00:24.159699,454131,1615896024,158171177,mocap,-2.76015576172,9.57831933594,1.91339538574,0.159407559951,0.247926162788,0.955506928649,-0.0113300910021
2021/03/16/13:00:24.167862,454132,1615896024,168171167,mocap,-2.76075854492,9.56988378906,1.91215283203,0.159111531123,0.249030426585,0.95526813887,-0.0114080154775
2021/03/16/13:00:24.177715,454133,1615896024,178171158,mocap,-2.76137988281,9.56136621094,1.91094836426,0.159055161108,0.250187855737,0.954970145021,-0.0118117434696
2021/03/16/13:00:24.188444,454134,1615896024,188171148,mocap,-2.76202319336,9.55272851563,1.90978149414,0.158779250941,0.251139218995,0.954762950919,-0.0120812266643
2021/03/16/13:00:24.198112,454135,1615896024,198171139,mocap,-2.76269506836,9.54401855469,1.90873339844,0.15808900504,0.252930334481,0.954403324881,-0.0121820705845
2021/03/16/13:00:24.209527,454136,1615896024,208171129,mocap,-2.7633840332,9.53518457031,1.90756420898,0.158551371084,0.253176688859,0.954251725592,-0.0129103405651
2021/03/16/13:00:24.217811,454137,1615896024,218171120,mocap,-2.76419116211,9.52636523437,1.9067265625,0.158016311768,0.254714399066,0.953926718552,-0.0132378431146
2021/03/16/13:00:24.227852,454138,1615896024,228171110,mocap,-2.76491625977,9.517375,1.9057911377,0.157772154346,0.255393515783,0.953777558865,-0.0138008848561
2021/03/16/13:00:24.240009,454139,1615896024,238171101,mocap,-2.76572216797,9.50828222656,1.90480163574,0.157763154793,0.256078244588,0.953583036647,-0.0146324532616
2021/03/16/13:00:24.247717,454140,1615896024,248171091,mocap,-2.76646923828,9.49921386719,1.90394433594,0.158088821522,0.256780245014,0.953330502478,-0.015257114677
2021/03/16/13:00:24.258659,454141,1615896024,258171082,mocap,-2.76733105469,9.49000292969,1.90308630371,0.15845102124,0.257373399393,0.953092910664,-0.016313172834
2021/03/16/13:00:24.269370,454142,1615896024,268171072,mocap,-2.76813012695,9.48073046875,1.90228112793,0.158643278404,0.257832230591,0.952920696375,-0.0172334503842
2021/03/16/13:00:24.277766,454143,1615896024,278171062,mocap,-2.76902416992,9.47140527344,1.90164770508,0.159099692621,0.258410489578,0.952664357796,-0.0184910472022
2021/03/16/13:00:24.289292,454144,1615896024,288171053,mocap,-2.76994824219,9.46203710938,1.90137939453,0.159164574659,0.259306529365,0.952392758054,-0.019359478377
2021/03/16/13:00:24.297644,454145,1615896024,298171043,mocap,-2.77096899414,9.45259570313,1.90150512695,0.158732799509,0.260313949805,0.952175104795,-0.0200778962099
2021/03/16/13:00:24.308141,454146,1615896024,308171034,mocap,-2.7720456543,9.44306640625,1.90214550781,0.158110282866,0.260870215872,0.952114781494,-0.0206230097761
2021/03/16/13:00:24.319331,454147,1615896024,318171024,mocap,-2.77306689453,9.43337890625,1.90276806641,0.15900207261,0.260437719088,0.952050987539,-0.0221237641793
2021/03/16/13:00:24.328049,454148,1615896024,328171015,mocap,-2.77402856445,9.42354589844,1.90368798828,0.158731082196,0.259989320214,0.952206434782,-0.0226472479628
2021/03/16/13:00:24.339115,454149,1615896024,338171005,mocap,-2.77498876953,9.41367480469,1.9046027832,0.160010135933,0.259106087335,0.952188140824,-0.0244649183157
2021/03/16/13:00:24.349247,454150,1615896024,348170996,mocap,-2.7758828125,9.40379394531,1.90566760254,0.16053256475,0.258442072936,0.952263481819,-0.0251247106673
2021/03/16/13:00:24.357951,454151,1615896024,358170986,mocap,-2.77685131836,9.39389257812,1.90701904297,0.160873796285,0.257516733736,0.952428633715,-0.026162040838
2021/03/16/13:00:24.369138,454152,1615896024,368170977,mocap,-2.77784326172,9.38408886719,1.90850097656,0.161413931602,0.256107185184,0.952708074966,-0.0264946386959
2021/03/16/13:00:24.377836,454153,1615896024,378171206,mocap,-2.77872241211,9.37412304688,1.90991540527,0.161631762034,0.2543500207,0.953133262536,-0.0267997616012
2021/03/16/13:00:24.388173,454154,1615896024,388171196,mocap,-2.77968798828,9.36418164063,1.91126879883,0.161801865658,0.252490138795,0.953588630916,-0.0271591320814
2021/03/16/13:00:24.397561,454155,1615896024,398171186,mocap,-2.7805234375,9.354296875,1.91260656738,0.162179466486,0.250032325631,0.954165523888,-0.0273828212677
2021/03/16/13:00:24.407873,454156,1615896024,408171177,mocap,-2.78134521484,9.34466503906,1.91373913574,0.162131332133,0.248041666162,0.954669334439,-0.0281997091239
2021/03/16/13:00:24.417828,454157,1615896024,418171167,mocap,-2.78220605469,9.33497851563,1.91479797363,0.162451390539,0.246233072807,0.955079802217,-0.0283090244464
2021/03/16/13:00:24.427819,454158,1615896024,428171158,mocap,-2.78294238281,9.3253984375,1.91568945312,0.16209339974,0.244561625328,0.955583224297,-0.0278575479507
2021/03/16/13:00:24.437880,454159,1615896024,438171148,mocap,-2.78370947266,9.31602050781,1.91650732422,0.162280791308,0.243392541462,0.955852857411,-0.0277549257216
2021/03/16/13:00:24.447809,454160,1615896024,448171139,mocap,-2.78445654297,9.30687792969,1.91727209473,0.161930307671,0.24304729787,0.956002457062,-0.0276748922809
2021/03/16/13:00:24.458766,454161,1615896024,458171129,mocap,-2.78518383789,9.29770214844,1.9180291748,0.161482543153,0.242487457923,0.956236692411,-0.0271036429943
2021/03/16/13:00:24.467838,454162,1615896024,468171120,mocap,-2.78588891602,9.28876464844,1.91876513672,0.160990008301,0.242405836973,0.956344100897,-0.0269737397256
2021/03/16/13:00:24.478825,454163,1615896024,478171110,mocap,-2.78653198242,9.27980078125,1.91947546387,0.160730425621,0.242156534675,0.956453849843,-0.0268695846578
2021/03/16/13:00:24.487884,454164,1615896024,488171101,mocap,-2.78712939453,9.27085644531,1.92026013184,0.160056598182,0.242068001391,0.956597934641,-0.0265586993498
2021/03/16/13:00:24.499801,454165,1615896024,498171091,mocap,-2.78771240234,9.26201757813,1.9210144043,0.159350509496,0.241820883514,0.956781658401,-0.0264373508075
2021/03/16/13:00:24.508057,454166,1615896024,508171082,mocap,-2.78819702148,9.2532109375,1.92176147461,0.159086829899,0.241711725,0.956844225924,-0.0267573208582
2021/03/16/13:00:24.519584,454167,1615896024,518171072,mocap,-2.78864868164,9.24433203125,1.92248962402,0.158819839097,0.241545385859,0.956918507377,-0.0271855728864
2021/03/16/13:00:24.527595,454168,1615896024,528171062,mocap,-2.7889831543,9.23557421875,1.92335876465,0.158622406631,0.24091865013,0.957102177386,-0.0274326911161
2021/03/16/13:00:24.539750,454169,1615896024,538171053,mocap,-2.78928027344,9.22677929687,1.92414782715,0.158966324373,0.240407608107,0.957138514833,-0.0286314598192
2021/03/16/13:00:24.548206,454170,1615896024,548171043,mocap,-2.7894296875,9.21801367187,1.92490478516,0.159672997694,0.23951491784,0.957211504718,-0.0297199329992
2021/03/16/13:00:24.559625,454171,1615896024,558171034,mocap,-2.78960375977,9.20932324219,1.92571472168,0.159909379124,0.238497286238,0.957393912285,-0.0307397747601
2021/03/16/13:00:24.567816,454172,1615896024,568171024,mocap,-2.78971557617,9.20066210937,1.92643884277,0.160186576209,0.237499184265,0.957553977677,-0.0320120095945
2021/03/16/13:00:24.579593,454173,1615896024,578171015,mocap,-2.78977783203,9.19203808594,1.92708605957,0.160629381172,0.236663327672,0.957663090053,-0.0327119512264
2021/03/16/13:00:24.587901,454174,1615896024,588171005,mocap,-2.78983837891,9.1835,1.92771496582,0.160863365818,0.235760618048,0.957806378418,-0.0338651486318
2021/03/16/13:00:24.599615,454175,1615896024,598170996,mocap,-2.78989794922,9.17505957031,1.92828588867,0.161285154491,0.234718276904,0.957946355406,-0.0351171047262
2021/03/16/13:00:24.609678,454176,1615896024,608170986,mocap,-2.78991137695,9.16657421875,1.92878613281,0.161954752417,0.233920676144,0.957995190085,-0.0360137202097
2021/03/16/13:00:24.617640,454177,1615896024,618170977,mocap,-2.7898984375,9.15819726563,1.92921936035,0.162784473354,0.23321611705,0.957983726331,-0.0371301806281
2021/03/16/13:00:24.629697,454178,1615896024,628171206,mocap,-2.78983520508,9.14992089844,1.92953991699,0.163148867794,0.232710192531,0.958021344664,-0.037729321492
2021/03/16/13:00:24.637443,454179,1615896024,638171196,mocap,-2.78977587891,9.14170996094,1.92986291504,0.163795328938,0.232409698687,0.957948237598,-0.0386264981478
2021/03/16/13:00:24.647826,454180,1615896024,648171186,mocap,-2.78967651367,9.13349707031,1.93001306152,0.164637148272,0.232296823273,0.957798319551,-0.0394356090469
2021/03/16/13:00:24.658291,454181,1615896024,658171177,mocap,-2.78960839844,9.12534863281,1.93012695313,0.165449414698,0.232207561512,0.957655310062,-0.0400306631187
2021/03/16/13:00:24.669651,454182,1615896024,668171167,mocap,-2.78947753906,9.11730371094,1.93008972168,0.166294731489,0.232382896621,0.957434643178,-0.0407818556969
2021/03/16/13:00:24.677824,454183,1615896024,678171158,mocap,-2.7893840332,9.10923632813,1.92992919922,0.166894061757,0.232853797262,0.957196396572,-0.0412376694307
2021/03/16/13:00:24.687578,454184,1615896024,688171148,mocap,-2.78928759766,9.10115527344,1.92969665527,0.167363212243,0.233520285286,0.956938104573,-0.0415607452755
2021/03/16/13:00:24.697741,454185,1615896024,698171139,mocap,-2.78918115234,9.09311328125,1.92928479004,0.167722003662,0.234325055011,0.956674260101,-0.041658919369
2021/03/16/13:00:24.709287,454186,1615896024,708171129,mocap,-2.7890949707,9.08510546875,1.92887670898,0.168591050565,0.235020222401,0.956338748678,-0.0419374661469
2021/03/16/13:00:24.717703,454187,1615896024,718171120,mocap,-2.78895898437,9.07701953125,1.92827966309,0.168876697528,0.236069953523,0.956043465444,-0.0416236151629
2021/03/16/13:00:24.729556,454188,1615896024,728171110,mocap,-2.78885229492,9.06895117187,1.92759729004,0.169165022779,0.23690233383,0.95578002881,-0.041773487009
2021/03/16/13:00:24.737783,454189,1615896024,738171101,mocap,-2.78870214844,9.06083496094,1.92675415039,0.169629782383,0.237932199404,0.95545515174,-0.0414661986777
2021/03/16/13:00:24.748216,454190,1615896024,748171091,mocap,-2.78849023438,9.05277832031,1.92579553223,0.17037876041,0.239199399817,0.955011462984,-0.0413259547139
2021/03/16/13:00:24.757564,454191,1615896024,758171082,mocap,-2.78824560547,9.04461132813,1.92461303711,0.170683009878,0.240352829935,0.954687588656,-0.0408586459596
2021/03/16/13:00:24.769241,454192,1615896024,768171072,mocap,-2.78800561523,9.03640234375,1.92336853027,0.171254508881,0.241631251914,0.95427891187,-0.0404720650563
2021/03/16/13:00:24.777904,454193,1615896024,778171062,mocap,-2.78777709961,9.02820019531,1.92197351074,0.171377059231,0.242839184745,0.953969050159,-0.0400260222622
2021/03/16/13:00:24.789567,454194,1615896024,788171053,mocap,-2.78746459961,9.0199375,1.92050695801,0.171700227127,0.244347127276,0.953553377097,-0.0393632496259
2021/03/16/13:00:24.797763,454195,1615896024,798171043,mocap,-2.78721728516,9.01158691406,1.91894946289,0.171754816548,0.245387327841,0.953283187372,-0.0391983690937
2021/03/16/13:00:24.809353,454196,1615896024,808171034,mocap,-2.78691674805,9.00316210937,1.91741333008,0.172138028001,0.246623693475,0.952911392102,-0.0387960176432
2021/03/16/13:00:24.817932,454197,1615896024,818171024,mocap,-2.78657104492,8.99469433594,1.9157755127,0.172238815528,0.247930114182,0.952569768558,-0.0384094610262
2021/03/16/13:00:24.829201,454198,1615896024,828171015,mocap,-2.78622460938,8.98619726562,1.91416796875,0.172235692216,0.249186601109,0.952259319403,-0.0379879833674
2021/03/16/13:00:24.838030,454199,1615896024,838171005,mocap,-2.78586352539,8.97757910156,1.91252893066,0.171974003067,0.25019303417,0.952060355,-0.0375429233937
2021/03/16/13:00:24.849086,454200,1615896024,848170996,mocap,-2.78541357422,8.96885742188,1.91082495117,0.171996366613,0.25163910632,0.951690430646,-0.0371529898411
2021/03/16/13:00:24.857882,454201,1615896024,858170986,mocap,-2.784921875,8.96015136719,1.90933312988,0.17177910254,0.252543355741,0.951505919592,-0.0367460652374
2021/03/16/13:00:24.867893,454202,1615896024,868170977,mocap,-2.78440454102,8.9513515625,1.90788208008,0.172386485433,0.253440252665,0.951159326365,-0.0366997586553
2021/03/16/13:00:24.877640,454203,1615896024,878171206,mocap,-2.7838815918,8.94242285156,1.90645544434,0.171912352801,0.254075374666,0.951094747624,-0.0362025870075
2021/03/16/13:00:24.888646,454204,1615896024,888171196,mocap,-2.78340112305,8.93340722656,1.90515014648,0.171712726398,0.25520962072,0.950830723487,-0.0361071718491
2021/03/16/13:00:24.897682,454205,1615896024,898171186,mocap,-2.78281445312,8.92440820312,1.90400671387,0.171599481163,0.255919961679,0.950676030941,-0.035688680258
2021/03/16/13:00:24.907771,454206,1615896024,908171177,mocap,-2.78222460938,8.91536035156,1.90298022461,0.170926535317,0.256750635837,0.950585201993,-0.035369573966
2021/03/16/13:00:24.917971,454207,1615896024,918171167,mocap,-2.78158642578,8.90615136719,1.90204467773,0.170414789426,0.257556506267,0.95047066787,-0.0350565750114
2021/03/16/13:00:24.927637,454208,1615896024,928171158,mocap,-2.78094287109,8.89699511719,1.9012800293,0.170119159458,0.258197035219,0.950349550187,-0.0350640871155
2021/03/16/13:00:24.938118,454209,1615896024,938171148,mocap,-2.78019580078,8.88773925781,1.90069580078,0.169994655537,0.258548935578,0.950288538657,-0.0347269679654
2021/03/16/13:00:24.949666,454210,1615896024,948171139,mocap,-2.77954052734,8.87838671875,1.90004370117,0.169430858557,0.259562843798,0.950123187285,-0.034442021274
2021/03/16/13:00:24.957625,454211,1615896024,958171129,mocap,-2.77875292969,8.8690078125,1.89962609863,0.1687276189,0.260055525901,0.950122944192,-0.0341832926522
