time,.header.seq,.header.stamp.secs,.header.stamp.nsecs,.header.frame_id,.pose.position.x,.pose.position.y,.pose.position.z,.pose.orientation.x,.pose.orientation.y,.pose.orientation.z,.pose.orientation.w
2021/03/16/13:10:28.178236,492429,1615896628,178171158,mocap,-2.79805273438,10.3756152344,1.93979626465,0.190223128873,0.242120019719,0.947346107761,0.0879113884557
2021/03/16/13:10:28.187057,492430,1615896628,188171148,mocap,-2.79831811523,10.3756787109,1.93968823242,0.19003995642,0.242124696119,0.947365690629,0.0880833851052
2021/03/16/13:10:28.198702,492431,1615896628,198171139,mocap,-2.7985456543,10.3756054688,1.93934106445,0.187750531536,0.242831662401,0.947557911563,0.0889748584149
2021/03/16/13:10:28.207142,492432,1615896628,208171129,mocap,-2.79888427734,10.3759765625,1.93955615234,0.189036724176,0.242185669969,0.947570177652,0.0878747369839
2021/03/16/13:10:28.218302,492433,1615896628,218171120,mocap,-2.79915673828,10.3761591797,1.93945288086,0.188819489038,0.242355088339,0.947620018803,0.0873356616457
2021/03/16/13:10:28.227055,492434,1615896628,228171110,mocap,-2.79944213867,10.3761855469,1.93924951172,0.187911345056,0.242597204472,0.947772529494,0.0869663430859
2021/03/16/13:10:28.238636,492435,1615896628,238171101,mocap,-2.79970605469,10.3762939453,1.93920202637,0.187041083875,0.242768365066,0.947975207537,0.0861519411503
2021/03/16/13:10:28.247129,492436,1615896628,248171091,mocap,-2.79999682617,10.3764736328,1.93923083496,0.186409295727,0.242872627981,0.948180592478,0.0849589505406
2021/03/16/13:10:28.258249,492437,1615896628,258171082,mocap,-2.8002253418,10.3765498047,1.93908154297,0.185907253665,0.242815243505,0.948417655197,0.08356555941
2021/03/16/13:10:28.267406,492438,1615896628,268171072,mocap,-2.80041845703,10.3764960937,1.93895458984,0.185526545253,0.242892369141,0.948615883481,0.0819213121017
2021/03/16/13:10:28.277311,492439,1615896628,278171062,mocap,-2.80061279297,10.3765556641,1.93894580078,0.18496714346,0.242958694747,0.948860210632,0.0801406175825
2021/03/16/13:10:28.289236,492440,1615896628,288171053,mocap,-2.80077636719,10.3766044922,1.93886071777,0.184505042075,0.242926258047,0.949135749234,0.0780131332562
2021/03/16/13:10:28.297116,492441,1615896628,298171043,mocap,-2.80089306641,10.3763085938,1.93840966797,0.186455113798,0.243292413862,0.948922915728,0.0747568111591
2021/03/16/13:10:28.309034,492442,1615896628,308171034,mocap,-2.80094824219,10.376328125,1.9383458252,0.185807045923,0.2433933265,0.949195280688,0.0725516402673
2021/03/16/13:10:28.317034,492443,1615896628,318171024,mocap,-2.80103588867,10.3764228516,1.93835888672,0.185484429332,0.243305676625,0.949478184603,0.0699216899652
2021/03/16/13:10:28.328512,492444,1615896628,328171015,mocap,-2.8011652832,10.3763173828,1.93826635742,0.185077987464,0.243331392734,0.949757026984,0.0670639183618
2021/03/16/13:10:28.337325,492445,1615896628,338171005,mocap,-2.80113842773,10.3758691406,1.93766186523,0.184100082337,0.243046748893,0.950235818782,0.0639321153549
2021/03/16/13:10:28.348693,492446,1615896628,348170996,mocap,-2.8012578125,10.3757548828,1.93764648438,0.183873228687,0.243030392292,0.950518632477,0.0603423289385
2021/03/16/13:10:28.357044,492447,1615896628,358170986,mocap,-2.8012878418,10.3759248047,1.93787487793,0.184753913359,0.242380193314,0.95074278535,0.0566214911058
2021/03/16/13:10:28.368410,492448,1615896628,368170977,mocap,-2.80125537109,10.3755722656,1.93755603027,0.183035234944,0.242951821027,0.951091332129,0.0538311902428
2021/03/16/13:10:28.376944,492449,1615896628,378171206,mocap,-2.80125,10.3753066406,1.93745678711,0.182710565425,0.242812524996,0.951394237243,0.0500791966147
2021/03/16/13:10:28.388354,492450,1615896628,388171196,mocap,-2.80127685547,10.3752568359,1.93765563965,0.184296066225,0.242140624267,0.951502505574,0.0452310846721
2021/03/16/13:10:28.396886,492451,1615896628,398171186,mocap,-2.80121020508,10.375078125,1.93766992187,0.183992968638,0.241943637285,0.951780825344,0.0415105279857
2021/03/16/13:10:28.407393,492452,1615896628,408171177,mocap,-2.80115087891,10.3747548828,1.93752185059,0.184315057386,0.241592647301,0.951979848168,0.0373539820654
2021/03/16/13:10:28.417310,492453,1615896628,418171167,mocap,-2.80101831055,10.3745263672,1.93742272949,0.183903930536,0.241216092972,0.952296733556,0.033542239862
2021/03/16/13:10:28.427578,492454,1615896628,428171158,mocap,-2.80123291016,10.3744150391,1.93783544922,0.185569206204,0.240022060986,0.952474020043,0.0273259921566
2021/03/16/13:10:28.437393,492455,1615896628,438171148,mocap,-2.80121655273,10.3741503906,1.93778259277,0.185284732428,0.239876025648,0.952666344272,0.0235777189537
2021/03/16/13:10:28.448388,492456,1615896628,448171139,mocap,-2.80108520508,10.3737792969,1.9376114502,0.1851991358,0.239772053533,0.952798169805,0.0196542693917
2021/03/16/13:10:28.459241,492457,1615896628,458171129,mocap,-2.80103271484,10.3735322266,1.9375814209,0.184832855859,0.23958702216,0.952988059728,0.0157678102618
2021/03/16/13:10:28.467028,492458,1615896628,468171120,mocap,-2.80087451172,10.3732304688,1.93729333496,0.182485644258,0.239853904551,0.953415568414,0.0129556576674
2021/03/16/13:10:28.477497,492459,1615896628,478171110,mocap,-2.80077783203,10.3729003906,1.93715478516,0.18201105037,0.239587170649,0.953615515765,0.00934984210766
2021/03/16/13:10:28.486979,492460,1615896628,488171101,mocap,-2.80068139648,10.3725361328,1.93701342773,0.181403947146,0.239554737276,0.953766677168,0.00593906739561
2021/03/16/13:10:28.497002,492461,1615896628,498171091,mocap,-2.8006081543,10.3722958984,1.93697436523,0.180969478675,0.239440593213,0.953892508243,0.00270598050614
2021/03/16/13:10:28.509152,492462,1615896628,508171082,mocap,-2.80053637695,10.3720751953,1.93696386719,0.180913353067,0.239272543812,0.953948876493,-0.000737028046125
2021/03/16/13:10:28.517015,492463,1615896628,518171072,mocap,-2.80040234375,10.3716318359,1.93684179688,0.180558641161,0.238712272742,0.954147736009,-0.00413887898621
2021/03/16/13:10:28.528285,492464,1615896628,528171062,mocap,-2.80034082031,10.3712636719,1.93677624512,0.180117506379,0.238448113351,0.954276475911,-0.00752249241053
2021/03/16/13:10:28.539146,492465,1615896628,538171053,mocap,-2.80029370117,10.3710488281,1.93695507813,0.178738691021,0.238873809712,0.954411357769,-0.00952607728256
2021/03/16/13:10:28.547436,492466,1615896628,548171043,mocap,-2.80018579102,10.3707246094,1.93691381836,0.178738505551,0.238590423947,0.954449655527,-0.0123698671015
2021/03/16/13:10:28.559328,492467,1615896628,558171034,mocap,-2.80007714844,10.3703300781,1.93684484863,0.178682586755,0.238214617579,0.954512594468,-0.0152325871449
2021/03/16/13:10:28.567138,492468,1615896628,568171024,mocap,-2.79999389648,10.3699609375,1.93682141113,0.178577412688,0.237750010589,0.954600840942,-0.0179518229124
2021/03/16/13:10:28.579257,492469,1615896628,578171015,mocap,-2.79985839844,10.3695830078,1.93675830078,0.178414438821,0.237289948651,0.95469780431,-0.0203439490018
2021/03/16/13:10:28.587268,492470,1615896628,588171005,mocap,-2.79973168945,10.3691279297,1.93650891113,0.179170790845,0.235945480831,0.954824511472,-0.0231886871878
2021/03/16/13:10:28.599185,492471,1615896628,598170996,mocap,-2.79958642578,10.3687802734,1.9364440918,0.179515962557,0.235522082076,0.954804246635,-0.0255384544772
2021/03/16/13:10:28.607381,492472,1615896628,608170986,mocap,-2.79948095703,10.36840625,1.93642199707,0.179257298459,0.234986589799,0.954924167324,-0.0277120136728
2021/03/16/13:10:28.618761,492473,1615896628,618170977,mocap,-2.79937207031,10.3680566406,1.93633837891,0.179102226177,0.234461620063,0.955019982251,-0.0297819995677
2021/03/16/13:10:28.626996,492474,1615896628,628171206,mocap,-2.79933740234,10.367703125,1.9362746582,0.178731484103,0.23395508079,0.955156459599,-0.031562783936
2021/03/16/13:10:28.638631,492475,1615896628,638171196,mocap,-2.79930249023,10.3675615234,1.93641625977,0.177824668292,0.234398510514,0.955178448609,-0.0327086493234
2021/03/16/13:10:28.647261,492476,1615896628,648171186,mocap,-2.79924804687,10.3673076172,1.93637268066,0.177828979001,0.234082117015,0.955205319912,-0.0341352085405
2021/03/16/13:10:28.657707,492477,1615896628,658171177,mocap,-2.79922729492,10.3670146484,1.93629382324,0.177545749819,0.233585478233,0.955332326312,-0.0354328035942
2021/03/16/13:10:28.667853,492478,1615896628,668171167,mocap,-2.79918530273,10.3667822266,1.93618823242,0.177552617901,0.233259750753,0.955359910769,-0.0367747813229
2021/03/16/13:10:28.677927,492479,1615896628,678171158,mocap,-2.79915185547,10.3666533203,1.93617895508,0.177570757256,0.233009815471,0.955369479745,-0.0380028042191
2021/03/16/13:10:28.688627,492480,1615896628,688171148,mocap,-2.79912915039,10.3664257812,1.93610693359,0.177168729843,0.23295042078,0.955420910378,-0.0389388970635
2021/03/16/13:10:28.698038,492481,1615896628,698171139,mocap,-2.79910717773,10.3661767578,1.93601477051,0.1770419026,0.232880301963,0.955427585629,-0.0397626119942
2021/03/16/13:10:28.707033,492482,1615896628,708171129,mocap,-2.79909716797,10.3660517578,1.93598657227,0.176911877618,0.232773246066,0.955447665689,-0.0404791818202
2021/03/16/13:10:28.718693,492483,1615896628,718171120,mocap,-2.79908813477,10.3659521484,1.93594226074,0.176850530773,0.23279554301,0.955427780583,-0.0410839928639
2021/03/16/13:10:28.726997,492484,1615896628,728171110,mocap,-2.79907788086,10.3657509766,1.93586242676,0.176540735697,0.232688099144,0.955488877229,-0.0416008357529
2021/03/16/13:10:28.738392,492485,1615896628,738171101,mocap,-2.79906176758,10.3655673828,1.93580578613,0.176487689452,0.23277708189,0.95545733516,-0.0420499960817
2021/03/16/13:10:28.747389,492486,1615896628,748171091,mocap,-2.79905908203,10.3655136719,1.93579553223,0.176369616885,0.232868803118,0.955444304745,-0.0423327842151
2021/03/16/13:10:28.758746,492487,1615896628,758171082,mocap,-2.79904101562,10.3654072266,1.93576293945,0.176201057401,0.232992710466,0.955438370428,-0.0424864683598
2021/03/16/13:10:28.767048,492488,1615896628,768171072,mocap,-2.79904248047,10.3651865234,1.93570251465,0.176186234498,0.233189199379,0.955387533421,-0.0426129976672
2021/03/16/13:10:28.778349,492489,1615896628,778171062,mocap,-2.7990234375,10.3649892578,1.9356394043,0.176146947372,0.233336925844,0.955354997565,-0.0426960884345
2021/03/16/13:10:28.787043,492490,1615896628,788171053,mocap,-2.79900927734,10.3649785156,1.93570910645,0.176030705058,0.233360557534,0.955368848055,-0.0427364424965
2021/03/16/13:10:28.798585,492491,1615896628,798171043,mocap,-2.79898510742,10.3648417969,1.93567468262,0.176090836395,0.233503097435,0.955321735291,-0.0427632894913
2021/03/16/13:10:28.806919,492492,1615896628,808171034,mocap,-2.79899707031,10.3645205078,1.93560778809,0.175923178103,0.233620242602,0.9553395793,-0.0424133738613
2021/03/16/13:10:28.818414,492493,1615896628,818171024,mocap,-2.79897558594,10.3643183594,1.93557958984,0.175804344225,0.233746046763,0.955337091453,-0.0422689232509
2021/03/16/13:10:28.827240,492494,1615896628,828171015,mocap,-2.79898364258,10.3642744141,1.93563366699,0.17582679163,0.233623679385,0.955367335117,-0.0421682746162
2021/03/16/13:10:28.838070,492495,1615896628,838171005,mocap,-2.79898339844,10.3641171875,1.93565393066,0.17578988484,0.233698153473,0.95536604054,-0.0419382202375
2021/03/16/13:10:28.846965,492496,1615896628,848170996,mocap,-2.79897827148,10.3638359375,1.93559277344,0.175750674097,0.233688309595,0.955380491358,-0.0418283297577
2021/03/16/13:10:28.858364,492497,1615896628,858170986,mocap,-2.79900268555,10.3637011719,1.93559753418,0.175613284022,0.23386851377,0.955378471532,-0.0414424609589
2021/03/16/13:10:28.867109,492498,1615896628,868170977,mocap,-2.79900537109,10.3636484375,1.93564624023,0.175554640892,0.233754714375,0.955424380578,-0.0412741482348
2021/03/16/13:10:28.877974,492499,1615896628,878171206,mocap,-2.79899926758,10.3634326172,1.93559887695,0.175356527643,0.234062841351,0.955404752333,-0.0408220587633
2021/03/16/13:10:28.887304,492500,1615896628,888171196,mocap,-2.79902783203,10.3631542969,1.93555603027,0.175402140485,0.234392192641,0.955327654735,-0.0405397798201
2021/03/16/13:10:28.898335,492501,1615896628,898171186,mocap,-2.79900830078,10.3630644531,1.93559375,0.175203956423,0.234572732145,0.955336607921,-0.0401392955307
2021/03/16/13:10:28.907119,492502,1615896628,908171177,mocap,-2.79898388672,10.3629833984,1.93566247559,0.175327840725,0.23479704356,0.955270322718,-0.0398635568831
2021/03/16/13:10:28.917021,492503,1615896628,918171167,mocap,-2.79896142578,10.3626816406,1.935609375,0.175197869246,0.235040908079,0.955248897396,-0.0395099610762
2021/03/16/13:10:28.927178,492504,1615896628,928171158,mocap,-2.79894824219,10.3624238281,1.93556506348,0.175209434073,0.235284293175,0.955205491511,-0.0390567490882
2021/03/16/13:10:28.937254,492505,1615896628,938171148,mocap,-2.79891430664,10.3623613281,1.93564306641,0.175368784888,0.235287085522,0.955181077272,-0.0389214651319
2021/03/16/13:10:28.949178,492506,1615896628,948171139,mocap,-2.79888842773,10.3622041016,1.9356652832,0.175545465186,0.235561285671,0.955093399269,-0.0386170672065
2021/03/16/13:10:28.957472,492507,1615896628,958171129,mocap,-2.79883618164,10.3618603516,1.93558850098,0.175313459918,0.23587449005,0.955073631604,-0.0382464051776
2021/03/16/13:10:28.969112,492508,1615896628,968171120,mocap,-2.79878686523,10.3616298828,1.93558740234,0.175330694199,0.235898205777,0.95508029368,-0.0378526820787
2021/03/16/13:10:28.977433,492509,1615896628,978171110,mocap,-2.79875195313,10.3615537109,1.93567993164,0.175636575106,0.23592270249,0.955025084413,-0.0376742516267
2021/03/16/13:10:28.989199,492510,1615896628,988171101,mocap,-2.79870263672,10.3613046875,1.93567431641,0.175742938239,0.23605060953,0.95498795659,-0.0373168641843
2021/03/16/13:10:28.997411,492511,1615896628,998171091,mocap,-2.79864672852,10.3609228516,1.93558642578,0.176018045048,0.23594702646,0.954972922493,-0.0370589442932
2021/03/16/13:10:29.009138,492512,1615896629,8171082,mocap,-2.79858178711,10.3607099609,1.93557165527,0.175965262246,0.235906951947,0.955007616807,-0.0366685566856
2021/03/16/13:10:29.017212,492513,1615896629,18171072,mocap,-2.79855517578,10.3605761719,1.93564355469,0.176256276814,0.235959531411,0.954947636277,-0.0364943287018
2021/03/16/13:10:29.029027,492514,1615896629,28171062,mocap,-2.7985234375,10.3602216797,1.93557910156,0.176536685099,0.235786348668,0.954945771578,-0.0363067848608
2021/03/16/13:10:29.038986,492515,1615896629,38171053,mocap,-2.79848632813,10.3598359375,1.93546875,0.176589697167,0.235779715605,0.954952286307,-0.0359185205142
2021/03/16/13:10:29.047356,492516,1615896629,48171043,mocap,-2.79845361328,10.3596259766,1.93546594238,0.176861509287,0.23569278858,0.954931914951,-0.0356923730939
2021/03/16/13:10:29.058866,492517,1615896629,58171034,mocap,-2.79841967773,10.3593681641,1.93546643066,0.176977053958,0.235657617228,0.95492799043,-0.0354563631848
2021/03/16/13:10:29.066926,492518,1615896629,68171024,mocap,-2.79841430664,10.3589736328,1.9353614502,0.177215472792,0.235774503744,0.954862667815,-0.0352468355965
2021/03/16/13:10:29.078868,492519,1615896629,78171015,mocap,-2.79840844727,10.3586298828,1.93527575684,0.177229357718,0.235813760869,0.954860545457,-0.0349709095913
2021/03/16/13:10:29.087117,492520,1615896629,88171005,mocap,-2.79838916016,10.3583642578,1.93526940918,0.177472695049,0.2356789887,0.954851228875,-0.034899819427
2021/03/16/13:10:29.098832,492521,1615896629,98170996,mocap,-2.79838452148,10.3580458984,1.9352512207,0.177616014422,0.235582966426,0.954852968913,-0.034771194016
2021/03/16/13:10:29.107281,492522,1615896629,108170986,mocap,-2.79834350586,10.3574931641,1.93501464844,0.176864418299,0.235335392988,0.955064028458,-0.0344807881303
2021/03/16/13:10:29.118649,492523,1615896629,118170977,mocap,-2.79833911133,10.3571220703,1.93495666504,0.176823311116,0.235166046077,0.955116208805,-0.0344016802974
2021/03/16/13:10:29.126906,492524,1615896629,128171206,mocap,-2.79838964844,10.356921875,1.93516223145,0.177285702726,0.235268298838,0.955006789837,-0.0343603213605
2021/03/16/13:10:29.138890,492525,1615896629,138171196,mocap,-2.79841723633,10.356484375,1.9351151123,0.177199246073,0.235110984033,0.955065651093,-0.034246940257
2021/03/16/13:10:29.147145,492526,1615896629,148171186,mocap,-2.79843920898,10.3559414063,1.9350291748,0.176923739662,0.235155479909,0.955117207295,-0.0339267159184
2021/03/16/13:10:29.158588,492527,1615896629,158171177,mocap,-2.79846435547,10.3555322266,1.93506628418,0.176728856405,0.235071027566,0.955180351856,-0.0337492030191
2021/03/16/13:10:29.166821,492528,1615896629,168171167,mocap,-2.79847949219,10.3551269531,1.93512365723,0.176595444362,0.23491718411,0.95524733747,-0.0336226237951
2021/03/16/13:10:29.178427,492529,1615896629,178171158,mocap,-2.79850732422,10.3545458984,1.93505859375,0.176138103833,0.234858993795,0.955356011403,-0.0333393992561
2021/03/16/13:10:29.187236,492530,1615896629,188171148,mocap,-2.79851220703,10.3539404297,1.93498901367,0.176060719066,0.234846110605,0.955381263414,-0.033114263674
2021/03/16/13:10:29.198240,492531,1615896629,198171139,mocap,-2.79849853516,10.3534794922,1.93501525879,0.175910100474,0.234793359407,0.955431313144,-0.0328438423748
2021/03/16/13:10:29.207045,492532,1615896629,208171129,mocap,-2.79847753906,10.3529541016,1.9349979248,0.175631694649,0.234636740065,0.955529502191,-0.0325957052369
2021/03/16/13:10:29.218288,492533,1615896629,218171120,mocap,-2.79846875,10.3522578125,1.93490515137,0.175543976953,0.234518598707,0.955581906621,-0.0323815456005
2021/03/16/13:10:29.227161,492534,1615896629,228171110,mocap,-2.79842285156,10.3515761719,1.93484814453,0.175109998492,0.234737639621,0.955628554361,-0.0317614920582
2021/03/16/13:10:29.238186,492535,1615896629,238171101,mocap,-2.79837890625,10.3510166016,1.9348614502,0.175056154206,0.234744030438,0.9556436717,-0.0315558132182
2021/03/16/13:10:29.247386,492536,1615896629,248171091,mocap,-2.79821875,10.3502041016,1.93458203125,0.175552919426,0.233812428091,0.955777900694,-0.0316470138538
2021/03/16/13:10:29.257113,492537,1615896629,258171082,mocap,-2.79811523437,10.3493359375,1.93438378906,0.175346995071,0.234021757135,0.955783528888,-0.0310658312201
2021/03/16/13:10:29.268748,492538,1615896629,268171072,mocap,-2.79799438477,10.3485849609,1.93427319336,0.175164241643,0.234395905518,0.955746913853,-0.0303954593693
2021/03/16/13:10:29.277282,492539,1615896629,278171062,mocap,-2.79782592773,10.3478457031,1.93416943359,0.175083931333,0.234645259541,0.955719426319,-0.0297925112571
2021/03/16/13:10:29.287346,492540,1615896629,288171053,mocap,-2.79771044922,10.3470634766,1.93420483398,0.173904500434,0.235904407075,0.955666382345,-0.0284271653341
2021/03/16/13:10:29.297078,492541,1615896629,298171043,mocap,-2.79751171875,10.3460361328,1.93397265625,0.173626112286,0.2363252945,0.955638666398,-0.0275511289338
2021/03/16/13:10:29.307155,492542,1615896629,308171034,mocap,-2.79730834961,10.3451318359,1.9338848877,0.17339992092,0.236778796999,0.955589173308,-0.026788078663
2021/03/16/13:10:29.316829,492543,1615896629,318171024,mocap,-2.79702441406,10.3442363281,1.93385717773,0.173576422352,0.237293816418,0.955448702823,-0.0260892031169
2021/03/16/13:10:29.327133,492544,1615896629,328171015,mocap,-2.79669897461,10.3429013672,1.93344836426,0.173975711273,0.237000846647,0.955457093424,-0.0257833714659
2021/03/16/13:10:29.337940,492545,1615896629,338171005,mocap,-2.79644116211,10.3416210937,1.93334875488,0.173250375594,0.237388663402,0.955521580069,-0.024686937352
2021/03/16/13:10:29.347326,492546,1615896629,348170996,mocap,-2.79617822266,10.34059375,1.9335526123,0.172163041734,0.238828013088,0.955393842379,-0.0233167857324
2021/03/16/13:10:29.358110,492547,1615896629,358170986,mocap,-2.79580908203,10.3393554688,1.93348693848,0.171965860542,0.239274333212,0.955338198897,-0.0224601495518
2021/03/16/13:10:29.368300,492548,1615896629,368170977,mocap,-2.79539648437,10.3377558594,1.93302148437,0.172430687813,0.239304023499,0.955253046786,-0.0222004335555
2021/03/16/13:10:29.379120,492549,1615896629,378171206,mocap,-2.79501391602,10.3363095703,1.93283178711,0.172021222818,0.240130210005,0.95513728608,-0.021423315574
2021/03/16/13:10:29.386971,492550,1615896629,388171196,mocap,-2.79461962891,10.3350175781,1.93270935059,0.17199914116,0.24086104441,0.95496838179,-0.0209199208347
2021/03/16/13:10:29.397890,492551,1615896629,398171186,mocap,-2.79423803711,10.3336630859,1.93266210938,0.170422379735,0.242269420992,0.954919212866,-0.0197744760833
2021/03/16/13:10:29.408853,492552,1615896629,408171177,mocap,-2.79374682617,10.3318095703,1.93202624512,0.171189479895,0.24193597834,0.954858064165,-0.0201795361454
2021/03/16/13:10:29.416785,492553,1615896629,418171167,mocap,-2.79326928711,10.3301367187,1.93167443848,0.170532394256,0.242494665489,0.954847288417,-0.0195369275813
2021/03/16/13:10:29.427709,492554,1615896629,428171158,mocap,-2.79286987305,10.328671875,1.93163623047,0.169138312244,0.243707534539,0.954803809653,-0.0186698208373
2021/03/16/13:10:29.437874,492555,1615896629,438171148,mocap,-2.79232128906,10.3267109375,1.93101074219,0.170030501507,0.242811563191,0.954864478057,-0.0191313501403
2021/03/16/13:10:29.449259,492556,1615896629,448171139,mocap,-2.7918269043,10.3247011719,1.93049389648,0.169948620751,0.243139669441,0.954803926701,-0.0187090913666
2021/03/16/13:10:29.458920,492557,1615896629,458171129,mocap,-2.79137133789,10.3229833984,1.93030041504,0.168809975301,0.243872721607,0.954835186038,-0.0178620570365
2021/03/16/13:10:29.467642,492558,1615896629,468171120,mocap,-2.79079150391,10.3209736328,1.9296463623,0.169524184029,0.242809965767,0.954970332267,-0.0183451290696
2021/03/16/13:10:29.477120,492559,1615896629,478171110,mocap,-2.79027294922,10.3188710937,1.92898522949,0.169204868833,0.242356803508,0.955141615366,-0.0183679924054
2021/03/16/13:10:29.489053,492560,1615896629,488171101,mocap,-2.78978686523,10.3168886719,1.92850732422,0.168413360526,0.243180417622,0.955086932307,-0.0175834118639
2021/03/16/13:10:29.498844,492561,1615896629,498171091,mocap,-2.78921044922,10.3148574219,1.92781225586,0.169455249297,0.242019760255,0.955186989787,-0.0181430660713
2021/03/16/13:10:29.508710,492562,1615896629,508171082,mocap,-2.78872607422,10.3130039062,1.92736584473,0.168234184611,0.24249067395,0.955295678385,-0.0174842424412
2021/03/16/13:10:29.516943,492563,1615896629,518171072,mocap,-2.78823876953,10.3108984375,1.92659899902,0.167625207426,0.242564583749,0.95539051244,-0.0171224770804
2021/03/16/13:10:29.528440,492564,1615896629,528171062,mocap,-2.78773266602,10.3087822266,1.92577758789,0.168470143895,0.241667523536,0.955460321759,-0.0176123239201
2021/03/16/13:10:29.537208,492565,1615896629,538171053,mocap,-2.7873034668,10.3069746094,1.92532324219,0.167365574023,0.2425047177,0.955455635212,-0.0168751009677
2021/03/16/13:10:29.549001,492566,1615896629,548171043,mocap,-2.78688891602,10.3050175781,1.92471264648,0.166678952699,0.242681338102,0.955537556801,-0.016488793822
2021/03/16/13:10:29.558573,492567,1615896629,558171034,mocap,-2.78641918945,10.3028212891,1.92400939941,0.167793133101,0.241804218585,0.955557728115,-0.0169000566899
2021/03/16/13:10:29.567208,492568,1615896629,568171024,mocap,-2.78602758789,10.3009423828,1.92373327637,0.166665514989,0.242362866928,0.955625014732,-0.0162383038277
2021/03/16/13:10:29.578444,492569,1615896629,578171015,mocap,-2.78553344727,10.2988505859,1.92314355469,0.16738181364,0.241512919259,0.955709198198,-0.0165760238484
2021/03/16/13:10:29.587264,492570,1615896629,588171005,mocap,-2.78508789062,10.2967412109,1.92272338867,0.167604278599,0.240970952773,0.955802627082,-0.0168270058406
2021/03/16/13:10:29.598521,492571,1615896629,598170996,mocap,-2.78469311523,10.29471875,1.92241845703,0.166721103035,0.24122627867,0.955900887109,-0.0163539400587
2021/03/16/13:10:29.607383,492572,1615896629,608170986,mocap,-2.78417871094,10.2925732422,1.92184411621,0.167643565534,0.239775564819,0.956091953132,-0.0170728518382
2021/03/16/13:10:29.618289,492573,1615896629,618170977,mocap,-2.78367919922,10.2906259766,1.9214798584,0.16767610723,0.239531075541,0.95614336828,-0.0173042415093
2021/03/16/13:10:29.627054,492574,1615896629,628171206,mocap,-2.78326196289,10.2885644531,1.92102819824,0.167717447673,0.239546411937,0.956126786067,-0.017605222489
2021/03/16/13:10:29.638549,492575,1615896629,638171196,mocap,-2.78281835938,10.2865146484,1.92066638184,0.167561551634,0.239405699057,0.956189170473,-0.0176155017483
2021/03/16/13:10:29.647187,492576,1615896629,648171186,mocap,-2.78244335938,10.284578125,1.92044177246,0.167482260714,0.239398815618,0.956203094591,-0.017706948361
2021/03/16/13:10:29.657054,492577,1615896629,658171177,mocap,-2.78209765625,10.2825996094,1.92024694824,0.167671287071,0.239384948906,0.956167789117,-0.018009589939
2021/03/16/13:10:29.668193,492578,1615896629,668171167,mocap,-2.78172875977,10.2805185547,1.92002124023,0.16725960459,0.239738379304,0.956153139806,-0.0179141994859
2021/03/16/13:10:29.677191,492579,1615896629,678171158,mocap,-2.78140209961,10.2784804688,1.91995361328,0.167376800074,0.239504114473,0.956190931453,-0.0179354686225
2021/03/16/13:10:29.688387,492580,1615896629,688171148,mocap,-2.78108227539,10.2764443359,1.91985668945,0.16758954018,0.239574070271,0.956131999209,-0.0181549069441
2021/03/16/13:10:29.697098,492581,1615896629,698171139,mocap,-2.78074755859,10.2743203125,1.91986450195,0.167416349824,0.239543056459,0.956168825469,-0.0182225153759
2021/03/16/13:10:29.708355,492582,1615896629,708171129,mocap,-2.78049560547,10.2721386719,1.91989501953,0.167681913803,0.239337587413,0.956164555379,-0.0186982375719
2021/03/16/13:10:29.716969,492583,1615896629,718171120,mocap,-2.78023779297,10.270015625,1.92001342773,0.168043390136,0.23925171532,0.956115705123,-0.0190468770636
2021/03/16/13:10:29.727322,492584,1615896629,728171110,mocap,-2.7800065918,10.2678994141,1.9203067627,0.167586083835,0.239811321233,0.956057422856,-0.0189640293583
2021/03/16/13:10:29.739136,492585,1615896629,738171101,mocap,-2.77979711914,10.2655029297,1.92018737793,0.168139549702,0.23883583241,0.956188025056,-0.0197734647979
2021/03/16/13:10:29.747142,492586,1615896629,748171091,mocap,-2.77962451172,10.263203125,1.92029675293,0.168137283123,0.238612725964,0.956232110959,-0.0203463170423
2021/03/16/13:10:29.759278,492587,1615896629,758171082,mocap,-2.77955322266,10.2610625,1.92066479492,0.167430974851,0.239224079064,0.956206787916,-0.0201813481083
2021/03/16/13:10:29.767195,492588,1615896629,768171072,mocap,-2.77941235352,10.2586796875,1.92060791016,0.168304765893,0.23861226202,0.956189069178,-0.0209801937314
2021/03/16/13:10:29.778939,492589,1615896629,778171062,mocap,-2.77937451172,10.2561982422,1.92062646484,0.168317813826,0.238636122762,0.95617045402,-0.0214467327238
2021/03/16/13:10:29.787589,492590,1615896629,788171053,mocap,-2.77944042969,10.2538964844,1.92092211914,0.167059000741,0.239636222272,0.956148012494,-0.0211364962119
2021/03/16/13:10:29.799088,492591,1615896629,798171043,mocap,-2.77949853516,10.2514824219,1.92090808105,0.167595068663,0.239022379822,0.956190082131,-0.0219254269722
2021/03/16/13:10:29.806972,492592,1615896629,808171034,mocap,-2.77961621094,10.2489052734,1.92088586426,0.166944328522,0.239361930736,0.956215943247,-0.0220572778934
2021/03/16/13:10:29.818981,492593,1615896629,818171024,mocap,-2.77972729492,10.2463798828,1.92102050781,0.165496624789,0.240892666115,0.956099114638,-0.0213559984054
2021/03/16/13:10:29.826901,492594,1615896629,828171015,mocap,-2.77986499023,10.2437753906,1.92091369629,0.165822137257,0.240590246552,0.956109245076,-0.0217821415265
2021/03/16/13:10:29.837930,492595,1615896629,838171005,mocap,-2.78007324219,10.2411337891,1.92087451172,0.165235400916,0.241296272391,0.956037145187,-0.0215953088195
2021/03/16/13:10:29.849559,492596,1615896629,848170996,mocap,-2.78025024414,10.2384619141,1.92097485352,0.164531205131,0.242671634148,0.955815091372,-0.0213885589951
2021/03/16/13:10:29.856898,492597,1615896629,858170986,mocap,-2.78042529297,10.2355693359,1.92075,0.164735853868,0.242781931332,0.955745222215,-0.0216816204634
2021/03/16/13:10:29.867828,492598,1615896629,868170977,mocap,-2.78061669922,10.2327353516,1.92061645508,0.163903106194,0.243534038441,0.955701909036,-0.0214664786066
2021/03/16/13:10:29.877160,492599,1615896629,878171206,mocap,-2.78077929688,10.2298730469,1.92061914062,0.163325751398,0.244698649861,0.955509197723,-0.0212000399594
2021/03/16/13:10:29.887717,492600,1615896629,888171196,mocap,-2.7809765625,10.226578125,1.92015966797,0.163848079668,0.244786204632,0.955392758396,-0.0214055929601
2021/03/16/13:10:29.898616,492601,1615896629,898171186,mocap,-2.78121606445,10.2234160156,1.91987280273,0.163789684842,0.24541100048,0.955242509484,-0.0214038100842
2021/03/16/13:10:29.907340,492602,1615896629,908171177,mocap,-2.78151635742,10.2203554688,1.91992553711,0.162030758864,0.247063829565,0.955144922772,-0.0200916613582
2021/03/16/13:10:29.917386,492603,1615896629,918171167,mocap,-2.78181689453,10.2168554687,1.91933776855,0.162806418891,0.246658236756,0.955106317459,-0.0206325414221
2021/03/16/13:10:29.928139,492604,1615896629,928171158,mocap,-2.78204663086,10.2134306641,1.91891589355,0.162921487117,0.247843603318,0.954773813457,-0.0209069958039
2021/03/16/13:10:29.937316,492605,1615896629,938171148,mocap,-2.78228295898,10.2097490234,1.91831335449,0.163729847603,0.247830264051,0.954632317654,-0.0212095438354
2021/03/16/13:10:29.947261,492606,1615896629,948171139,mocap,-2.78275268555,10.2063125,1.91819458008,0.161823833724,0.248947151184,0.954686363394,-0.0203051921983
2021/03/16/13:10:29.958259,492607,1615896629,958171129,mocap,-2.7830769043,10.2024541016,1.91749401855,0.161650792523,0.249697327685,0.954529368639,-0.0198485448681
2021/03/16/13:10:29.969095,492608,1615896629,968171120,mocap,-2.78342358398,10.1985810547,1.91670581055,0.162501326007,0.249702182663,0.954372660329,-0.0203705159672
2021/03/16/13:10:29.977177,492609,1615896629,978171110,mocap,-2.7838503418,10.1947998047,1.91621923828,0.16200000015,0.251235849941,0.954068506424,-0.0197442266524
2021/03/16/13:10:29.987081,492610,1615896629,988171101,mocap,-2.78419360352,10.190703125,1.91528405762,0.162825869821,0.251642850254,0.953809836074,-0.0202586856398
2021/03/16/13:10:29.999566,492611,1615896629,998171091,mocap,-2.78458178711,10.1866494141,1.91459594727,0.163138270065,0.25332371197,0.953306141822,-0.0205036480404
2021/03/16/13:10:30.007374,492612,1615896630,8171082,mocap,-2.78508300781,10.1824794922,1.91389526367,0.1628680969,0.25424678048,0.953113313509,-0.0201884804501
2021/03/16/13:10:30.017870,492613,1615896630,18171072,mocap,-2.78572045898,10.1782548828,1.91332177734,0.162177226077,0.255351746824,0.952951392012,-0.0194336211333
2021/03/16/13:10:30.029084,492614,1615896630,28171062,mocap,-2.78625219727,10.1738574219,1.91262609863,0.162114710629,0.256377488452,0.952688320372,-0.0193485316315
2021/03/16/13:10:30.037023,492615,1615896630,38171053,mocap,-2.78679711914,10.1692958984,1.9118671875,0.162222378779,0.257393717379,0.952395331822,-0.0193779274346
2021/03/16/13:10:30.047712,492616,1615896630,48171043,mocap,-2.7874855957,10.1646796875,1.91122595215,0.16206004344,0.258131808988,0.952227114826,-0.0191843886932
2021/03/16/13:10:30.057094,492617,1615896630,58171034,mocap,-2.78805957031,10.1599072266,1.91045544434,0.163066779643,0.258721070578,0.951886004937,-0.0196382246297
2021/03/16/13:10:30.067625,492618,1615896630,68171024,mocap,-2.78875952148,10.1550244141,1.90987573242,0.16277444244,0.25920433827,0.95180068488,-0.0198253863707
2021/03/16/13:10:30.077027,492619,1615896630,78171015,mocap,-2.78960107422,10.1500810547,1.90945666504,0.162440815792,0.260136928741,0.951615490558,-0.0192278280748
2021/03/16/13:10:30.087044,492620,1615896630,88171005,mocap,-2.79042260742,10.1449628906,1.90897644043,0.162532309816,0.260689893345,0.951443361237,-0.0194824596143
2021/03/16/13:10:30.097800,492621,1615896630,98170996,mocap,-2.79127905273,10.1397607422,1.9085892334,0.162212548144,0.261116262042,0.95137945961,-0.0195578145434
2021/03/16/13:10:30.107137,492622,1615896630,108170986,mocap,-2.79223974609,10.1344033203,1.9081739502,0.162029863744,0.261197258866,0.951384119248,-0.0197628285016
2021/03/16/13:10:30.117061,492623,1615896630,118170977,mocap,-2.79320117187,10.1289121094,1.90784338379,0.162175904638,0.261391077966,0.951296263596,-0.0202263449686
2021/03/16/13:10:30.127831,492624,1615896630,128171206,mocap,-2.7943215332,10.123375,1.90759594727,0.161614836286,0.261093663734,0.951470878337,-0.0203447882959
2021/03/16/13:10:30.136975,492625,1615896630,138171196,mocap,-2.79542333984,10.1176835937,1.9073458252,0.161923210687,0.260906343698,0.951459985921,-0.0208002099411
2021/03/16/13:10:30.148902,492626,1615896630,148171186,mocap,-2.79653881836,10.1118945312,1.90709362793,0.161915892776,0.260223423431,0.95162469789,-0.0218503940408
2021/03/16/13:10:30.157220,492627,1615896630,158171177,mocap,-2.79782543945,10.1060722656,1.9070736084,0.161278704892,0.260009389587,0.951798618318,-0.0215331367881
2021/03/16/13:10:30.168566,492628,1615896630,168171167,mocap,-2.79896582031,10.1001484375,1.9068737793,0.161739022217,0.259411052282,0.951852112656,-0.022889842505
2021/03/16/13:10:30.177484,492629,1615896630,178171158,mocap,-2.80031298828,10.0941679687,1.90685656738,0.160889307839,0.259054854347,0.952102393969,-0.0224998908107
2021/03/16/13:10:30.189739,492630,1615896630,188171148,mocap,-2.801453125,10.0881201172,1.90663342285,0.161716541128,0.258737849254,0.95201539504,-0.02385720383
2021/03/16/13:10:30.197394,492631,1615896630,198171139,mocap,-2.8028972168,10.0820322266,1.90673352051,0.16074011874,0.25840282922,0.952277776297,-0.0236142628346
2021/03/16/13:10:30.207394,492632,1615896630,208171129,mocap,-2.80419897461,10.0759248047,1.90666027832,0.160439223846,0.258263524849,0.952354221114,-0.0240965570905
2021/03/16/13:10:30.217318,492633,1615896630,218171120,mocap,-2.80547460938,10.0696943359,1.90650085449,0.161727941623,0.257848238863,0.952216911788,-0.0253239432015
2021/03/16/13:10:30.227546,492634,1615896630,228171110,mocap,-2.80693408203,10.0635214844,1.90666931152,0.160074590033,0.258247595046,0.952399579697,-0.0248866868721
2021/03/16/13:10:30.237596,492635,1615896630,238171101,mocap,-2.80839501953,10.0572763672,1.9069798584,0.160380582139,0.258725865317,0.952202671169,-0.0254770439308
2021/03/16/13:10:30.248702,492636,1615896630,248171091,mocap,-2.80984594727,10.0509667969,1.90741430664,0.159784479389,0.259476475455,0.952095257179,-0.0256027671301
2021/03/16/13:10:30.258382,492637,1615896630,258171082,mocap,-2.81132177734,10.0446748047,1.90810058594,0.159605916472,0.260012171578,0.951969274635,-0.0259637126046
2021/03/16/13:10:30.267198,492638,1615896630,268171072,mocap,-2.81266992187,10.0381582031,1.90872570801,0.160565810295,0.260336529874,0.951685584616,-0.0271671624391
2021/03/16/13:10:30.278178,492639,1615896630,278171062,mocap,-2.81411450195,10.0315859375,1.90947521973,0.160327074795,0.260724861712,0.95161803511,-0.0272194014952
2021/03/16/13:10:30.287016,492640,1615896630,288171053,mocap,-2.81545043945,10.0249609375,1.91024841309,0.160373259179,0.2607150496,0.951592722383,-0.0279172702529
2021/03/16/13:10:30.297141,492641,1615896630,298171043,mocap,-2.81678100586,10.0183261719,1.91120605469,0.160685213704,0.260921122605,0.95145649343,-0.0288265098293
2021/03/16/13:10:30.308116,492642,1615896630,308171034,mocap,-2.81820410156,10.0116513672,1.91221875,0.16119598727,0.261085709993,0.951303273237,-0.0295327525261
2021/03/16/13:10:30.317049,492643,1615896630,318171024,mocap,-2.81955786133,10.0048261719,1.9133515625,0.161334460698,0.261127837329,0.951244414146,-0.0302904237026
2021/03/16/13:10:30.328631,492644,1615896630,328171015,mocap,-2.82095239258,9.9979921875,1.91459643555,0.161664981262,0.260831696909,0.951250366795,-0.0308867184971
2021/03/16/13:10:30.337032,492645,1615896630,338171005,mocap,-2.82227075195,9.99112890625,1.91584277344,0.162175291478,0.260416032495,0.951249646213,-0.0317297837242
2021/03/16/13:10:30.347593,492646,1615896630,348170996,mocap,-2.82363720703,9.98420996094,1.91714953613,0.162448603749,0.259835221658,0.95133875924,-0.0324140468494
2021/03/16/13:10:30.357733,492647,1615896630,358170986,mocap,-2.82488037109,9.97725390625,1.9183605957,0.16296105737,0.258908523634,0.951467761756,-0.0334540113143
2021/03/16/13:10:30.367047,492648,1615896630,368170977,mocap,-2.82612597656,9.97031640625,1.91941101074,0.163476726089,0.257958516145,0.951615341799,-0.0340735733394
2021/03/16/13:10:30.378472,492649,1615896630,378171206,mocap,-2.82726123047,9.96339355469,1.92026586914,0.165301380746,0.256564058254,0.951619734084,-0.0356402281107
2021/03/16/13:10:30.387182,492650,1615896630,388171196,mocap,-2.82848388672,9.95648828125,1.92112329102,0.165728711064,0.255595066632,0.951778680458,-0.0363662174387
2021/03/16/13:10:30.397620,492651,1615896630,398171186,mocap,-2.82965161133,9.94959960937,1.92179284668,0.166130120827,0.254695497607,0.951928278584,-0.0369262080344
2021/03/16/13:10:30.407326,492652,1615896630,408171177,mocap,-2.83076904297,9.94279394531,1.9223560791,0.166834177633,0.253734997578,0.952042324315,-0.0374207693773
2021/03/16/13:10:30.417382,492653,1615896630,418171167,mocap,-2.83192871094,9.93595996094,1.92283520508,0.16730493066,0.253033347941,0.952133382042,-0.0377519417157
2021/03/16/13:10:30.427173,492654,1615896630,428171158,mocap,-2.83318261719,9.92915234375,1.92323620605,0.16736784554,0.252534735416,0.952256064568,-0.0377172724436
2021/03/16/13:10:30.438344,492655,1615896630,438171148,mocap,-2.83428125,9.92243359375,1.92346020508,0.167420101971,0.252072754905,0.952365768278,-0.0378058401617
2021/03/16/13:10:30.447158,492656,1615896630,448171139,mocap,-2.83535400391,9.91577441406,1.92359533691,0.168156414238,0.25175695377,0.952302468385,-0.0382343682907
2021/03/16/13:10:30.457690,492657,1615896630,458171129,mocap,-2.83642651367,9.90905859375,1.92348730469,0.169451484731,0.251273628677,0.952163985688,-0.0391344433913
2021/03/16/13:10:30.468479,492658,1615896630,468171120,mocap,-2.83757446289,9.90238964844,1.92352685547,0.169120522581,0.251716975523,0.952120814779,-0.0387654715525
2021/03/16/13:10:30.477071,492659,1615896630,478171110,mocap,-2.83860644531,9.89583984375,1.92353552246,0.169251392628,0.252021436552,0.952024097638,-0.0385911579753
2021/03/16/13:10:30.488286,492660,1615896630,488171101,mocap,-2.83960620117,9.8892734375,1.92341162109,0.170655803498,0.252261738171,0.951668956045,-0.0395828526402
2021/03/16/13:10:30.497253,492661,1615896630,498171091,mocap,-2.84073095703,9.88263476562,1.92356518555,0.169735430249,0.252895189817,0.951699026615,-0.0387668744153
2021/03/16/13:10:30.508354,492662,1615896630,508171082,mocap,-2.84179394531,9.87595996094,1.92362963867,0.169895835015,0.253591063887,0.95148768264,-0.0387062349609
2021/03/16/13:10:30.517210,492663,1615896630,518171072,mocap,-2.84276342773,9.86936035156,1.92378955078,0.169954173487,0.253853705191,0.95141301633,-0.0385635856047
2021/03/16/13:10:30.528205,492664,1615896630,528171062,mocap,-2.84374829102,9.86268457031,1.92394091797,0.170750407462,0.254218178213,0.951145438076,-0.0392400125546
2021/03/16/13:10:30.536981,492665,1615896630,538171053,mocap,-2.84473828125,9.85588476562,1.92420239258,0.170690738473,0.254959568107,0.950960860453,-0.0391631184067
2021/03/16/13:10:30.546902,492666,1615896630,548171043,mocap,-2.84570922852,9.84908105469,1.92460266113,0.169929173672,0.255488689717,0.950963751487,-0.0389556810958
2021/03/16/13:10:30.557179,492667,1615896630,558171034,mocap,-2.84665576172,9.84233105469,1.92515405273,0.170062385773,0.256019141065,0.950788565602,-0.039167415525
2021/03/16/13:10:30.567299,492668,1615896630,568171024,mocap,-2.84757983398,9.83544726562,1.92579541016,0.169991061107,0.256306821348,0.950709275505,-0.0395187050722
2021/03/16/13:10:30.579354,492669,1615896630,578171015,mocap,-2.8484699707,9.82835742187,1.92640478516,0.169312773514,0.256225352265,0.95084401302,-0.0397166636145
2021/03/16/13:10:30.587279,492670,1615896630,588171005,mocap,-2.84927514648,9.82139355469,1.92710913086,0.169596063616,0.255899911474,0.950856730365,-0.0402977142008
2021/03/16/13:10:30.599277,492671,1615896630,598170996,mocap,-2.85001464844,9.81436816406,1.92788330078,0.169621104312,0.255530439792,0.950929700974,-0.0408114023875
2021/03/16/13:10:30.607180,492672,1615896630,608170986,mocap,-2.85076049805,9.80717578125,1.92850170898,0.169656839666,0.255305081711,0.950963869008,-0.0412745181503
2021/03/16/13:10:30.618862,492673,1615896630,618170977,mocap,-2.85148266602,9.79992285156,1.92908813477,0.169743545568,0.254743206069,0.951074356313,-0.0418400612145
2021/03/16/13:10:30.627017,492674,1615896630,628171206,mocap,-2.85211669922,9.79277148438,1.9296796875,0.169793643207,0.254093989529,0.951203144037,-0.0426491865475
2021/03/16/13:10:30.638124,492675,1615896630,638171196,mocap,-2.85273608398,9.78560351563,1.93017346191,0.169638355477,0.253777280731,0.951288627337,-0.0432419805479
2021/03/16/13:10:30.646953,492676,1615896630,648171186,mocap,-2.85335839844,9.77827148438,1.93052380371,0.169450317924,0.253458704418,0.951378394546,-0.0438682285456
2021/03/16/13:10:30.658676,492677,1615896630,658171177,mocap,-2.85395288086,9.77096289063,1.93081311035,0.169441296172,0.253212342277,0.951426015816,-0.0442909757402
2021/03/16/13:10:30.667215,492678,1615896630,668171167,mocap,-2.85447631836,9.76376855469,1.93106799316,0.169438702977,0.252813598293,0.95150534798,-0.0448708901293
2021/03/16/13:10:30.678656,492679,1615896630,678171158,mocap,-2.85502856445,9.75649902344,1.93135778809,0.168298168368,0.252626009093,0.951763814856,-0.0447378090639
2021/03/16/13:10:30.687153,492680,1615896630,688171148,mocap,-2.85545581055,9.749046875,1.93132507324,0.168299190535,0.252329575991,0.951808324859,-0.0454542592463
2021/03/16/13:10:30.698645,492681,1615896630,698171139,mocap,-2.85582177734,9.74165332031,1.93126501465,0.168132346281,0.252047819089,0.95188743731,-0.0459751796335
2021/03/16/13:10:30.707221,492682,1615896630,708171129,mocap,-2.85612036133,9.73433886719,1.93114221191,0.169027503008,0.25132932798,0.951861810825,-0.0471419125716
2021/03/16/13:10:30.718538,492683,1615896630,718171120,mocap,-2.85635229492,9.72690234375,1.93088867188,0.168947254878,0.25089270228,0.951969337247,-0.0475820126897
2021/03/16/13:10:30.726772,492684,1615896630,728171110,mocap,-2.85659887695,9.71934765625,1.93051391602,0.169200586539,0.250470707501,0.951996220868,-0.0483610243105
2021/03/16/13:10:30.738840,492685,1615896630,738171101,mocap,-2.85681494141,9.711890625,1.93023620605,0.168392339028,0.250346383404,0.952168938832,-0.0484254729475
2021/03/16/13:10:30.747598,492686,1615896630,748171091,mocap,-2.85683203125,9.704453125,1.92968798828,0.168783708472,0.249687021841,0.952212983902,-0.0495871358582
2021/03/16/13:10:30.758857,492687,1615896630,758171082,mocap,-2.8568737793,9.6968984375,1.92908105469,0.16927516986,0.24958776107,0.952115814433,-0.0502726623228
2021/03/16/13:10:30.767052,492688,1615896630,768171072,mocap,-2.85689160156,9.68926757812,1.92836914063,0.168791598755,0.249840917778,0.952139250882,-0.0501970798755
2021/03/16/13:10:30.778455,492689,1615896630,778171062,mocap,-2.85678100586,9.68169921875,1.92758154297,0.170097989263,0.249236635733,0.951996377394,-0.0514847095961
2021/03/16/13:10:30.787042,492690,1615896630,788171053,mocap,-2.85669897461,9.67416113281,1.9267791748,0.169831748339,0.249599129101,0.951949825602,-0.0514683802079
2021/03/16/13:10:30.798533,492691,1615896630,798171043,mocap,-2.85647119141,9.66645117187,1.92565209961,0.170942411205,0.249201723433,0.951790618175,-0.0526481146193
2021/03/16/13:10:30.807337,492692,1615896630,808171034,mocap,-2.85634863281,9.65870898438,1.92462036133,0.17063247255,0.249761134715,0.951688739627,-0.0528439116722
2021/03/16/13:10:30.818431,492693,1615896630,818171024,mocap,-2.8560612793,9.65112597656,1.92340124512,0.171630177711,0.24953126208,0.951503750596,-0.0540171262585
2021/03/16/13:10:30.827251,492694,1615896630,828171015,mocap,-2.85587060547,9.64344726562,1.92228100586,0.17129502035,0.249828824397,0.95147132468,-0.0542760546749
2021/03/16/13:10:30.838364,492695,1615896630,838171005,mocap,-2.85556005859,9.63560351563,1.92079003906,0.172365972488,0.250209505653,0.951115138498,-0.0553640298984
2021/03/16/13:10:30.847263,492696,1615896630,848170996,mocap,-2.85535107422,9.62780957031,1.91951806641,0.171742429774,0.250776537489,0.951076714301,-0.0553962707338
2021/03/16/13:10:30.858432,492697,1615896630,858170986,mocap,-2.85499975586,9.62006933594,1.91805957031,0.17267983201,0.25101267024,0.950783761992,-0.0564318540653
2021/03/16/13:10:30.867068,492698,1615896630,868170977,mocap,-2.854796875,9.61228027344,1.91676721191,0.17192654703,0.251927953048,0.95068184608,-0.0563702671788
2021/03/16/13:10:30.878422,492699,1615896630,878171206,mocap,-2.85442163086,9.60428027344,1.91507434082,0.172542193795,0.252370670309,0.950412070789,-0.0570538234161
2021/03/16/13:10:30.886748,492700,1615896630,888171196,mocap,-2.85411743164,9.59642578125,1.91364477539,0.172353755306,0.253168480791,0.950212468681,-0.0574122753229
2021/03/16/13:10:30.898573,492701,1615896630,898171186,mocap,-2.85372094727,9.58853613281,1.91222253418,0.172368275411,0.254233570784,0.949914700669,-0.0575893392653
2021/03/16/13:10:30.906991,492702,1615896630,908171177,mocap,-2.85335131836,9.58051269531,1.91073608398,0.171795550203,0.255419390613,0.949697805326,-0.0576306722141
2021/03/16/13:10:30.918529,492703,1615896630,918171167,mocap,-2.85299926758,9.57245605469,1.90955236816,0.171333842205,0.256551919356,0.949482516152,-0.0575220288543
2021/03/16/13:10:30.927207,492704,1615896630,928171158,mocap,-2.85247509766,9.56438378906,1.90833520508,0.17088549419,0.25765688397,0.94926801797,-0.0574570020654
2021/03/16/13:10:30.937144,492705,1615896630,938171148,mocap,-2.85189550781,9.55624707031,1.90718493652,0.171313900207,0.258424517818,0.948949029851,-0.0580005101377
2021/03/16/13:10:30.948594,492706,1615896630,948171139,mocap,-2.85137890625,9.54798632813,1.90622631836,0.170754943118,0.259328129549,0.948833096814,-0.0575101738607
2021/03/16/13:10:30.957172,492707,1615896630,958171129,mocap,-2.85079443359,9.5396875,1.90531018066,0.170687710833,0.260418426274,0.948554391272,-0.0573804975672
2021/03/16/13:10:30.968752,492708,1615896630,968171120,mocap,-2.85013354492,9.53141699219,1.90448913574,0.170587383757,0.261424308422,0.948309671061,-0.0571493385144
2021/03/16/13:10:30.977144,492709,1615896630,978171110,mocap,-2.84944238281,9.52305566406,1.90380883789,0.170329114167,0.262064106321,0.948195396392,-0.0568848736478
2021/03/16/13:10:30.986826,492710,1615896630,988171101,mocap,-2.84872949219,9.51460351562,1.90317785645,0.170168211586,0.263256333417,0.947912738429,-0.0565713900589
2021/03/16/13:10:30.998858,492711,1615896630,998171091,mocap,-2.8480078125,9.5061796875,1.90279260254,0.169927267321,0.264327923218,0.947678143845,-0.0562282177288
2021/03/16/13:10:31.006963,492712,1615896631,8171082,mocap,-2.84725292969,9.49775976563,1.90276599121,0.169622220259,0.265699569983,0.947378777107,-0.0557270201276
2021/03/16/13:10:31.018568,492713,1615896631,18171072,mocap,-2.84652392578,9.48926660156,1.90304907227,0.169489167571,0.267239419099,0.947006677845,-0.0550895754699
2021/03/16/13:10:31.027067,492714,1615896631,28171062,mocap,-2.84574658203,9.48066503906,1.90363012695,0.16913757073,0.268309245908,0.946812007873,-0.0543106526086
2021/03/16/13:10:31.038352,492715,1615896631,38171053,mocap,-2.84491674805,9.47194433594,1.90435827637,0.168808413165,0.268779749572,0.946777493269,-0.0536054658855
2021/03/16/13:10:31.048312,492716,1615896631,48171043,mocap,-2.84401733398,9.46317480469,1.9051126709,0.169020706843,0.269226328717,0.946650448854,-0.0529350246056
2021/03/16/13:10:31.058176,492717,1615896631,58171034,mocap,-2.84310131836,9.45435253906,1.90601159668,0.168860485594,0.26947346824,0.946653770185,-0.0521230283274
2021/03/16/13:10:31.067074,492718,1615896631,68171024,mocap,-2.84220214844,9.44560449219,1.90709802246,0.169469335494,0.269783310218,0.946463577665,-0.0519981237846
2021/03/16/13:10:31.077194,492719,1615896631,78171015,mocap,-2.84129003906,9.4368828125,1.90830725098,0.169342746094,0.269788936669,0.94651901081,-0.0513685342289
2021/03/16/13:10:31.088375,492720,1615896631,88171005,mocap,-2.84036206055,9.42810839844,1.90944836426,0.169746256576,0.27007056214,0.946393222804,-0.050872021694
2021/03/16/13:10:31.097335,492721,1615896631,98170996,mocap,-2.83942944336,9.41927441406,1.91061645508,0.170382166153,0.26972661371,0.946407566583,-0.0503010907152
2021/03/16/13:10:31.106936,492722,1615896631,108170986,mocap,-2.83856469727,9.41049023438,1.91182287598,0.171226973578,0.269232419083,0.946411770481,-0.0499999288679
2021/03/16/13:10:31.118106,492723,1615896631,118170977,mocap,-2.83775561523,9.4018046875,1.91301660156,0.171696624048,0.26849693655,0.946548875035,-0.0497482637606
2021/03/16/13:10:31.127086,492724,1615896631,128171206,mocap,-2.83696923828,9.39310839844,1.91407226562,0.17259764367,0.267725708839,0.94661367732,-0.0495532603694
2021/03/16/13:10:31.138019,492725,1615896631,138171196,mocap,-2.8362043457,9.38437890625,1.91503259277,0.173442989319,0.266790011806,0.946737043636,-0.0492908790361
2021/03/16/13:10:31.149010,492726,1615896631,148171186,mocap,-2.83552978516,9.37579296875,1.91595153809,0.173807195626,0.26619204225,0.946858387351,-0.0489085677013
2021/03/16/13:10:31.157277,492727,1615896631,158171177,mocap,-2.83492089844,9.36726464844,1.9167713623,0.174804245143,0.265540799779,0.946873125383,-0.0486091204694
2021/03/16/13:10:31.167255,492728,1615896631,168171167,mocap,-2.83433691406,9.35880273438,1.91742211914,0.175932401942,0.264647052346,0.946909831763,-0.0486979939321
2021/03/16/13:10:31.180745,492729,1615896631,178171158,mocap,-2.83387158203,9.35043261719,1.91806933594,0.176397594089,0.264307701973,0.946945765655,-0.0481564376433
2021/03/16/13:10:31.187024,492730,1615896631,188171148,mocap,-2.83352539063,9.34218359375,1.91865600586,0.176741889184,0.264170050091,0.9469466154,-0.0476297709141
2021/03/16/13:10:31.199242,492731,1615896631,198171139,mocap,-2.83323046875,9.33400390625,1.91923413086,0.177115181,0.26414891268,0.946912782375,-0.047029256912
2021/03/16/13:10:31.207085,492732,1615896631,208171129,mocap,-2.83300439453,9.32583105469,1.91977307129,0.177262278597,0.264185514756,0.946901223792,-0.0464991956606
2021/03/16/13:10:31.217922,492733,1615896631,218171120,mocap,-2.83291381836,9.31778222656,1.92042102051,0.176791902926,0.264346695742,0.946997457083,-0.0454010171104
2021/03/16/13:10:31.228734,492734,1615896631,228171110,mocap,-2.83283203125,9.3096875,1.92096374512,0.17688760271,0.264169955725,0.947064478646,-0.0446529517332
2021/03/16/13:10:31.237242,492735,1615896631,238171101,mocap,-2.8328359375,9.30163574219,1.92160375977,0.176905437676,0.263762902932,0.947194236346,-0.0442343649874
2021/03/16/13:10:31.248254,492736,1615896631,248171091,mocap,-2.83287231445,9.29356347656,1.92219885254,0.176951126978,0.263480141106,0.947298257797,-0.0435031661633
2021/03/16/13:10:31.257201,492737,1615896631,258171082,mocap,-2.8329074707,9.28548242188,1.92281286621,0.177100121326,0.262968284956,0.94744214645,-0.0428557016885
2021/03/16/13:10:31.267022,492738,1615896631,268171072,mocap,-2.83301269531,9.2774296875,1.92340722656,0.177677039175,0.261831837733,0.947650516615,-0.0428188771923
2021/03/16/13:10:31.279036,492739,1615896631,278171062,mocap,-2.83315795898,9.26937597656,1.92410803223,0.177782121637,0.260841325995,0.947925746616,-0.0423331668631
2021/03/16/13:10:31.287038,492740,1615896631,288171053,mocap,-2.83339648438,9.26131347656,1.92474621582,0.178065610911,0.259722302953,0.948189479569,-0.0421150420535
2021/03/16/13:10:31.298781,492741,1615896631,298171043,mocap,-2.8336472168,9.25326660156,1.9254041748,0.17802389756,0.258540099256,0.948545201265,-0.0415512395311
2021/03/16/13:10:31.307340,492742,1615896631,308171034,mocap,-2.83394506836,9.24541015625,1.92601477051,0.178234040358,0.257146357893,0.948865840597,-0.0419761594201
2021/03/16/13:10:31.317776,492743,1615896631,318171024,mocap,-2.83428027344,9.23741503906,1.92654199219,0.178285288674,0.256157272174,0.949137405552,-0.0416653371376
2021/03/16/13:10:31.327513,492744,1615896631,328171015,mocap,-2.83463867188,9.22938476562,1.92703723145,0.17825706553,0.254727099768,0.94953286111,-0.0415435037951
2021/03/16/13:10:31.337634,492745,1615896631,338171005,mocap,-2.83507568359,9.22137695313,1.92751831055,0.178113634925,0.253419494799,0.949928928528,-0.0410990472074
2021/03/16/13:10:31.347327,492746,1615896631,348170996,mocap,-2.83551000977,9.21336328125,1.92794934082,0.178307815982,0.251823624748,0.950324148792,-0.040929219684
2021/03/16/13:10:31.357007,492747,1615896631,358170986,mocap,-2.83598803711,9.20536035156,1.92830895996,0.177982577565,0.250276126051,0.950802216185,-0.0407332811295
2021/03/16/13:10:31.368323,492748,1615896631,368170977,mocap,-2.83652319336,9.197359375,1.9286072998,0.177529386842,0.248836778389,0.951272289451,-0.0405537382323
2021/03/16/13:10:31.377178,492749,1615896631,378171206,mocap,-2.83715283203,9.18939257813,1.92880895996,0.177162347905,0.247650864333,0.951661158366,-0.0402939699007
2021/03/16/13:10:31.388682,492750,1615896631,388171196,mocap,-2.83772363281,9.18143945312,1.92893994141,0.176568222202,0.246376432791,0.952111377484,-0.0400778301558
2021/03/16/13:10:31.397353,492751,1615896631,398171186,mocap,-2.83831665039,9.17350683594,1.92897277832,0.176123693948,0.245097779682,0.952537300714,-0.0397519537325
2021/03/16/13:10:31.408571,492752,1615896631,408171177,mocap,-2.8389909668,9.1655859375,1.92890026855,0.176003666455,0.244446058909,0.952730808666,-0.0396590377691
2021/03/16/13:10:31.416986,492753,1615896631,418171167,mocap,-2.83966137695,9.15773632813,1.92871801758,0.175369456054,0.243816803746,0.95302126273,-0.0393624815985
2021/03/16/13:10:31.427206,492754,1615896631,428171158,mocap,-2.84034619141,9.14990039062,1.92848864746,0.174879332099,0.243504200528,0.953194529702,-0.0392824878354
2021/03/16/13:10:31.437660,492755,1615896631,438171148,mocap,-2.84110205078,9.14212402344,1.92813391113,0.17465758843,0.243550286584,0.953229249662,-0.0391405471191
2021/03/16/13:10:31.448093,492756,1615896631,448171139,mocap,-2.84180566406,9.13431054687,1.92773828125,0.174122903666,0.243926257094,0.953240833123,-0.0388987454954
2021/03/16/13:10:31.457014,492757,1615896631,458171129,mocap,-2.8425769043,9.12648535156,1.92719970703,0.174011182304,0.244456907889,0.953125734798,-0.0388878279222
2021/03/16/13:10:31.468603,492758,1615896631,468171120,mocap,-2.84337744141,9.11871191406,1.92673376465,0.173561018617,0.244890657832,0.953120317604,-0.0382986110775
2021/03/16/13:10:31.477284,492759,1615896631,478171110,mocap,-2.84417285156,9.11084375,1.92604150391,0.173320423306,0.245768842778,0.952935958313,-0.0383505701277
2021/03/16/13:10:31.488290,492760,1615896631,488171101,mocap,-2.84506591797,9.10301269531,1.92536193848,0.172524782041,0.246546068476,0.952891962298,-0.0380413908991
2021/03/16/13:10:31.497276,492761,1615896631,498171091,mocap,-2.84594213867,9.09505175781,1.92456555176,0.172237286844,0.247783355331,0.952644320741,-0.0375037182281
2021/03/16/13:10:31.507119,492762,1615896631,508171082,mocap,-2.84680932617,9.08712402344,1.92374035645,0.172295225994,0.248608037343,0.952414388439,-0.0376195895371
2021/03/16/13:10:31.518200,492763,1615896631,518171072,mocap,-2.84771948242,9.0791484375,1.92287561035,0.17166729524,0.249577610036,0.952301803366,-0.0369140147399
2021/03/16/13:10:31.527081,492764,1615896631,528171062,mocap,-2.84869628906,9.07108789062,1.92192553711,0.171284248721,0.250547653717,0.952112559107,-0.0370034633796
2021/03/16/13:10:31.538118,492765,1615896631,538171053,mocap,-2.84964526367,9.06300878906,1.92088793945,0.170954178036,0.251574464046,0.951921226584,-0.0364818258238
2021/03/16/13:10:31.547235,492766,1615896631,548171043,mocap,-2.85062524414,9.05484765625,1.91981079102,0.170522401856,0.252610538254,0.951731851851,-0.0362838025627
2021/03/16/13:10:31.559140,492767,1615896631,558171034,mocap,-2.85158032227,9.04657421875,1.91867614746,0.17023425232,0.253243831345,0.95163792936,-0.0356806789347
2021/03/16/13:10:31.567213,492768,1615896631,568171024,mocap,-2.85264379883,9.0382890625,1.91742443848,0.17030409824,0.254174873953,0.951380328889,-0.0355967506333
2021/03/16/13:10:31.579081,492769,1615896631,578171015,mocap,-2.85368701172,9.02999121094,1.91613671875,0.169717688637,0.254963929394,0.951284797436,-0.0353062017147
2021/03/16/13:10:31.587072,492770,1615896631,588171005,mocap,-2.85475537109,9.02163085937,1.91484082031,0.169583679424,0.2558881993,0.951070932911,-0.0350241324413
2021/03/16/13:10:31.599118,492771,1615896631,598170996,mocap,-2.85581591797,9.01319238281,1.91346105957,0.169058111216,0.257087491559,0.950858117274,-0.0345575302798
2021/03/16/13:10:31.607604,492772,1615896631,608170986,mocap,-2.85694433594,9.00476757812,1.91223095703,0.169121198339,0.257676043561,0.950686070263,-0.0345988222161
2021/03/16/13:10:31.618829,492773,1615896631,618170977,mocap,-2.85803710938,8.99624609375,1.91100634766,0.169052341479,0.2587684301,0.950413395632,-0.0342723106677
2021/03/16/13:10:31.627144,492774,1615896631,628171206,mocap,-2.85918994141,8.98762402344,1.90986010742,0.169052186985,0.259426369605,0.950234579939,-0.0342572596512
2021/03/16/13:10:31.639069,492775,1615896631,638171196,mocap,-2.86034570313,8.97887890625,1.90877282715,0.168836744654,0.259953035252,0.950139709602,-0.0339573665729
2021/03/16/13:10:31.647201,492776,1615896631,648171186,mocap,-2.86147241211,8.97018652344,1.90783996582,0.169470783675,0.260278764716,0.949928630482,-0.0342082996562
2021/03/16/13:10:31.658774,492777,1615896631,658171177,mocap,-2.86265356445,8.96137304687,1.90693286133,0.169110437546,0.260345380391,0.949974324482,-0.0342159559416
2021/03/16/13:10:31.667053,492778,1615896631,668171167,mocap,-2.86382592773,8.95246191406,1.90611291504,0.169912926895,0.260707315239,0.949725780939,-0.0343835985416
2021/03/16/13:10:31.678826,492779,1615896631,678171158,mocap,-2.86508251953,8.94361621094,1.90538000488,0.170011922272,0.260983882421,0.949628231437,-0.0344904747712
2021/03/16/13:10:31.686911,492780,1615896631,688171148,mocap,-2.86628613281,8.93477636719,1.90472839355,0.170655552869,0.260747129089,0.949550248961,-0.0352412085403
2021/03/16/13:10:31.698941,492781,1615896631,698171139,mocap,-2.86761425781,8.92586816406,1.90409667969,0.17073886454,0.260973939159,0.949463769506,-0.0354879212132
2021/03/16/13:10:31.707180,492782,1615896631,708171129,mocap,-2.86890966797,8.91692285156,1.90365307617,0.170925652212,0.261101980867,0.949378278851,-0.0359315393256
2021/03/16/13:10:31.718437,492783,1615896631,718171120,mocap,-2.87031860352,8.90813574219,1.90353540039,0.170876972437,0.261989936998,0.949133669019,-0.0361609341013
2021/03/16/13:10:31.727191,492784,1615896631,728171110,mocap,-2.87172412109,8.8993828125,1.90376196289,0.170617045022,0.26297569204,0.948888658498,-0.0366596075503
2021/03/16/13:10:31.738555,492785,1615896631,738171101,mocap,-2.87321411133,8.89046191406,1.90430541992,0.170461939884,0.26366798292,0.948714605131,-0.0369124819885
2021/03/16/13:10:31.747172,492786,1615896631,748171091,mocap,-2.87466918945,8.88160351563,1.90515075684,0.170590510046,0.264459572889,0.948443932488,-0.0376048755503
2021/03/16/13:10:31.758616,492787,1615896631,758171082,mocap,-2.8760690918,8.87269335938,1.90621496582,0.170327247239,0.264778727707,0.948384565985,-0.0380468054148
2021/03/16/13:10:31.767286,492788,1615896631,768171072,mocap,-2.87739135742,8.86377441406,1.90726965332,0.171620859994,0.265253300554,0.947955558664,-0.0395881217274
2021/03/16/13:10:31.778330,492789,1615896631,778171062,mocap,-2.87879223633,8.85479296875,1.90857629395,0.171754316376,0.265459421807,0.947834834909,-0.0405078297968
2021/03/16/13:10:31.787021,492790,1615896631,788171053,mocap,-2.88026318359,8.84590234375,1.91010974121,0.172124933113,0.26598138312,0.947575532223,-0.0415633650025
