time,.header.seq,.header.stamp.secs,.header.stamp.nsecs,.header.frame_id,.pose.position.x,.pose.position.y,.pose.position.z,.pose.orientation.x,.pose.orientation.y,.pose.orientation.z,.pose.orientation.w
2021/03/16/14:41:51.384378,899218,1615902111,388171196,mocap,-2.78710180664,10.3636533203,1.93202954102,0.161045466783,0.22535572609,0.960059338452,-0.0395629455228
2021/03/16/14:41:51.394508,899219,1615902111,398171186,mocap,-2.78714208984,10.3636611328,1.93203479004,0.160780050173,0.225205114941,0.960151684458,-0.0392578200442
2021/03/16/14:41:51.405728,899220,1615902111,408171177,mocap,-2.78721118164,10.3636572266,1.93199938965,0.160885223849,0.224916299998,0.960203937498,-0.0392047457649
2021/03/16/14:41:51.415734,899221,1615902111,418171167,mocap,-2.78727441406,10.3636386719,1.93205432129,0.160526538348,0.224673507533,0.960334270602,-0.0388732984798
2021/03/16/14:41:51.424220,899222,1615902111,428171158,mocap,-2.78733935547,10.3636269531,1.93208984375,0.160614629144,0.224516941705,0.960358375399,-0.0388183777348
2021/03/16/14:41:51.434618,899223,1615902111,438171148,mocap,-2.78739208984,10.3636171875,1.93203173828,0.160255425744,0.224286481935,0.960483730765,-0.0385326298315
2021/03/16/14:41:51.445510,899224,1615902111,448171139,mocap,-2.78746411133,10.3636005859,1.93204736328,0.160168601872,0.22405696942,0.960557265379,-0.0383957320084
2021/03/16/14:41:51.454252,899225,1615902111,458171129,mocap,-2.78753393555,10.3635380859,1.93210412598,0.16008518334,0.223733386182,0.96065196005,-0.0382612063414
2021/03/16/14:41:51.464676,899226,1615902111,468171120,mocap,-2.78759692383,10.3635224609,1.9320625,0.15999702309,0.223527741123,0.960721162154,-0.0380940421838
2021/03/16/14:41:51.475384,899227,1615902111,478171110,mocap,-2.7876472168,10.3634951172,1.93206677246,0.159760533674,0.223324650255,0.960816034533,-0.0378843385123
2021/03/16/14:41:51.484147,899228,1615902111,488171101,mocap,-2.78772192383,10.3634277344,1.93207373047,0.159412988375,0.222943406007,0.960968583077,-0.0377241865324
2021/03/16/14:41:51.494472,899229,1615902111,498171091,mocap,-2.78777832031,10.3633652344,1.93205895996,0.159270816366,0.222662956606,0.961058128353,-0.0376999256423
2021/03/16/14:41:51.505396,899230,1615902111,508171082,mocap,-2.78783398438,10.3633574219,1.93205529785,0.15924625174,0.222424502103,0.96112356478,-0.0375429511726
2021/03/16/14:41:51.514370,899231,1615902111,518171072,mocap,-2.78787719727,10.3633369141,1.93210107422,0.158814976265,0.222164746126,0.961257524622,-0.037478106298
2021/03/16/14:41:51.524042,899232,1615902111,528171062,mocap,-2.78789379883,10.3632636719,1.93208789063,0.158687562215,0.221830926757,0.961358877385,-0.0373952393349
2021/03/16/14:41:51.534375,899233,1615902111,538171053,mocap,-2.78790600586,10.3632285156,1.93204919434,0.158797268831,0.221755551933,0.961356784869,-0.0374303204318
2021/03/16/14:41:51.544150,899234,1615902111,548171043,mocap,-2.78792578125,10.363234375,1.93212805176,0.158439125193,0.221385722381,0.961503064027,-0.0373800080136
2021/03/16/14:41:51.555244,899235,1615902111,558171034,mocap,-2.78798120117,10.3632304688,1.9321114502,0.158678373387,0.221320656099,0.961468216641,-0.0376458727364
2021/03/16/14:41:51.566419,899236,1615902111,568171024,mocap,-2.78792456055,10.3631552734,1.93206225586,0.158724387433,0.221168153164,0.961503753678,-0.0374400089275
2021/03/16/14:41:51.574359,899237,1615902111,578171015,mocap,-2.78795361328,10.3631669922,1.93210974121,0.158618837501,0.221043779773,0.961544116765,-0.0375848493597
2021/03/16/14:41:51.586067,899238,1615902111,588171005,mocap,-2.78798266602,10.3632109375,1.93216394043,0.158547512045,0.221002658724,0.961560094159,-0.0377185221995
2021/03/16/14:41:51.594223,899239,1615902111,598170996,mocap,-2.78797143555,10.363171875,1.93211425781,0.158665058836,0.220939213574,0.961549509746,-0.0378655253689
2021/03/16/14:41:51.604501,899240,1615902111,608170986,mocap,-2.78792895508,10.3631025391,1.93210192871,0.158246227793,0.22085581668,0.961650645791,-0.0375350268623
2021/03/16/14:41:51.614337,899241,1615902111,618170977,mocap,-2.78797167969,10.3631630859,1.93216320801,0.158436322484,0.220739287015,0.961628184947,-0.0379913943441
2021/03/16/14:41:51.626024,899242,1615902111,628171206,mocap,-2.78797094727,10.3631933594,1.93217370605,0.158458198568,0.220744845927,0.961619933418,-0.0380764654539
2021/03/16/14:41:51.634514,899243,1615902111,638171196,mocap,-2.78793603516,10.3631328125,1.93212817383,0.158340453385,0.220913667761,0.961607885285,-0.0378911433254
2021/03/16/14:41:51.645936,899244,1615902111,648171186,mocap,-2.78798950195,10.3631357422,1.93216943359,0.158198027965,0.220814222168,0.961646415537,-0.038087109494
2021/03/16/14:41:51.654173,899245,1615902111,658171177,mocap,-2.78794897461,10.363140625,1.93219335938,0.158097216673,0.220800770804,0.961671897497,-0.0379400447154
2021/03/16/14:41:51.665955,899246,1615902111,668171167,mocap,-2.78799462891,10.3631796875,1.93216540527,0.158405186704,0.220774903058,0.961609729317,-0.0383792557852
2021/03/16/14:41:51.674545,899247,1615902111,678171158,mocap,-2.78802905273,10.3631171875,1.9321685791,0.158063218197,0.220823872063,0.961661918628,-0.0381994132566
2021/03/16/14:41:51.685857,899248,1615902111,688171148,mocap,-2.78804418945,10.3631523438,1.93219287109,0.158084170998,0.220704678651,0.961679761206,-0.0383518648899
2021/03/16/14:41:51.694677,899249,1615902111,698171139,mocap,-2.78806103516,10.3631347656,1.93218469238,0.157998756638,0.220705648359,0.961693427638,-0.0383557810243
2021/03/16/14:41:51.704091,899250,1615902111,708171129,mocap,-2.78802734375,10.3630595703,1.93218884277,0.157809741455,0.220598940999,0.961758929296,-0.0381045903131
2021/03/16/14:41:51.714670,899251,1615902111,718171120,mocap,-2.78809985352,10.3630458984,1.9321796875,0.157728206958,0.220552992541,0.961775220736,-0.0382962997508
2021/03/16/14:41:51.724165,899252,1615902111,728171110,mocap,-2.78811767578,10.3630615234,1.93218041992,0.15778517884,0.220423674994,0.961785639986,-0.0385437222495
2021/03/16/14:41:51.734617,899253,1615902111,738171101,mocap,-2.78814990234,10.3630576172,1.93220922852,0.157650997025,0.220376833726,0.961821668806,-0.0384615473614
2021/03/16/14:41:51.744447,899254,1615902111,748171091,mocap,-2.78816894531,10.3629931641,1.93221069336,0.157384994504,0.220388606511,0.96187086444,-0.0382526674077
2021/03/16/14:41:51.754112,899255,1615902111,758171082,mocap,-2.78819824219,10.3629541016,1.93218774414,0.157537637077,0.220297606066,0.961858796212,-0.0384514811339
2021/03/16/14:41:51.765635,899256,1615902111,768171072,mocap,-2.78821386719,10.3629638672,1.93221899414,0.157372971025,0.220211643165,0.961906998507,-0.0384124099707
2021/03/16/14:41:51.774164,899257,1615902111,778171062,mocap,-2.78824731445,10.3629453125,1.93224243164,0.157200811424,0.220119171165,0.961959922975,-0.0383218053109
2021/03/16/14:41:51.785538,899258,1615902111,788171053,mocap,-2.78827758789,10.3628652344,1.93218981934,0.157297284318,0.220039474927,0.961956189777,-0.0384768988691
2021/03/16/14:41:51.794495,899259,1615902111,798171043,mocap,-2.78827783203,10.3628417969,1.93217883301,0.157237037612,0.219964625353,0.961983793413,-0.0384611204076
2021/03/16/14:41:51.805455,899260,1615902111,808171034,mocap,-2.78825732422,10.3628115234,1.93222937012,0.156881225143,0.219824573075,0.962090451871,-0.0380446618885
2021/03/16/14:41:51.814585,899261,1615902111,818171024,mocap,-2.78832104492,10.3628085937,1.93221643066,0.157111826581,0.219766465318,0.962047749635,-0.0385058578826
2021/03/16/14:41:51.825499,899262,1615902111,828171015,mocap,-2.78834716797,10.3627451172,1.93215820312,0.157096925602,0.219714260609,0.962062123324,-0.0385056641179
2021/03/16/14:41:51.834579,899263,1615902111,838171005,mocap,-2.78832543945,10.3627080078,1.93216674805,0.156717315094,0.219627501741,0.962158799383,-0.0381299957174
2021/03/16/14:41:51.844229,899264,1615902111,848170996,mocap,-2.7883828125,10.3627626953,1.93222387695,0.156959737978,0.219344266441,0.962167619312,-0.0385382970801
2021/03/16/14:41:51.855591,899265,1615902111,858170986,mocap,-2.78834765625,10.3626708984,1.9320904541,0.156857352046,0.219454741886,0.962165249787,-0.0383851185797
2021/03/16/14:41:51.864120,899266,1615902111,868170977,mocap,-2.78837011719,10.3626279297,1.93211706543,0.156863044508,0.21931731812,0.962195309802,-0.0383937663422
2021/03/16/14:41:51.874476,899267,1615902111,878171206,mocap,-2.78836938477,10.3626318359,1.93216223145,0.156702093899,0.219014457009,0.962285445501,-0.0385206510725
2021/03/16/14:41:51.884129,899268,1615902111,888171196,mocap,-2.7883515625,10.3626171875,1.93211547852,0.156958732727,0.218992359255,0.962247784811,-0.0385422940936
2021/03/16/14:41:51.894134,899269,1615902111,898171186,mocap,-2.78833154297,10.3625546875,1.93210424805,0.156671008989,0.218851743592,0.962330328242,-0.0384505948901
2021/03/16/14:41:51.905346,899270,1615902111,908171177,mocap,-2.78833642578,10.3625361328,1.9321640625,0.156823372101,0.218664357731,0.962343892529,-0.0385559106733
2021/03/16/14:41:51.916294,899271,1615902111,918171167,mocap,-2.78830029297,10.3625332031,1.93213061523,0.157012203589,0.218525030038,0.962337621393,-0.0387335732465
2021/03/16/14:41:51.925134,899272,1615902111,928171158,mocap,-2.78826074219,10.3625224609,1.93210021973,0.157021887903,0.218511837262,0.962342088614,-0.0386577900621
2021/03/16/14:41:51.936173,899273,1615902111,938171148,mocap,-2.78825927734,10.3624433594,1.93206262207,0.156893908364,0.218595880072,0.962352168819,-0.0384505143627
2021/03/16/14:41:51.944205,899274,1615902111,948171139,mocap,-2.7882355957,10.3624443359,1.93204052734,0.15690622777,0.218361334846,0.962396080736,-0.0386336593018
2021/03/16/14:41:51.954450,899275,1615902111,958171129,mocap,-2.78824145508,10.3624970703,1.93207873535,0.15708115041,0.218258961563,0.962390537664,-0.0386392518075
2021/03/16/14:41:51.964343,899276,1615902111,968171120,mocap,-2.78824145508,10.3624560547,1.93207043457,0.156780826228,0.218317569053,0.96243168415,-0.0385026692365
2021/03/16/14:41:51.975323,899277,1615902111,978171110,mocap,-2.788234375,10.3623828125,1.9320020752,0.156743284809,0.218195704211,0.962464360097,-0.0385295818157
2021/03/16/14:41:51.983991,899278,1615902111,988171101,mocap,-2.78821557617,10.3624042969,1.93198034668,0.156821593596,0.218114171132,0.962469020258,-0.0385563679557
2021/03/16/14:41:51.995191,899279,1615902111,998171091,mocap,-2.78818823242,10.3624345703,1.93200402832,0.156672586888,0.2180886379,0.962499063045,-0.0385565331662
2021/03/16/14:41:52.004411,899280,1615902112,8171082,mocap,-2.78815893555,10.362390625,1.93198449707,0.156628845134,0.2179886937,0.962532634615,-0.0384612442163
2021/03/16/14:41:52.016002,899281,1615902112,18171072,mocap,-2.78813989258,10.3623378906,1.93193835449,0.15675511555,0.217817084054,0.962543959047,-0.0386353036779
2021/03/16/14:41:52.024632,899282,1615902112,28171062,mocap,-2.78808227539,10.3623662109,1.93197277832,0.156684546167,0.217767960194,0.962570725357,-0.0385311843775
2021/03/16/14:41:52.035904,899283,1615902112,38171053,mocap,-2.78804663086,10.3623554687,1.93196630859,0.156591123256,0.21756165754,0.96263370607,-0.0385033192816
2021/03/16/14:41:52.044151,899284,1615902112,48171043,mocap,-2.78799169922,10.3622900391,1.93191174316,0.156896172553,0.217470930874,0.962598559052,-0.0386521497764
2021/03/16/14:41:52.056293,899285,1615902112,58171034,mocap,-2.78795507812,10.36225,1.93190466309,0.156644003891,0.217369648019,0.96267093373,-0.0384416984765
2021/03/16/14:41:52.064112,899286,1615902112,68171024,mocap,-2.78789282227,10.3622636719,1.93195031738,0.156381349561,0.217198071674,0.962755592272,-0.0383607139993
2021/03/16/14:41:52.074973,899287,1615902112,78171015,mocap,-2.78783227539,10.3622392578,1.93191931152,0.156573953359,0.21692757393,0.962782190187,-0.0384379765536
2021/03/16/14:41:52.085853,899288,1615902112,88171005,mocap,-2.78773413086,10.3621865234,1.93190698242,0.156312826199,0.216719512868,0.962874778014,-0.0383550522372
2021/03/16/14:41:52.094360,899289,1615902112,98170996,mocap,-2.7876875,10.3621865234,1.93192773438,0.156344232844,0.21660516631,0.962893990903,-0.0383908621691
2021/03/16/14:41:52.104976,899290,1615902112,108170986,mocap,-2.78755712891,10.3621875,1.93187963867,0.156565493004,0.216565210355,0.962861817028,-0.0385212212024
2021/03/16/14:41:52.113898,899291,1615902112,118170977,mocap,-2.78743261719,10.3622041016,1.93185266113,0.156547554741,0.216753724079,0.962829464098,-0.0383422025043
2021/03/16/14:41:52.125876,899292,1615902112,128171206,mocap,-2.78733422852,10.3621533203,1.93187573242,0.156723750081,0.216546926363,0.962848360631,-0.0383161168064
2021/03/16/14:41:52.134238,899293,1615902112,138171196,mocap,-2.78717578125,10.3621513672,1.93183337402,0.156592495834,0.216693298441,0.962843895759,-0.0381370499041
2021/03/16/14:41:52.146248,899294,1615902112,148171186,mocap,-2.78704833984,10.3621699219,1.93184460449,0.156747357274,0.216661515463,0.962824271742,-0.0381768080623
2021/03/16/14:41:52.154282,899295,1615902112,158171177,mocap,-2.78691943359,10.3621357422,1.93186657715,0.156597579388,0.216535411363,0.962882531308,-0.0380373835953
2021/03/16/14:41:52.166113,899296,1615902112,168171167,mocap,-2.78680444336,10.3620986328,1.93188867187,0.156714211273,0.216485876513,0.96287302152,-0.0380796984939
2021/03/16/14:41:52.174074,899297,1615902112,178171158,mocap,-2.78665136719,10.3620664062,1.93184863281,0.156797508966,0.216707544667,0.962817523959,-0.0378786162526
2021/03/16/14:41:52.185741,899298,1615902112,188171148,mocap,-2.78652319336,10.3620361328,1.93191491699,0.156804173199,0.216794493039,0.962800646557,-0.0377825503986
2021/03/16/14:41:52.194367,899299,1615902112,198171139,mocap,-2.78638256836,10.3619501953,1.93194580078,0.156870259929,0.216809712753,0.962787630403,-0.0377524669518
2021/03/16/14:41:52.204850,899300,1615902112,208171129,mocap,-2.78620288086,10.3618964844,1.93193884277,0.15711467363,0.21701143699,0.962707208029,-0.0376277043594
2021/03/16/14:41:52.215682,899301,1615902112,218171120,mocap,-2.78602050781,10.3618632813,1.93199682617,0.157305518162,0.217138574646,0.962646654648,-0.0376460538233
2021/03/16/14:41:52.224279,899302,1615902112,228171110,mocap,-2.78583959961,10.3617802734,1.93206115723,0.157416572256,0.217282812856,0.96259730516,-0.0376116842979
2021/03/16/14:41:52.234623,899303,1615902112,238171101,mocap,-2.78561767578,10.3616767578,1.93203735352,0.15766892005,0.217481326927,0.962507392186,-0.037708147924
2021/03/16/14:41:52.244236,899304,1615902112,248171091,mocap,-2.78540185547,10.3615595703,1.93206188965,0.157960993398,0.21763703882,0.962423733687,-0.0377224489551
2021/03/16/14:41:52.254771,899305,1615902112,258171082,mocap,-2.78518115234,10.3614599609,1.93215612793,0.157928570791,0.217569915088,0.962444782531,-0.0377086189857
2021/03/16/14:41:52.263907,899306,1615902112,268171072,mocap,-2.78492333984,10.3612822266,1.93214855957,0.15791355109,0.217613843534,0.962439696479,-0.0376477903093
2021/03/16/14:41:52.274536,899307,1615902112,278171062,mocap,-2.78458105469,10.3610732422,1.93212402344,0.158027056451,0.217973767346,0.962341949256,-0.0375880035131
2021/03/16/14:41:52.285481,899308,1615902112,288171053,mocap,-2.78429248047,10.360875,1.93221044922,0.157877877987,0.218227758702,0.962314077169,-0.0374545392607
2021/03/16/14:41:52.294546,899309,1615902112,298171043,mocap,-2.78394433594,10.3606640625,1.93223400879,0.157802852343,0.218460597414,0.96227764094,-0.0373493515513
2021/03/16/14:41:52.304307,899310,1615902112,308171034,mocap,-2.78359521484,10.3604140625,1.93223449707,0.158033763727,0.218878861709,0.962139207855,-0.0374903517646
2021/03/16/14:41:52.314275,899311,1615902112,318171024,mocap,-2.78323193359,10.3601474609,1.93233605957,0.157867217302,0.219215375205,0.96210226164,-0.0371726654494
2021/03/16/14:41:52.324273,899312,1615902112,328171015,mocap,-2.78291137695,10.3599179688,1.93235974121,0.158170575946,0.219645072094,0.961946012479,-0.0373895388578
2021/03/16/14:41:52.334424,899313,1615902112,338171005,mocap,-2.78254638672,10.3596357422,1.93233825684,0.158606470278,0.220071645732,0.961772842497,-0.0374894002717
2021/03/16/14:41:52.344231,899314,1615902112,348170996,mocap,-2.78215527344,10.3593476562,1.93235803223,0.15897111519,0.220341007874,0.961642789591,-0.0376982799225
2021/03/16/14:41:52.354240,899315,1615902112,358170986,mocap,-2.78176367187,10.3590039063,1.93235205078,0.158941004015,0.220872395861,0.961527728424,-0.0376507899272
2021/03/16/14:41:52.363990,899316,1615902112,368170977,mocap,-2.78132763672,10.3586357422,1.93238244629,0.159144065374,0.221445964609,0.961353669337,-0.0378678964154
2021/03/16/14:41:52.374367,899317,1615902112,378171206,mocap,-2.78083569336,10.3581855469,1.93239929199,0.158640386005,0.221940962672,0.96133906805,-0.0374516764569
2021/03/16/14:41:52.386158,899318,1615902112,388171196,mocap,-2.78043286133,10.3577705078,1.93238977051,0.158848929137,0.222518497298,0.961162191964,-0.0376799825633
2021/03/16/14:41:52.394167,899319,1615902112,398171186,mocap,-2.78001000977,10.3572802734,1.93235412598,0.159095772626,0.222873858983,0.961035746693,-0.0377633783332
2021/03/16/14:41:52.406153,899320,1615902112,408171177,mocap,-2.77952563477,10.3567490234,1.93234143066,0.158952843201,0.22329093718,0.960971211408,-0.0375430481378
2021/03/16/14:41:52.414185,899321,1615902112,418171167,mocap,-2.77904907227,10.3561875,1.93237133789,0.158794604426,0.223840126019,0.96086496374,-0.0376615634817
2021/03/16/14:41:52.426149,899322,1615902112,428171158,mocap,-2.77854272461,10.3555927734,1.93234741211,0.158658884857,0.224231182741,0.96079147594,-0.0377819316452
2021/03/16/14:41:52.434143,899323,1615902112,438171148,mocap,-2.77807885742,10.3550175781,1.93235107422,0.159075014956,0.224519508079,0.960631988775,-0.0383706020501
2021/03/16/14:41:52.446048,899324,1615902112,448171139,mocap,-2.77747485352,10.3543125,1.93230224609,0.158871383725,0.224969216586,0.960581760153,-0.0378340261662
2021/03/16/14:41:52.454408,899325,1615902112,458171129,mocap,-2.77689990234,10.3536669922,1.93226281738,0.158791406289,0.225307129449,0.960511485313,-0.037943040236
2021/03/16/14:41:52.465899,899326,1615902112,468171120,mocap,-2.77633520508,10.3529667969,1.93220373535,0.158856897494,0.226125698329,0.960321864968,-0.0375975347952
2021/03/16/14:41:52.474329,899327,1615902112,478171110,mocap,-2.77575512695,10.3522783203,1.93221032715,0.15890489471,0.226559406803,0.960205000531,-0.0377680560239
2021/03/16/14:41:52.485778,899328,1615902112,488171101,mocap,-2.77513745117,10.3515322266,1.93216149902,0.159059355645,0.227196953785,0.960032183932,-0.0376810822069
2021/03/16/14:41:52.494236,899329,1615902112,498171091,mocap,-2.77449951172,10.3508095703,1.93207531738,0.15918366517,0.227695810892,0.959889864304,-0.0377708416287
2021/03/16/14:41:52.505987,899330,1615902112,508171082,mocap,-2.77380810547,10.3500234375,1.93199743652,0.159235323366,0.228398004219,0.959723838173,-0.0375315280195
2021/03/16/14:41:52.514189,899331,1615902112,518171072,mocap,-2.773171875,10.3492412109,1.93190869141,0.15926424091,0.229090727031,0.959568902156,-0.0371464503411
2021/03/16/14:41:52.524824,899332,1615902112,528171062,mocap,-2.77247558594,10.3484423828,1.93180554199,0.159320437869,0.229877923385,0.959380174989,-0.0369162737362
2021/03/16/14:41:52.534616,899333,1615902112,538171053,mocap,-2.77180175781,10.3476357422,1.93175476074,0.159103008489,0.230540023481,0.959272819073,-0.0365127488077
2021/03/16/14:41:52.545978,899334,1615902112,548171043,mocap,-2.77112060547,10.3467373047,1.93170227051,0.159208596493,0.231244655732,0.959084290002,-0.0365493274576
2021/03/16/14:41:52.554413,899335,1615902112,558171034,mocap,-2.77033666992,10.3458076172,1.93154833984,0.158973030803,0.231870176683,0.958984297308,-0.0362341194169
2021/03/16/14:41:52.565561,899336,1615902112,568171024,mocap,-2.76962695312,10.3448720703,1.93142919922,0.158763968285,0.232618549509,0.958864441498,-0.0355189990629
2021/03/16/14:41:52.574282,899337,1615902112,578171015,mocap,-2.76888183594,10.3438720703,1.9313059082,0.15887913001,0.233137955438,0.958724792838,-0.0353677618547
2021/03/16/14:41:52.585572,899338,1615902112,588171005,mocap,-2.76808837891,10.3428691406,1.93117138672,0.15912063399,0.233474612576,0.958602432983,-0.0353780503334
2021/03/16/14:41:52.594142,899339,1615902112,598170996,mocap,-2.76723657227,10.3417783203,1.93097033691,0.158791900224,0.23409947262,0.958517570857,-0.0350234157065
2021/03/16/14:41:52.605667,899340,1615902112,608170986,mocap,-2.76642602539,10.3406943359,1.93085388184,0.158365941041,0.234457723325,0.958521130896,-0.0344535380393
2021/03/16/14:41:52.613991,899341,1615902112,618170977,mocap,-2.76561352539,10.3397070313,1.93087646484,0.1580583896,0.235636434159,0.958304232003,-0.0338529144092
2021/03/16/14:41:52.625681,899342,1615902112,628171206,mocap,-2.76469165039,10.3384365234,1.93044641113,0.158815689306,0.235538046342,0.958196802192,-0.0340336702687
2021/03/16/14:41:52.633906,899343,1615902112,638171196,mocap,-2.76376171875,10.3372675781,1.93029675293,0.158478123385,0.236053986991,0.958134478518,-0.0337864821017
2021/03/16/14:41:52.645333,899344,1615902112,648171186,mocap,-2.76282788086,10.3360761719,1.93008569336,0.158297582917,0.236437090983,0.958079375259,-0.0335154228885
2021/03/16/14:41:52.654248,899345,1615902112,658171177,mocap,-2.76189331055,10.33490625,1.92988525391,0.158686712838,0.237047038335,0.957873507077,-0.0332502818147
2021/03/16/14:41:52.665542,899346,1615902112,668171167,mocap,-2.76094824219,10.3336923828,1.92969348145,0.158295514061,0.237550527867,0.957816693046,-0.0331580004086
2021/03/16/14:41:52.674325,899347,1615902112,678171158,mocap,-2.75998754883,10.3324521484,1.92960388184,0.1575735769,0.239055711654,0.957587574784,-0.032387637869
2021/03/16/14:41:52.685509,899348,1615902112,688171148,mocap,-2.75893676758,10.3310634766,1.92919458008,0.158265977831,0.23871897455,0.957554810228,-0.0324641917711
2021/03/16/14:41:52.694046,899349,1615902112,698171139,mocap,-2.75792895508,10.3297011719,1.92891589355,0.158300656948,0.239190951832,0.957439499019,-0.0322209964439
2021/03/16/14:41:52.705345,899350,1615902112,708171129,mocap,-2.75696826172,10.3283994141,1.92885974121,0.157245948484,0.240495353268,0.957306483648,-0.0316227091036
2021/03/16/14:41:52.714285,899351,1615902112,718171120,mocap,-2.75581640625,10.3267978516,1.92837524414,0.157912151998,0.239787137645,0.957361600263,-0.0320103171813
2021/03/16/14:41:52.724209,899352,1615902112,728171110,mocap,-2.7548371582,10.3253720703,1.92824633789,0.157079651175,0.240893818321,0.957247199782,-0.0312081980418
2021/03/16/14:41:52.735342,899353,1615902112,738171101,mocap,-2.75375537109,10.3236738281,1.92778283691,0.15773018087,0.240517681048,0.957228363913,-0.0314054757218
2021/03/16/14:41:52.744286,899354,1615902112,748171091,mocap,-2.75265820313,10.3221425781,1.92774816895,0.156277161886,0.241078214684,0.957346338835,-0.0307689220403
2021/03/16/14:41:52.754310,899355,1615902112,758171082,mocap,-2.75153173828,10.3202666016,1.92710693359,0.15743470093,0.240423505483,0.957315270455,-0.0309568801667
2021/03/16/14:41:52.766294,899356,1615902112,768171072,mocap,-2.75049365234,10.3186445312,1.9269921875,0.156417325026,0.24123029625,0.957296755026,-0.0304055285695
2021/03/16/14:41:52.774039,899357,1615902112,778171062,mocap,-2.74928979492,10.316671875,1.92648925781,0.156959782843,0.240333546192,0.957426184306,-0.030635137403
2021/03/16/14:41:52.786106,899358,1615902112,788171053,mocap,-2.74820166016,10.3148339844,1.92618481445,0.155774872188,0.241106656399,0.957448914923,-0.0298888838075
2021/03/16/14:41:52.794398,899359,1615902112,798171043,mocap,-2.74708374023,10.3127705078,1.92569299316,0.156805384268,0.239656004652,0.95763029696,-0.030352440804
2021/03/16/14:41:52.806099,899360,1615902112,808171034,mocap,-2.7459543457,10.3106640625,1.92518933105,0.156331290827,0.239370791107,0.95779117853,-0.0299701548025
2021/03/16/14:41:52.813992,899361,1615902112,818171024,mocap,-2.74482788086,10.3084960937,1.92466320801,0.155998712432,0.238455790731,0.95808355905,-0.0296502215234
2021/03/16/14:41:52.826139,899362,1615902112,828171015,mocap,-2.74378613281,10.3062197266,1.92413024902,0.155900434651,0.237630617999,0.95830997753,-0.0294742595487
2021/03/16/14:41:52.834210,899363,1615902112,838171005,mocap,-2.74273486328,10.3039121094,1.92346032715,0.155622365058,0.236336911613,0.958678140322,-0.029373058098
2021/03/16/14:41:52.846019,899364,1615902112,848170996,mocap,-2.74158618164,10.3015224609,1.92269555664,0.155493590201,0.235174787709,0.958991444983,-0.0291540415679
2021/03/16/14:41:52.854207,899365,1615902112,858170986,mocap,-2.74053833008,10.2990605469,1.92182080078,0.154617686384,0.233719922695,0.959497543672,-0.0288589199083
2021/03/16/14:41:52.865853,899366,1615902112,868170977,mocap,-2.73953125,10.2965644531,1.92085668945,0.154234412434,0.232059533926,0.959966440272,-0.0287150772375
2021/03/16/14:41:52.874175,899367,1615902112,878171206,mocap,-2.73858959961,10.2940878906,1.91977026367,0.154268052179,0.230753824781,0.960272093412,-0.0288366942811
2021/03/16/14:41:52.885717,899368,1615902112,888171196,mocap,-2.73750805664,10.2915136719,1.91871691895,0.153763254254,0.229176368209,0.960750980418,-0.0281534387797
2021/03/16/14:41:52.894565,899369,1615902112,898171186,mocap,-2.73659887695,10.288984375,1.91762060547,0.153213778878,0.227808895833,0.96117063346,-0.0279222822292
2021/03/16/14:41:52.905874,899370,1615902112,908171177,mocap,-2.7356628418,10.2863535156,1.91653771973,0.152935399395,0.226336255357,0.96157229011,-0.0275934075092
2021/03/16/14:41:52.914235,899371,1615902112,918171167,mocap,-2.73480395508,10.2837470703,1.91566455078,0.152041882426,0.224875598246,0.962072632398,-0.0270274837281
2021/03/16/14:41:52.925987,899372,1615902112,928171158,mocap,-2.73392871094,10.2810664062,1.91484423828,0.151044036683,0.223350481828,0.962603295964,-0.0263660238161
2021/03/16/14:41:52.934228,899373,1615902112,938171148,mocap,-2.73307788086,10.2783798828,1.91407495117,0.150725626661,0.221913282878,0.963001716813,-0.025767528356
2021/03/16/14:41:52.945894,899374,1615902112,948171139,mocap,-2.73227587891,10.2757373047,1.91341503906,0.150375541534,0.220289396822,0.963437387477,-0.0254592357229
2021/03/16/14:41:52.954076,899375,1615902112,958171129,mocap,-2.73145825195,10.27309375,1.91277075195,0.149927197649,0.219150051559,0.963779511179,-0.0249830388458
2021/03/16/14:41:52.965566,899376,1615902112,968171120,mocap,-2.73069091797,10.2705195313,1.91226025391,0.149636935636,0.217936128908,0.964106699086,-0.0247166826095
2021/03/16/14:41:52.974205,899377,1615902112,978171110,mocap,-2.72988867187,10.2679882813,1.91167285156,0.149518827132,0.217454368006,0.964245838742,-0.0242420506891
2021/03/16/14:41:52.985557,899378,1615902112,988171101,mocap,-2.72912255859,10.2655615234,1.9113190918,0.149234064908,0.217042542299,0.964393448866,-0.0238118342469
2021/03/16/14:41:52.994068,899379,1615902112,998171091,mocap,-2.72840942383,10.2631035156,1.9110748291,0.14924680826,0.216972564227,0.964415489936,-0.0234747223852
2021/03/16/14:41:53.005553,899380,1615902113,8171082,mocap,-2.72772583008,10.2606728516,1.9108659668,0.149258829589,0.217129907922,0.964385985845,-0.0231534540873
2021/03/16/14:41:53.014276,899381,1615902113,18171072,mocap,-2.72704907227,10.2582275391,1.91085168457,0.14929631688,0.21715525554,0.964388767102,-0.0225501504687
2021/03/16/14:41:53.025467,899382,1615902113,28171062,mocap,-2.72641943359,10.2557607422,1.91090979004,0.14938869591,0.217505325916,0.964299724271,-0.0223715084903
2021/03/16/14:41:53.034361,899383,1615902113,38171053,mocap,-2.72577026367,10.2532109375,1.91098181152,0.14990070846,0.217702977555,0.964180992857,-0.0221402670977
2021/03/16/14:41:53.045455,899384,1615902113,48171043,mocap,-2.72519433594,10.2506806641,1.91117321777,0.149882849391,0.217986556917,0.964125176468,-0.02190060334
2021/03/16/14:41:53.054172,899385,1615902113,58171034,mocap,-2.72460473633,10.2480664063,1.91137585449,0.150207350312,0.218595573777,0.963944313187,-0.0215659924711
2021/03/16/14:41:53.065495,899386,1615902113,68171024,mocap,-2.72413500977,10.2454316406,1.91159106445,0.150558642713,0.219291707223,0.963735646835,-0.021373835118
2021/03/16/14:41:53.074224,899387,1615902113,78171015,mocap,-2.7236652832,10.2426894531,1.91184667969,0.150894153461,0.219771440255,0.963580830096,-0.0210582921335
2021/03/16/14:41:53.085262,899388,1615902113,88171005,mocap,-2.72329418945,10.2398671875,1.91212902832,0.150835177938,0.220220668502,0.963494303115,-0.0207443538352
2021/03/16/14:41:53.094294,899389,1615902113,98170996,mocap,-2.72290429687,10.2368808594,1.91232275391,0.1510588463,0.220876501927,0.963316971982,-0.0203768682219
2021/03/16/14:41:53.105351,899390,1615902113,108170986,mocap,-2.72261450195,10.2337666016,1.91256848145,0.151160533376,0.220714363677,0.96334001218,-0.0202901237553
2021/03/16/14:41:53.114200,899391,1615902113,118170977,mocap,-2.72231884766,10.2304570312,1.9127791748,0.151381025071,0.220455021475,0.963366787308,-0.0201941278735
2021/03/16/14:41:53.124143,899392,1615902113,128171206,mocap,-2.72204003906,10.2269873047,1.91288769531,0.151660631224,0.220002250392,0.963424789798,-0.020266969863
2021/03/16/14:41:53.136267,899393,1615902113,138171196,mocap,-2.72178271484,10.2233417969,1.91294775391,0.151944286242,0.219425481581,0.963513147946,-0.0201940446707
2021/03/16/14:41:53.144272,899394,1615902113,148171186,mocap,-2.72160473633,10.2195361328,1.91300268555,0.151962556541,0.218879484711,0.963638332604,-0.0200077639808
2021/03/16/14:41:53.156145,899395,1615902113,158171177,mocap,-2.72147070313,10.2156445312,1.91298120117,0.15194140657,0.218017629647,0.963841021491,-0.0198142716396
2021/03/16/14:41:53.164219,899396,1615902113,168171167,mocap,-2.72137573242,10.2115673828,1.9128145752,0.15229232201,0.217224170622,0.963969247472,-0.019595774789
2021/03/16/14:41:53.176183,899397,1615902113,178171158,mocap,-2.72140356445,10.2073378906,1.9126192627,0.152121503795,0.216434756737,0.964184493348,-0.0190608222588
2021/03/16/14:41:53.184154,899398,1615902113,188171148,mocap,-2.72141918945,10.203046875,1.91242163086,0.151648295998,0.215494078897,0.964477121913,-0.0186810088438
2021/03/16/14:41:53.196155,899399,1615902113,198171139,mocap,-2.72146704102,10.1986416016,1.91199645996,0.151624599666,0.214922838742,0.964618664329,-0.0181380878902
2021/03/16/14:41:53.204020,899400,1615902113,208171129,mocap,-2.72156811523,10.1941455078,1.91163537598,0.151407382735,0.214391943615,0.964778782128,-0.0177146922763
2021/03/16/14:41:53.216169,899401,1615902113,218171120,mocap,-2.72170019531,10.1895273437,1.91111450195,0.1512204813,0.213991989995,0.964904860442,-0.0172744902547
2021/03/16/14:41:53.224092,899402,1615902113,228171110,mocap,-2.72182324219,10.1848486328,1.9105267334,0.151264125698,0.213946147938,0.964915338555,-0.0168700403917
2021/03/16/14:41:53.235667,899403,1615902113,238171101,mocap,-2.72200292969,10.1801201172,1.9099263916,0.151273131376,0.214018391451,0.964910250082,-0.0161481424472
2021/03/16/14:41:53.244515,899404,1615902113,248171091,mocap,-2.7221953125,10.1752724609,1.90927355957,0.151465358922,0.214104159042,0.964871881052,-0.0154887337967
2021/03/16/14:41:53.255918,899405,1615902113,258171082,mocap,-2.72240991211,10.1703203125,1.90849169922,0.151415233876,0.214535572229,0.964792134375,-0.0149682287909
2021/03/16/14:41:53.265837,899406,1615902113,268171072,mocap,-2.72263916016,10.1653095703,1.90770861816,0.151363477577,0.214978130999,0.96471308391,-0.0142189355418
2021/03/16/14:41:53.274324,899407,1615902113,278171062,mocap,-2.72294433594,10.1602099609,1.90699133301,0.151497455769,0.215334242364,0.964621329057,-0.0136152468515
2021/03/16/14:41:53.284985,899408,1615902113,288171053,mocap,-2.72327490234,10.1549208984,1.90614550781,0.151741784439,0.215749277861,0.964499655459,-0.0129264780665
2021/03/16/14:41:53.296168,899409,1615902113,298171043,mocap,-2.72359741211,10.1495595703,1.90525598145,0.152139643806,0.216220070993,0.964340542062,-0.0122362693262
2021/03/16/14:41:53.304704,899410,1615902113,308171034,mocap,-2.7240090332,10.1440761719,1.90445129395,0.151932348367,0.217105791852,0.964186000178,-0.0112699395096
2021/03/16/14:41:53.315936,899411,1615902113,318171024,mocap,-2.72444702148,10.1385097656,1.90360998535,0.152089080974,0.217384403298,0.964107672809,-0.0104565653417
2021/03/16/14:41:53.324240,899412,1615902113,328171015,mocap,-2.72486767578,10.1327617188,1.9026496582,0.15287006627,0.218011081621,0.963846594872,-0.0100824535169
2021/03/16/14:41:53.334171,899413,1615902113,338171005,mocap,-2.72540185547,10.1269101563,1.9018112793,0.152989742349,0.218506780252,0.963720903823,-0.00953681075751
2021/03/16/14:41:53.345604,899414,1615902113,348170996,mocap,-2.72598974609,10.1210126953,1.90094641113,0.152894336341,0.21915169054,0.96359847477,-0.00859248401238
2021/03/16/14:41:53.354296,899415,1615902113,358170986,mocap,-2.72651782227,10.1149785156,1.90000671387,0.153174864876,0.219855040791,0.963395966864,-0.00833308373985
2021/03/16/14:41:53.365541,899416,1615902113,368170977,mocap,-2.72719165039,10.1087851563,1.89907189941,0.153283692697,0.220811072268,0.963167518281,-0.00741106172912
2021/03/16/14:41:53.374298,899417,1615902113,378171206,mocap,-2.72790283203,10.1025488281,1.89819116211,0.153539865097,0.221608262916,0.962946559372,-0.00701456061433
2021/03/16/14:41:53.385816,899418,1615902113,388171196,mocap,-2.72862548828,10.0961611328,1.8972644043,0.153647729912,0.222703101518,0.962679423911,-0.00663539966337
2021/03/16/14:41:53.394184,899419,1615902113,398171186,mocap,-2.72947363281,10.0896699219,1.89642919922,0.154043652639,0.223696303695,0.962390111868,-0.00598221712557
2021/03/16/14:41:53.405687,899420,1615902113,408171177,mocap,-2.73027099609,10.0830371094,1.89560681152,0.153854726271,0.224356613954,0.962267234759,-0.00588235063073
2021/03/16/14:41:53.414106,899421,1615902113,418171167,mocap,-2.73123339844,10.0763662109,1.89481982422,0.154169627806,0.225172748788,0.962029147162,-0.00537442229228
2021/03/16/14:41:53.425564,899422,1615902113,428171158,mocap,-2.73220361328,10.0695712891,1.89408654785,0.153874745469,0.226129644384,0.961851863496,-0.00537886085204
2021/03/16/14:41:53.435351,899423,1615902113,438171148,mocap,-2.73323950195,10.0626347656,1.89338708496,0.154017412618,0.226994921789,0.961627743317,-0.00490021631814
2021/03/16/14:41:53.445524,899424,1615902113,448171139,mocap,-2.73431103516,10.0556025391,1.8927902832,0.154024092317,0.227820783333,0.961431198144,-0.00493107289496
2021/03/16/14:41:53.454453,899425,1615902113,458171129,mocap,-2.7354440918,10.0485029297,1.89218383789,0.153976488537,0.228954627897,0.961171106305,-0.00459543119102
2021/03/16/14:41:53.464097,899426,1615902113,468171120,mocap,-2.7365871582,10.0413603516,1.89168115234,0.153649792638,0.230173271977,0.960932328435,-0.00458920824192
2021/03/16/14:41:53.474552,899427,1615902113,478171110,mocap,-2.73782958984,10.0340205078,1.89129858398,0.153823747848,0.231309543692,0.960632523933,-0.00439460595652
2021/03/16/14:41:53.486338,899428,1615902113,488171101,mocap,-2.73905981445,10.0266191406,1.8908671875,0.153669274816,0.232531138706,0.960361486403,-0.00456602790695
2021/03/16/14:41:53.494621,899429,1615902113,498171091,mocap,-2.74037939453,10.0191494141,1.89059448242,0.153500955658,0.233516293855,0.960150489448,-0.00431605787594
2021/03/16/14:41:53.505394,899430,1615902113,508171082,mocap,-2.74167919922,10.0116015625,1.89047338867,0.153332275475,0.234537708439,0.959927392414,-0.00454832973966
2021/03/16/14:41:53.515037,899431,1615902113,518171072,mocap,-2.74306201172,10.0039462891,1.89030773926,0.153543131429,0.235754897831,0.959594586805,-0.00473000595681
2021/03/16/14:41:53.524415,899432,1615902113,528171062,mocap,-2.74440771484,9.99618359375,1.89039050293,0.153087669267,0.237041603789,0.959348861823,-0.00502016033148
2021/03/16/14:41:53.535088,899433,1615902113,538171053,mocap,-2.74592822266,9.98838378906,1.89082397461,0.152898503261,0.238850422927,0.958930198553,-0.00503919094243
2021/03/16/14:41:53.544209,899434,1615902113,548171043,mocap,-2.74741186523,9.98053515625,1.89154931641,0.152584579718,0.240605424411,0.958540330003,-0.00523492222349
2021/03/16/14:41:53.555005,899435,1615902113,558171034,mocap,-2.74893212891,9.97253027344,1.89251904297,0.152845443003,0.242448506563,0.958032745752,-0.00549991537375
2021/03/16/14:41:53.563981,899436,1615902113,568171024,mocap,-2.75045947266,9.96438769531,1.89366479492,0.152520222243,0.243638788671,0.95777919114,-0.00606095496317
2021/03/16/14:41:53.574187,899437,1615902113,578171015,mocap,-2.75187304688,9.95613769531,1.89484692383,0.153388004735,0.244789007737,0.957342066215,-0.00682879563014
2021/03/16/14:41:53.586080,899438,1615902113,588171005,mocap,-2.75339282227,9.94769628906,1.89619458008,0.15349356413,0.24555797813,0.957118851681,-0.00803218518461
2021/03/16/14:41:53.594311,899439,1615902113,598170996,mocap,-2.75490551758,9.93927441406,1.89777770996,0.153779491433,0.2462297981,0.956892984484,-0.00886409134379
2021/03/16/14:41:53.605984,899440,1615902113,608170986,mocap,-2.7564362793,9.93072070313,1.89954858398,0.153495144266,0.246442451234,0.956876251748,-0.00965441466929
2021/03/16/14:41:53.614302,899441,1615902113,618170977,mocap,-2.75803564453,9.92213085938,1.90146240234,0.1536549552,0.246623145846,0.956789772554,-0.0109776247056
2021/03/16/14:41:53.624050,899442,1615902113,628171206,mocap,-2.75958496094,9.91347753906,1.90338110352,0.153135137804,0.246151099882,0.95698467842,-0.0118152509725
2021/03/16/14:41:53.634646,899443,1615902113,638171196,mocap,-2.76109960937,9.90475097656,1.9052644043,0.153067891416,0.245344704587,0.957186651264,-0.0130351066115
2021/03/16/14:41:53.645687,899444,1615902113,648171186,mocap,-2.76254272461,9.89597753906,1.90700695801,0.153050790252,0.244039820308,0.957504389058,-0.0143304782971
2021/03/16/14:41:53.655862,899445,1615902113,658171177,mocap,-2.76393457031,9.8873125,1.90855944824,0.153009461517,0.242277714877,0.957933638848,-0.0158985773878
2021/03/16/14:41:53.664048,899446,1615902113,668171167,mocap,-2.76525830078,9.87864453125,1.90996020508,0.1530170368,0.240748593195,0.958292251031,-0.0173739179268
2021/03/16/14:41:53.675825,899447,1615902113,678171158,mocap,-2.76645727539,9.87015039062,1.91110424805,0.152414826049,0.239503326783,0.958676438313,-0.0186377285089
2021/03/16/14:41:53.684463,899448,1615902113,688171148,mocap,-2.76769677734,9.86178027344,1.91213916016,0.152746559989,0.238639612639,0.958813226659,-0.0199206587274
2021/03/16/14:41:53.696225,899449,1615902113,698171139,mocap,-2.76878125,9.85355175781,1.91307214355,0.152385570784,0.237982469578,0.959011419346,-0.0209781213824
2021/03/16/14:41:53.703872,899450,1615902113,708171129,mocap,-2.76984545898,9.84545214844,1.91381469727,0.152585715775,0.237730979007,0.959012545854,-0.0222823425599
2021/03/16/14:41:53.714779,899451,1615902113,718171120,mocap,-2.77081762695,9.83739355469,1.91446459961,0.152665575929,0.237675864227,0.95900023189,-0.0228468055935
2021/03/16/14:41:53.725551,899452,1615902113,728171110,mocap,-2.77172900391,9.82942285156,1.91510644531,0.152063545612,0.237681130424,0.959073150006,-0.0237286670139
2021/03/16/14:41:53.734076,899453,1615902113,738171101,mocap,-2.77255712891,9.8214453125,1.9155904541,0.151926946763,0.237690973694,0.959071611838,-0.0245528868259
2021/03/16/14:41:53.745654,899454,1615902113,748171091,mocap,-2.77332592773,9.81353027344,1.91601086426,0.152092734801,0.23804690435,0.958938123594,-0.025281510899
2021/03/16/14:41:53.754181,899455,1615902113,758171082,mocap,-2.77399658203,9.80565527344,1.91650585937,0.151905421755,0.238140052179,0.958920486404,-0.0261832324318
2021/03/16/14:41:53.765466,899456,1615902113,768171072,mocap,-2.7746394043,9.7977890625,1.91697644043,0.15178747982,0.238261774974,0.958877075781,-0.0273246960568
2021/03/16/14:41:53.774266,899457,1615902113,778171062,mocap,-2.77518041992,9.78990039063,1.91742480469,0.151693511566,0.238583026747,0.958784715802,-0.0282680956099
2021/03/16/14:41:53.784279,899458,1615902113,788171053,mocap,-2.77567480469,9.78196191406,1.91795983887,0.151704647,0.238526002492,0.958770572735,-0.0291551209229
2021/03/16/14:41:53.794286,899459,1615902113,798171043,mocap,-2.77610180664,9.77414746094,1.91869946289,0.151657845426,0.238935458335,0.958646703189,-0.0301037723765
2021/03/16/14:41:53.805169,899460,1615902113,808171034,mocap,-2.77641577148,9.76616308594,1.91936547852,0.151868207546,0.238650312449,0.958645047756,-0.0313329338783
2021/03/16/14:41:53.814076,899461,1615902113,818171024,mocap,-2.77671362305,9.75813964844,1.92001379395,0.152334204731,0.237476452522,0.958812340807,-0.0328346155523
2021/03/16/14:41:53.825573,899462,1615902113,828171015,mocap,-2.77691259766,9.75013769531,1.92084130859,0.152138991988,0.237063668978,0.958916399503,-0.0336730756827
2021/03/16/14:41:53.834367,899463,1615902113,838171005,mocap,-2.77708007813,9.74213769531,1.92171826172,0.152810550701,0.236595208237,0.958878124745,-0.0349911721854
2021/03/16/14:41:53.845326,899464,1615902113,848170996,mocap,-2.77720141602,9.73418847656,1.92268615723,0.1531684369,0.236135094426,0.958898000459,-0.0359759905486
2021/03/16/14:41:53.854142,899465,1615902113,858170986,mocap,-2.77727392578,9.72629394531,1.92376757813,0.15310314861,0.236167893696,0.958871900873,-0.0367263011008
2021/03/16/14:41:53.865290,899466,1615902113,868170977,mocap,-2.77730395508,9.71840332031,1.92469360352,0.153402754157,0.235993080464,0.958824229805,-0.0378279154117
2021/03/16/14:41:53.874231,899467,1615902113,878171206,mocap,-2.77732397461,9.71048242187,1.92563647461,0.15369116115,0.235606263986,0.958829443822,-0.0389205583212
2021/03/16/14:41:53.886374,899468,1615902113,888171196,mocap,-2.77724780273,9.70251660156,1.92651989746,0.154069272655,0.235579007301,0.95874129126,-0.0397532034318
2021/03/16/14:41:53.894377,899469,1615902113,898171186,mocap,-2.77714697266,9.69464550781,1.92736315918,0.154578951632,0.235527151999,0.958633444103,-0.0406721286584
2021/03/16/14:41:53.906055,899470,1615902113,908171177,mocap,-2.77704467773,9.68671679688,1.92808837891,0.155189890878,0.235827408615,0.958426769857,-0.0414687676439
2021/03/16/14:41:53.914207,899471,1615902113,918171167,mocap,-2.77690332031,9.67884277344,1.9287869873,0.155733813134,0.236259616915,0.958194593912,-0.042325903349
2021/03/16/14:41:53.925306,899472,1615902113,928171158,mocap,-2.77672143555,9.67091992188,1.92925219727,0.1565979759,0.23686789163,0.957865635454,-0.0431753278704
2021/03/16/14:41:53.935262,899473,1615902113,938171148,mocap,-2.77653588867,9.66298730469,1.9296550293,0.157122919475,0.237747926666,0.957533747263,-0.0437884869089
2021/03/16/14:41:53.944180,899474,1615902113,948171139,mocap,-2.77635913086,9.65505761719,1.92996972656,0.15767696043,0.238457578574,0.957229951745,-0.0445733195298
2021/03/16/14:41:53.955363,899475,1615902113,958171129,mocap,-2.77616357422,9.64708789063,1.93009716797,0.158068008148,0.239628215932,0.956841664123,-0.0452420198187
2021/03/16/14:41:53.964137,899476,1615902113,968171120,mocap,-2.77597314453,9.63903222656,1.93003601074,0.158824063522,0.240705002527,0.956401991764,-0.0461654217095
2021/03/16/14:41:53.974910,899477,1615902113,978171110,mocap,-2.77579907227,9.63093652344,1.92987231445,0.15930199762,0.241830462185,0.956008255389,-0.0467879958898
2021/03/16/14:41:53.984492,899478,1615902113,988171101,mocap,-2.77555541992,9.62274804687,1.92951000977,0.159591992542,0.243196983124,0.955598537273,-0.0470856838333
2021/03/16/14:41:53.994936,899479,1615902113,998171091,mocap,-2.77533447266,9.6145,1.92895483398,0.160386896259,0.244573279875,0.955087314554,-0.0476254249838
2021/03/16/14:41:54.004149,899480,1615902114,8171082,mocap,-2.77513085937,9.60621875,1.92825683594,0.160893391014,0.245871324913,0.954637835533,-0.0482411822093
2021/03/16/14:41:54.015903,899481,1615902114,18171072,mocap,-2.77493725586,9.59785644531,1.92738806152,0.161143709065,0.2474045853,0.954177509827,-0.0486718682601
2021/03/16/14:41:54.024336,899482,1615902114,28171062,mocap,-2.77470556641,9.58938769531,1.92627319336,0.161737501082,0.248995358323,0.953642063908,-0.0490825403031
2021/03/16/14:41:54.036066,899483,1615902114,38171053,mocap,-2.77453466797,9.58085546875,1.92509460449,0.161660173823,0.250754363658,0.953194529702,-0.0490757511816
2021/03/16/14:41:54.044084,899484,1615902114,48171043,mocap,-2.77427124023,9.572234375,1.92365808105,0.162346813575,0.2520463123,0.952697110669,-0.0498435502207
2021/03/16/14:41:54.056466,899485,1615902114,58171034,mocap,-2.77402075195,9.56353320313,1.92207287598,0.162933556154,0.253679773376,0.952145401387,-0.0501833246649
2021/03/16/14:41:54.064241,899486,1615902114,68171024,mocap,-2.77383666992,9.55474609375,1.92045849609,0.16254679179,0.255409536886,0.951771259428,-0.0497592300842
2021/03/16/14:41:54.075890,899487,1615902114,78171015,mocap,-2.77355712891,9.54582617187,1.9185612793,0.1636389208,0.256840903021,0.951175329371,-0.0502049822921
2021/03/16/14:41:54.084322,899488,1615902114,88171005,mocap,-2.77338085938,9.53686035156,1.91675256348,0.16327506265,0.258112155926,0.950915856342,-0.0497835354554
2021/03/16/14:41:54.095636,899489,1615902114,98170996,mocap,-2.773,9.52772460937,1.91456079102,0.164519529186,0.259467111055,0.950299185773,-0.0504143599555
2021/03/16/14:41:54.104170,899490,1615902114,108170986,mocap,-2.77276416016,9.51856640625,1.9125736084,0.163848320851,0.260960014822,0.950033881813,-0.0498920244431
2021/03/16/14:41:54.115820,899491,1615902114,118170977,mocap,-2.77236254883,9.50928710938,1.91030444336,0.164969139051,0.262047589063,0.949518517463,-0.0503073321792
2021/03/16/14:41:54.124163,899492,1615902114,128171206,mocap,-2.77205004883,9.49998046875,1.90822058105,0.164289098553,0.263437497539,0.949290308198,-0.0495750427247
2021/03/16/14:41:54.135660,899493,1615902114,138171196,mocap,-2.77167919922,9.49057128906,1.90601501465,0.165383166311,0.264834324489,0.948688123291,-0.0500203104927
2021/03/16/14:41:54.144369,899494,1615902114,148171186,mocap,-2.77131152344,9.48114453125,1.90404504395,0.165545555994,0.266280525463,0.948268116087,-0.0497687736153
2021/03/16/14:41:54.155698,899495,1615902114,158171177,mocap,-2.77099121094,9.4715859375,1.90226098633,0.164696302586,0.267716876234,0.948059622322,-0.0488441868956
2021/03/16/14:41:54.164881,899496,1615902114,168171167,mocap,-2.77057617188,9.46183984375,1.90054077148,0.16459424586,0.269015005666,0.947727790642,-0.0484942025552
2021/03/16/14:41:54.174345,899497,1615902114,178171158,mocap,-2.77009033203,9.45211523438,1.89910681152,0.164480340854,0.269765147337,0.947561182535,-0.0479665205212
2021/03/16/14:41:54.185412,899498,1615902114,188171148,mocap,-2.76959179687,9.44217773438,1.89774450684,0.164085238904,0.270330745219,0.947499378111,-0.0473523318914
2021/03/16/14:41:54.194352,899499,1615902114,198171139,mocap,-2.76905053711,9.43215820313,1.89659680176,0.16401483075,0.270828555398,0.947401025278,-0.0467154204769
2021/03/16/14:41:54.205681,899500,1615902114,208171129,mocap,-2.76848632812,9.42212988281,1.89568835449,0.163622474746,0.271346656384,0.947351856829,-0.0460776314736
2021/03/16/14:41:54.214343,899501,1615902114,218171120,mocap,-2.76789794922,9.41207226562,1.89503527832,0.163044897957,0.272293420321,0.947218455291,-0.0452752779256
2021/03/16/14:41:54.225342,899502,1615902114,228171110,mocap,-2.76731225586,9.40198828125,1.89475415039,0.162362736721,0.273397997732,0.947068058136,-0.0442038240765
2021/03/16/14:41:54.234324,899503,1615902114,238171101,mocap,-2.76670556641,9.3919140625,1.89493737793,0.161612521891,0.274872621931,0.946818893331,-0.0431324156475
2021/03/16/14:41:54.245241,899504,1615902114,248171091,mocap,-2.76609887695,9.38177636719,1.89541259766,0.160756898981,0.27613995565,0.946650999786,-0.0419026449539
2021/03/16/14:41:54.254391,899505,1615902114,258171082,mocap,-2.76540649414,9.37155078125,1.89608581543,0.160567797562,0.276921377416,0.94649711975,-0.0409357382569
2021/03/16/14:41:54.266237,899506,1615902114,268171072,mocap,-2.76466918945,9.36121191406,1.89696960449,0.159906427478,0.277310686581,0.946535525197,-0.0399901405497
2021/03/16/14:41:54.274345,899507,1615902114,278171062,mocap,-2.7638840332,9.35083300781,1.89803601074,0.160048553076,0.277642102289,0.946443543161,-0.0392929109062
2021/03/16/14:41:54.286339,899508,1615902114,288171053,mocap,-2.76305297852,9.34045507813,1.89928234863,0.160144486186,0.277413845206,0.946526945308,-0.0384975658432
2021/03/16/14:41:54.294461,899509,1615902114,298171043,mocap,-2.76219116211,9.33006835937,1.90073217773,0.160268620113,0.277096011864,0.94662438151,-0.037868934706
2021/03/16/14:41:54.306425,899510,1615902114,308171034,mocap,-2.76134448242,9.31964746094,1.90229443359,0.160390909625,0.275982583379,0.946949023007,-0.0373618682609
2021/03/16/14:41:54.314217,899511,1615902114,318171024,mocap,-2.76048291016,9.30920410156,1.90383081055,0.161188100802,0.274569356501,0.947228122244,-0.0372684554823
2021/03/16/14:41:54.326102,899512,1615902114,328171015,mocap,-2.75967724609,9.29885058594,1.90541052246,0.161938034351,0.272861171105,0.947588985348,-0.0373894909357
2021/03/16/14:41:54.334156,899513,1615902114,338171005,mocap,-2.7588894043,9.28846386719,1.90682727051,0.1626785303,0.270836169973,0.948044108987,-0.0373608789586
2021/03/16/14:41:54.345912,899514,1615902114,348170996,mocap,-2.75810546875,9.27825195313,1.90802038574,0.164142992845,0.268875743484,0.948332769466,-0.0377873640118
2021/03/16/14:41:54.354285,899515,1615902114,358170986,mocap,-2.75744335937,9.26816113281,1.90921435547,0.165378231827,0.267379693127,0.948536042588,-0.0379144004423
2021/03/16/14:41:54.365809,899516,1615902114,368170977,mocap,-2.75687841797,9.2582578125,1.9104128418,0.165412126236,0.266453997075,0.948816967926,-0.0372484577686
2021/03/16/14:41:54.374126,899517,1615902114,378171206,mocap,-2.75632568359,9.24851269531,1.91142224121,0.166764365349,0.265811014488,0.948754954746,-0.0373921822822
2021/03/16/14:41:54.386210,899518,1615902114,388171196,mocap,-2.75591503906,9.23883691406,1.91245080566,0.167807819029,0.265414381922,0.948701537079,-0.0368935433389
2021/03/16/14:41:54.394293,899519,1615902114,398171186,mocap,-2.75559619141,9.22927246094,1.91355175781,0.168473883679,0.265096337242,0.94868651331,-0.0365293702762
2021/03/16/14:41:54.406030,899520,1615902114,408171177,mocap,-2.75537255859,9.21971875,1.91459301758,0.16885098763,0.264706489668,0.948764268368,-0.0355833298094
2021/03/16/14:41:54.414485,899521,1615902114,418171167,mocap,-2.75522143555,9.21024804687,1.91558374023,0.169822800832,0.264373310721,0.948699966388,-0.0351474417768
2021/03/16/14:41:54.425734,899522,1615902114,428171158,mocap,-2.75516137695,9.20073339844,1.91663256836,0.169951999967,0.263914537306,0.948846335804,-0.0340010435248
2021/03/16/14:41:54.433987,899523,1615902114,438171148,mocap,-2.75522631836,9.19134277344,1.91770703125,0.170683206686,0.263379680394,0.948893495258,-0.0331590498956
2021/03/16/14:41:54.446097,899524,1615902114,448171139,mocap,-2.75533447266,9.18192871094,1.91871838379,0.170801019501,0.26295110336,0.94903646689,-0.0318357984339
2021/03/16/14:41:54.454144,899525,1615902114,458171129,mocap,-2.75554785156,9.17259667969,1.91980664063,0.171109672092,0.262356621025,0.949187368494,-0.0305583709392
2021/03/16/14:41:54.465756,899526,1615902114,468171120,mocap,-2.75582226562,9.16322851563,1.9207310791,0.170940770976,0.261893491802,0.9493921616,-0.0290785989502
2021/03/16/14:41:54.474252,899527,1615902114,478171110,mocap,-2.75619360352,9.15391015625,1.92166333008,0.171393920536,0.261074017785,0.949581532166,-0.0275573156282
2021/03/16/14:41:54.485566,899528,1615902114,488171101,mocap,-2.75655834961,9.14463378906,1.92247692871,0.17124899022,0.260306408812,0.949856257544,-0.0262191516434
2021/03/16/14:41:54.494194,899529,1615902114,498171091,mocap,-2.75706005859,9.13533007812,1.92319921875,0.1712090919,0.259761556498,0.950052327045,-0.0247379050076
2021/03/16/14:41:54.505792,899530,1615902114,508171082,mocap,-2.75759912109,9.12610839844,1.92380700684,0.171097437094,0.259230390541,0.950246129338,-0.0236126639931
2021/03/16/14:41:54.514313,899531,1615902114,518171072,mocap,-2.75816259766,9.11685742188,1.92426635742,0.171226493161,0.258445382458,0.950466662218,-0.0223741532127
2021/03/16/14:41:54.525530,899532,1615902114,528171062,mocap,-2.75874438477,9.10775097656,1.92474829102,0.170617475203,0.257963275972,0.950738851375,-0.0209822946847
2021/03/16/14:41:54.534188,899533,1615902114,538171053,mocap,-2.75943115234,9.09847753906,1.92507617188,0.170291436094,0.257603829636,0.950928627572,-0.0193863291194
2021/03/16/14:41:54.545763,899534,1615902114,548171043,mocap,-2.76010668945,9.08944726562,1.92533312988,0.169967342877,0.25694862952,0.951178204087,-0.0186690041946
2021/03/16/14:41:54.554222,899535,1615902114,558171034,mocap,-2.76082836914,9.08019238281,1.92547827148,0.169620025649,0.256590690423,0.95136067986,-0.0174104618268
2021/03/16/14:41:54.565489,899536,1615902114,568171024,mocap,-2.76157641602,9.07101269531,1.92559899902,0.169027090356,0.255945045301,0.951661855149,-0.0161767791179
2021/03/16/14:41:54.574435,899537,1615902114,578171015,mocap,-2.76240454102,9.06182128906,1.92560351562,0.168735733105,0.255662126129,0.95180946772,-0.0149617185909
2021/03/16/14:41:54.585520,899538,1615902114,588171005,mocap,-2.76319458008,9.05260644531,1.92549365234,0.168117444867,0.255390100867,0.952007529763,-0.0139309484355
2021/03/16/14:41:54.594254,899539,1615902114,598170996,mocap,-2.76402563477,9.04341113281,1.9252479248,0.167292083173,0.255489866432,0.952144775384,-0.0125936689332
2021/03/16/14:41:54.605414,899540,1615902114,608170986,mocap,-2.76486254883,9.03416796875,1.92484521484,0.167161038082,0.255538732064,0.952165628914,-0.0117369992624
2021/03/16/14:41:54.614266,899541,1615902114,618170977,mocap,-2.7657722168,9.02490429688,1.92440722656,0.166678460781,0.25592870498,0.952162060762,-0.0103049853007
2021/03/16/14:41:54.625513,899542,1615902114,628171206,mocap,-2.76663623047,9.01573144531,1.92389001465,0.165835587131,0.256161179039,0.952256487071,-0.00935922296751
2021/03/16/14:41:54.634338,899543,1615902114,638171196,mocap,-2.76759179688,9.00645996094,1.92319836426,0.1658712536,0.256913103043,0.952056669068,-0.00839570194691
2021/03/16/14:41:54.645545,899544,1615902114,648171186,mocap,-2.76842285156,8.99717382812,1.92244885254,0.16499961107,0.257402884401,0.952084755357,-0.00731381744534
2021/03/16/14:41:54.654461,899545,1615902114,658171177,mocap,-2.76940356445,8.98776855469,1.92158520508,0.164993196504,0.258189320277,0.951878600399,-0.00653118066457
2021/03/16/14:41:54.665324,899546,1615902114,668171167,mocap,-2.77026928711,8.97841503906,1.92064904785,0.164683395111,0.258975986975,0.951724547884,-0.00558666597014
2021/03/16/14:41:54.674763,899547,1615902114,678171158,mocap,-2.77133422852,8.9688359375,1.91957470703,0.16444910954,0.259681620027,0.951579216245,-0.0043520785365
2021/03/16/14:41:54.684072,899548,1615902114,688171148,mocap,-2.77223681641,8.95943261719,1.91847729492,0.163924386302,0.260676748262,0.951399820888,-0.00384901968415
2021/03/16/14:41:54.695390,899549,1615902114,698171139,mocap,-2.77336767578,8.949734375,1.91726367188,0.164017307728,0.26127564829,0.951222952973,-0.0028700237106
2021/03/16/14:41:54.704040,899550,1615902114,708171129,mocap,-2.77435375977,8.94023144531,1.9159230957,0.163454259165,0.261821342565,0.951170668709,-0.00257843900727
2021/03/16/14:41:54.716543,899551,1615902114,718171120,mocap,-2.77555322266,8.93041503906,1.91458178711,0.162966420579,0.262553159207,0.951054928149,-0.00152157960325
2021/03/16/14:41:54.724650,899552,1615902114,728171110,mocap,-2.7767355957,8.92060546875,1.9130802002,0.162457327311,0.262893811069,0.951048872434,-0.000708644241054
2021/03/16/14:41:54.736241,899553,1615902114,738171101,mocap,-2.77789941406,8.91084082031,1.91143481445,0.162226975977,0.26344562369,0.950935561573,-0.000606235122156
2021/03/16/14:41:54.744745,899554,1615902114,748171091,mocap,-2.77918481445,8.90107519531,1.90977429199,0.161603771224,0.264094353083,0.950861847031,-0.000360095155386
2021/03/16/14:41:54.755890,899555,1615902114,758171082,mocap,-2.78044995117,8.89108886719,1.90820837402,0.160850688055,0.264491373693,0.950879234086,0.000252762294322
2021/03/16/14:41:54.764128,899556,1615902114,768171072,mocap,-2.78182250977,8.88127832031,1.90652612305,0.160824025961,0.265310332454,0.950655599299,8.54619235179e-05
2021/03/16/14:41:54.776180,899557,1615902114,778171062,mocap,-2.78320629883,8.87116601563,1.90501464844,0.160041183303,0.265920633824,0.950616897885,0.000743802551893
2021/03/16/14:41:54.784060,899558,1615902114,788171053,mocap,-2.78454541016,8.86113085938,1.90367712402,0.159615410439,0.266699860596,0.950470197539,0.00071246598186
2021/03/16/14:41:54.795793,899559,1615902114,798171043,mocap,-2.78602124023,8.85109179688,1.90232165527,0.159602814802,0.266955394927,0.950400633158,0.000632912837872
2021/03/16/14:41:54.804180,899560,1615902114,808171034,mocap,-2.78741821289,8.84083105469,1.90113684082,0.159265661989,0.267190162892,0.950391343411,0.000411706339627
2021/03/16/14:41:54.815983,899561,1615902114,818171024,mocap,-2.7888449707,8.83080859375,1.90013354492,0.158807346713,0.267283782175,0.95044179701,-9.87311377386e-05
2021/03/16/14:41:54.824087,899562,1615902114,828171015,mocap,-2.79034033203,8.82048730469,1.8992746582,0.158718755633,0.267373808733,0.950431198527,-0.000379240839349
2021/03/16/14:41:54.834181,899563,1615902114,838171005,mocap,-2.79175366211,8.81038183594,1.89844958496,0.158942837426,0.267168020054,0.950450702153,-0.00137456231741
2021/03/16/14:41:54.845753,899564,1615902114,848170996,mocap,-2.79325463867,8.80010351563,1.89778210449,0.158989338215,0.267136347119,0.950450937323,-0.00189178477799
2021/03/16/14:41:54.854177,899565,1615902114,858170986,mocap,-2.79474316406,8.78993457031,1.89722619629,0.158752190066,0.267138215476,0.950488077758,-0.00270693648915
2021/03/16/14:41:54.864646,899566,1615902114,868170977,mocap,-2.79631347656,8.77984082031,1.89693103027,0.158691043172,0.268200318592,0.95019847246,-0.00293303177832
2021/03/16/14:41:54.874497,899567,1615902114,878171206,mocap,-2.79787304687,8.76980175781,1.89717468262,0.158029079698,0.269471699067,0.949947156189,-0.00349459707499
2021/03/16/14:41:54.884783,899568,1615902114,888171196,mocap,-2.79953417969,8.759671875,1.89783728027,0.15764951951,0.270967612326,0.94958518063,-0.00334164460854
2021/03/16/14:41:54.894173,899569,1615902114,898171186,mocap,-2.8011262207,8.74957421875,1.89866784668,0.157368740575,0.271736276318,0.949410933203,-0.0036553430961
2021/03/16/14:41:54.905693,899570,1615902114,908171177,mocap,-2.80259912109,8.73954589844,1.89961352539,0.157362775676,0.272221320274,0.949267240942,-0.00491890876715
2021/03/16/14:41:54.914039,899571,1615902114,918171167,mocap,-2.8040793457,8.72928808594,1.90080456543,0.15753177055,0.272544607342,0.94914155811,-0.00578737423906
2021/03/16/14:41:54.924836,899572,1615902114,928171158,mocap,-2.80539794922,8.71909765625,1.90218994141,0.157976404603,0.272620219975,0.949038241142,-0.0069348136142
2021/03/16/14:41:54.934823,899573,1615902114,938171148,mocap,-2.80676196289,8.708953125,1.90369641113,0.158408335344,0.272654473946,0.948945190508,-0.00832849701571
2021/03/16/14:41:54.945474,899574,1615902114,948171139,mocap,-2.80804248047,8.69880664062,1.90543896484,0.15888556556,0.27252387973,0.948893770073,-0.00931271370605
2021/03/16/14:41:54.954349,899575,1615902114,958171129,mocap,-2.80927807617,8.68864648438,1.90706787109,0.159361658275,0.271851266592,0.948988238944,-0.0110480289799
2021/03/16/14:41:54.965615,899576,1615902114,968171120,mocap,-2.81045483398,8.6785078125,1.90882897949,0.160016446752,0.270650918116,0.949202509926,-0.0125459553008
2021/03/16/14:41:54.974266,899577,1615902114,978171110,mocap,-2.81164672852,8.66839550781,1.91050671387,0.159902972334,0.269343881675,0.949572964107,-0.0140037643422
2021/03/16/14:41:54.985338,899578,1615902114,988171101,mocap,-2.81269213867,8.65833984375,1.91216003418,0.160307548702,0.268029893525,0.949852751313,-0.0155311083501
