time,.header.seq,.header.stamp.secs,.header.stamp.nsecs,.header.frame_id,.pose.position.x,.pose.position.y,.pose.position.z,.pose.orientation.x,.pose.orientation.y,.pose.orientation.z,.pose.orientation.w
2021/03/16/13:15:56.897836,519335,1615896956,898171186,mocap,-2.77611547852,10.3383857422,1.93670324707,0.146326520198,0.174964703646,0.973276913104,-0.0266072605359
2021/03/16/13:15:56.906916,519336,1615896956,908171177,mocap,-2.77634155273,10.3380205078,1.93674084473,0.145889737196,0.174703236174,0.973381729427,-0.0268879103864
2021/03/16/13:15:56.917172,519337,1615896956,918171167,mocap,-2.7765637207,10.3376035156,1.93671435547,0.145569296459,0.174527967884,0.973452207904,-0.0272098748472
2021/03/16/13:15:56.928112,519338,1615896956,928171158,mocap,-2.77682128906,10.3371894531,1.93670068359,0.145236051566,0.174283347594,0.973541416175,-0.0273661853648
2021/03/16/13:15:56.936826,519339,1615896956,938171148,mocap,-2.77710644531,10.3367041016,1.93666333008,0.145098616299,0.173541254398,0.973687203896,-0.0276236223519
2021/03/16/13:15:56.948161,519340,1615896956,948171139,mocap,-2.77740722656,10.3361474609,1.9365748291,0.14484633228,0.173122934269,0.973803299619,-0.0274792101263
2021/03/16/13:15:56.957546,519341,1615896956,958171129,mocap,-2.77773754883,10.3356337891,1.93650170898,0.144583571618,0.172294927091,0.973991144447,-0.0274098098565
2021/03/16/13:15:56.968023,519342,1615896956,968171120,mocap,-2.7781418457,10.3351113281,1.93647570801,0.143983076788,0.171180296192,0.974281638164,-0.027230177223
2021/03/16/13:15:56.977031,519343,1615896956,978171110,mocap,-2.77858374023,10.3345605469,1.9364453125,0.14369876305,0.170198799316,0.974503681514,-0.0269372989846
2021/03/16/13:15:56.987102,519344,1615896956,988171101,mocap,-2.77904296875,10.3339160156,1.93631750488,0.143115597954,0.169115114525,0.974788473488,-0.0265599947807
2021/03/16/13:15:56.996964,519345,1615896956,998171091,mocap,-2.77951147461,10.3333330078,1.93624328613,0.142921416726,0.167765518708,0.975062393063,-0.0261061842565
2021/03/16/13:15:57.006893,519346,1615896957,8171082,mocap,-2.7799987793,10.3327568359,1.93615869141,0.142577742248,0.166596694273,0.975327275136,-0.0255703709055
2021/03/16/13:15:57.016815,519347,1615896957,18171072,mocap,-2.78051293945,10.3321630859,1.93606335449,0.142036934427,0.165170649004,0.975671911413,-0.0246674945048
2021/03/16/13:15:57.028731,519348,1615896957,28171062,mocap,-2.78101635742,10.3315771484,1.93590869141,0.141431671786,0.163692204952,0.976031800074,-0.0237460447262
2021/03/16/13:15:57.038771,519349,1615896957,38171053,mocap,-2.78156811523,10.3310224609,1.93581396484,0.141147975453,0.162300603076,0.976331011992,-0.0226609754083
2021/03/16/13:15:57.046993,519350,1615896957,48171043,mocap,-2.78217236328,10.3304326172,1.93567980957,0.140647062973,0.160631879775,0.976706067023,-0.0214723683718
2021/03/16/13:15:57.059019,519351,1615896957,58171034,mocap,-2.78283154297,10.3300800781,1.93579345703,0.139574740784,0.160217494383,0.976967102158,-0.0196093533722
2021/03/16/13:15:57.066987,519352,1615896957,68171024,mocap,-2.78328930664,10.3293671875,1.93540112305,0.139922465817,0.157485531166,0.977376956818,-0.0188225495793
2021/03/16/13:15:57.078744,519353,1615896957,78171015,mocap,-2.78394360352,10.329046875,1.93555480957,0.138314374232,0.156751153392,0.977766553568,-0.0164553040321
2021/03/16/13:15:57.086940,519354,1615896957,88171005,mocap,-2.78468798828,10.3286328125,1.93577490234,0.135654416159,0.15363771569,0.978661356903,-0.0146725644704
2021/03/16/13:15:57.098678,519355,1615896957,98170996,mocap,-2.78497607422,10.3278867187,1.93511743164,0.138060357164,0.151510727027,0.978669167843,-0.0138018633797
2021/03/16/13:15:57.106931,519356,1615896957,108170986,mocap,-2.7855871582,10.3274433594,1.93505859375,0.138191061822,0.149768368485,0.978939299699,-0.0122684217816
2021/03/16/13:15:57.118707,519357,1615896957,118170977,mocap,-2.78630566406,10.3270400391,1.93516589355,0.136269872489,0.146937218228,0.979660574986,-0.010253342553
2021/03/16/13:15:57.126831,519358,1615896957,128171206,mocap,-2.78682275391,10.3266357422,1.93501879883,0.135823260456,0.145280155535,0.97998636089,-0.00851180761218
2021/03/16/13:15:57.137721,519359,1615896957,138171196,mocap,-2.78736694336,10.3263046875,1.9349354248,0.135621792285,0.14363962106,0.980270350471,-0.00666576410848
2021/03/16/13:15:57.147783,519360,1615896957,148171186,mocap,-2.78791015625,10.3259599609,1.93485351562,0.135612254608,0.142175980971,0.980494829416,-0.00501905964996
2021/03/16/13:15:57.157393,519361,1615896957,158171177,mocap,-2.78845336914,10.3256357422,1.93474304199,0.13517066569,0.140681931299,0.980778200778,-0.00340789215389
2021/03/16/13:15:57.167006,519362,1615896957,168171167,mocap,-2.78896948242,10.3253554688,1.93461645508,0.134856140517,0.139381506664,0.981011426679,-0.00179010645284
2021/03/16/13:15:57.178442,519363,1615896957,178171158,mocap,-2.78956591797,10.3251416016,1.93456835938,0.134748994347,0.138077696749,0.981212128984,-6.95056846547e-05
2021/03/16/13:15:57.187184,519364,1615896957,188171148,mocap,-2.79007055664,10.3249013672,1.93446899414,0.134397876209,0.136929534004,0.981420009913,0.001506467533
2021/03/16/13:15:57.198642,519365,1615896957,198171139,mocap,-2.79055737305,10.3246748047,1.93430859375,0.133909772009,0.135784730822,0.98164251064,0.00294430061275
2021/03/16/13:15:57.207178,519366,1615896957,208171129,mocap,-2.79107958984,10.3245185547,1.93423620605,0.133424951891,0.134820447804,0.981835100953,0.00459052101942
2021/03/16/13:15:57.218313,519367,1615896957,218171120,mocap,-2.79161694336,10.3243916016,1.93417883301,0.132989495624,0.133801709502,0.982025149804,0.00612313641831
2021/03/16/13:15:57.227226,519368,1615896957,228171110,mocap,-2.79209350586,10.3242324219,1.9340736084,0.132371787119,0.132789373976,0.982237242987,0.0073958919387
2021/03/16/13:15:57.239856,519369,1615896957,238171101,mocap,-2.79260742188,10.3240761719,1.93399597168,0.131741274065,0.131961714647,0.982423581374,0.00861717759882
2021/03/16/13:15:57.247716,519370,1615896957,248171091,mocap,-2.79309008789,10.3239902344,1.93389575195,0.131127428827,0.131231734628,0.982593346983,0.00970265128783
2021/03/16/13:15:57.256644,519371,1615896957,258171082,mocap,-2.79327978516,10.3238681641,1.93335400391,0.128870790771,0.131494186243,0.982822852088,0.0126820495029
2021/03/16/13:15:57.268376,519372,1615896957,268171072,mocap,-2.79374389648,10.3238291016,1.9333269043,0.12838080727,0.130956711521,0.982946282456,0.0136127891976
2021/03/16/13:15:57.276902,519373,1615896957,278171062,mocap,-2.79446435547,10.3238964844,1.93373327637,0.129592421073,0.129026991952,0.983059670399,0.012309078813
2021/03/16/13:15:57.287303,519374,1615896957,288171053,mocap,-2.79486499023,10.3239052734,1.93367480469,0.128865831606,0.12829740189,0.983244344994,0.0128031931043
2021/03/16/13:15:57.296815,519375,1615896957,298171043,mocap,-2.7952331543,10.3239453125,1.93366516113,0.127868694341,0.127684430682,0.983444174922,0.0135586505681
2021/03/16/13:15:57.308237,519376,1615896957,308171034,mocap,-2.79529663086,10.3238759766,1.93318566895,0.125289508955,0.128333005119,0.983654136713,0.0160540508062
2021/03/16/13:15:57.317225,519377,1615896957,318171024,mocap,-2.79562597656,10.3239130859,1.93316796875,0.124391832683,0.127761076749,0.983832186946,0.0166737798614
2021/03/16/13:15:57.327414,519378,1615896957,328171015,mocap,-2.79590991211,10.3239726562,1.93311425781,0.123777144887,0.127298438432,0.983960647267,0.017198051416
2021/03/16/13:15:57.336899,519379,1615896957,338171005,mocap,-2.79616748047,10.3240683594,1.93308569336,0.123007590332,0.126869207505,0.984103755819,0.0176954537124
2021/03/16/13:15:57.348288,519380,1615896957,348170996,mocap,-2.79665844727,10.3242597656,1.93354833984,0.124220422177,0.125518832344,0.984150066108,0.0162160501533
2021/03/16/13:15:57.357157,519381,1615896957,358170986,mocap,-2.79647631836,10.3242714844,1.93306176758,0.121715632973,0.126620324528,0.984277516034,0.0187179710032
2021/03/16/13:15:57.366974,519382,1615896957,368170977,mocap,-2.79679760742,10.3245078125,1.93347692871,0.122964062528,0.125428519492,0.984305545839,0.0170328492224
2021/03/16/13:15:57.376976,519383,1615896957,378171206,mocap,-2.79644897461,10.3245839844,1.93294812012,0.120544376732,0.126797434088,0.984386867876,0.0193379501983
2021/03/16/13:15:57.387887,519384,1615896957,388171196,mocap,-2.79637646484,10.3247617188,1.93296838379,0.120180770862,0.127119443352,0.984385838525,0.0195384733881
2021/03/16/13:15:57.396685,519385,1615896957,398171186,mocap,-2.79621386719,10.3249609375,1.93298352051,0.119813656293,0.127747326752,0.984346253112,0.0196916601178
2021/03/16/13:15:57.407058,519386,1615896957,408171177,mocap,-2.79594726563,10.3251220703,1.93294006348,0.119598758669,0.128371831552,0.984292246353,0.0196364333383
2021/03/16/13:15:57.417328,519387,1615896957,418171167,mocap,-2.79564453125,10.3253027344,1.93293774414,0.119508740683,0.12907319195,0.984220129273,0.0191968012506
2021/03/16/13:15:57.426937,519388,1615896957,428171158,mocap,-2.79562475586,10.3255,1.93335192871,0.121112469113,0.128938000443,0.984079180274,0.0171732483239
2021/03/16/13:15:57.437060,519389,1615896957,438171148,mocap,-2.79527563477,10.3256201172,1.93334191895,0.121739470264,0.12965496759,0.983921718685,0.0163444231634
2021/03/16/13:15:57.446823,519390,1615896957,448171139,mocap,-2.79488891602,10.3256806641,1.93332019043,0.121862492208,0.130609104365,0.983788572958,0.0158377724204
2021/03/16/13:15:57.457971,519391,1615896957,458171129,mocap,-2.79449511719,10.3256816406,1.933296875,0.1218309823,0.131371157692,0.983703391741,0.0150485126199
2021/03/16/13:15:57.467335,519392,1615896957,468171120,mocap,-2.7940871582,10.3256523438,1.93330444336,0.122044533107,0.132170746692,0.983581344126,0.0142749177283
2021/03/16/13:15:57.477716,519393,1615896957,478171110,mocap,-2.79368481445,10.3255410156,1.93325708008,0.12210392403,0.132741566479,0.983508644634,0.0134556064957
2021/03/16/13:15:57.487170,519394,1615896957,488171101,mocap,-2.79324023437,10.3253369141,1.9331574707,0.122793365621,0.133265798562,0.98336519187,0.012446087229
2021/03/16/13:15:57.498961,519395,1615896957,498171091,mocap,-2.79280615234,10.3250810547,1.93309545898,0.123369579404,0.133502828576,0.983273419613,0.0114156848568
2021/03/16/13:15:57.507112,519396,1615896957,508171082,mocap,-2.79237597656,10.3247304687,1.93306542969,0.12408879642,0.133621640076,0.983181312934,0.0100860190002
2021/03/16/13:15:57.519061,519397,1615896957,518171072,mocap,-2.79197558594,10.3242744141,1.9329576416,0.124533097323,0.133477970708,0.98315863162,0.00861603599527
2021/03/16/13:15:57.527098,519398,1615896957,528171062,mocap,-2.79161889648,10.3237138672,1.93284448242,0.12505278811,0.13319506784,0.983141800276,0.00728505511056
2021/03/16/13:15:57.538620,519399,1615896957,538171053,mocap,-2.79131665039,10.3231347656,1.93279064941,0.12536104518,0.132577176286,0.983194453156,0.00604780582579
2021/03/16/13:15:57.546621,519400,1615896957,548171043,mocap,-2.79108056641,10.3224453125,1.93271130371,0.126048452606,0.131942198583,0.98319919693,0.00473076306698
2021/03/16/13:15:57.558701,519401,1615896957,558171034,mocap,-2.79090356445,10.3216650391,1.93260058594,0.126735595016,0.130897474054,0.983256385643,0.00328923758363
2021/03/16/13:15:57.567089,519402,1615896957,568171024,mocap,-2.79073730469,10.3208603516,1.93251550293,0.126786215203,0.129605334551,0.983424431648,0.00202412070656
2021/03/16/13:15:57.578626,519403,1615896957,578171015,mocap,-2.79064941406,10.3200263672,1.9324041748,0.126615731348,0.128337316124,0.983614302186,0.000943334811571
2021/03/16/13:15:57.586865,519404,1615896957,588171005,mocap,-2.79051855469,10.3191220703,1.93216967773,0.126111368234,0.126410158831,0.98392900324,-0.000342803496767
2021/03/16/13:15:57.597643,519405,1615896957,598170996,mocap,-2.79054199219,10.3181728516,1.93200732422,0.125908489144,0.124775438812,0.984162852724,-0.00127226096307
2021/03/16/13:15:57.608259,519406,1615896957,608170986,mocap,-2.79061254883,10.3172050781,1.93186303711,0.125571103051,0.123069051777,0.984419798967,-0.00188644562184
2021/03/16/13:15:57.616838,519407,1615896957,618170977,mocap,-2.79071069336,10.3161826172,1.93164367676,0.125715829485,0.121377720836,0.984609583499,-0.00263599227411
2021/03/16/13:15:57.627074,519408,1615896957,628171206,mocap,-2.79083203125,10.3151806641,1.93145812988,0.125483837505,0.119630910459,0.984851608245,-0.00309118871762
2021/03/16/13:15:57.637033,519409,1615896957,638171196,mocap,-2.79097607422,10.3141552734,1.93128393555,0.125180467314,0.117934857155,0.985093066786,-0.00358924565407
2021/03/16/13:15:57.648441,519410,1615896957,648171186,mocap,-2.79127490234,10.3134414062,1.93153930664,0.122808187639,0.116817636812,0.985526032592,-0.00319832908467
2021/03/16/13:15:57.657265,519411,1615896957,658171177,mocap,-2.79131933594,10.3120849609,1.93081091309,0.124850562764,0.114291042968,0.985561193543,-0.00436198974756
2021/03/16/13:15:57.668430,519412,1615896957,668171167,mocap,-2.79147143555,10.3110224609,1.93054101563,0.124624571475,0.11226967653,0.985820601919,-0.0046874574379
2021/03/16/13:15:57.676619,519413,1615896957,678171158,mocap,-2.79149047852,10.3102958984,1.93051025391,0.121126966234,0.112616785822,0.986226278656,-0.00185595593705
2021/03/16/13:15:57.688674,519414,1615896957,688171148,mocap,-2.79167480469,10.3093017578,1.93031005859,0.120950365394,0.110941253074,0.986437166437,-0.00218328615295
2021/03/16/13:15:57.696710,519415,1615896957,698171139,mocap,-2.79185180664,10.308234375,1.93008374023,0.120742062902,0.109332576791,0.986642353124,-0.00214583755217
2021/03/16/13:15:57.708462,519416,1615896957,708171129,mocap,-2.79196289062,10.3071416016,1.92967028809,0.119959056053,0.107170983844,0.986974085423,-0.00251993489639
2021/03/16/13:15:57.716876,519417,1615896957,718171120,mocap,-2.79208789062,10.3061660156,1.92942687988,0.119736609021,0.10535653784,0.987196783401,-0.00238104873173
2021/03/16/13:15:57.728279,519418,1615896957,728171110,mocap,-2.79223242188,10.3051904297,1.92918518066,0.119792677575,0.103616042243,0.987372949733,-0.00284475576582
2021/03/16/13:15:57.736873,519419,1615896957,738171101,mocap,-2.79237841797,10.3043798828,1.9291126709,0.120232118691,0.102189830642,0.987468626635,-0.00267928749783
2021/03/16/13:15:57.748265,519420,1615896957,748171091,mocap,-2.7924597168,10.3034912109,1.92887817383,0.120252695096,0.100457825919,0.987643371508,-0.0028432479379
2021/03/16/13:15:57.757003,519421,1615896957,758171082,mocap,-2.79252758789,10.3025966797,1.9286060791,0.120370919122,0.099159553629,0.987760097317,-0.0028662214072
2021/03/16/13:15:57.768415,519422,1615896957,768171072,mocap,-2.792609375,10.3017998047,1.92840148926,0.120119003157,0.0978412726954,0.987922218756,-0.00286691482391
2021/03/16/13:15:57.776746,519423,1615896957,778171062,mocap,-2.79263891602,10.3010341797,1.92816357422,0.119895433404,0.0965347218595,0.988077798641,-0.00289670120269
2021/03/16/13:15:57.786834,519424,1615896957,788171053,mocap,-2.79268969727,10.3003925781,1.92797180176,0.119810544656,0.095557904939,0.988183374798,-0.00278174249629
2021/03/16/13:15:57.798298,519425,1615896957,798171043,mocap,-2.79279516602,10.2997841797,1.9278013916,0.119544172271,0.0948274252869,0.988287266046,-0.00228481400233
2021/03/16/13:15:57.806867,519426,1615896957,808171034,mocap,-2.7928190918,10.2991455078,1.92756982422,0.119430374249,0.094099163937,0.988370974241,-0.00213423443069
2021/03/16/13:15:57.818333,519427,1615896957,818171024,mocap,-2.79282641602,10.2985078125,1.92722924805,0.118451279063,0.0931581524895,0.988577930112,-0.00212433383097
2021/03/16/13:15:57.827013,519428,1615896957,828171015,mocap,-2.79292700195,10.2981269531,1.92730834961,0.118951427521,0.093134594896,0.988520710096,-0.00182081384188
2021/03/16/13:15:57.838163,519429,1615896957,838171005,mocap,-2.79300390625,10.2975957031,1.92716381836,0.118686924467,0.0926085382659,0.988602378751,-0.00154901717902
2021/03/16/13:15:57.847131,519430,1615896957,848170996,mocap,-2.79307348633,10.2970625,1.92701757813,0.118652028334,0.0922094321063,0.988644280683,-0.00126349830515
2021/03/16/13:15:57.857042,519431,1615896957,858170986,mocap,-2.79308178711,10.2965175781,1.92688037109,0.118288545076,0.0916908243818,0.988736014092,-0.00130806400216
2021/03/16/13:15:57.866856,519432,1615896957,868170977,mocap,-2.79314111328,10.2960146484,1.92675158691,0.117864864206,0.0912888140389,0.988824129834,-0.0010322754312
2021/03/16/13:15:57.878229,519433,1615896957,878171206,mocap,-2.79322387695,10.2954570313,1.92664001465,0.117853476337,0.0909960677397,0.988852633528,-0.000854360571093
2021/03/16/13:15:57.886906,519434,1615896957,888171196,mocap,-2.79321582031,10.2949238281,1.92651672363,0.117510376429,0.0906104657476,0.988928955789,-0.000762871552494
2021/03/16/13:15:57.898302,519435,1615896957,898171186,mocap,-2.79321411133,10.2943779297,1.92637463379,0.117444883506,0.090167619728,0.988977232417,-0.000718435853824
2021/03/16/13:15:57.906724,519436,1615896957,908171177,mocap,-2.79317529297,10.2938173828,1.9262088623,0.117432565347,0.0897798963854,0.989013973209,-0.000721355172307
2021/03/16/13:15:57.918942,519437,1615896957,918171167,mocap,-2.7931862793,10.2932480469,1.92610400391,0.117302065138,0.0892883696889,0.989073997057,-0.000669271872436
2021/03/16/13:15:57.926834,519438,1615896957,928171158,mocap,-2.7931628418,10.2926201172,1.92593884277,0.117044224248,0.0887036621298,0.989157081288,-0.000763158847868
2021/03/16/13:15:57.938915,519439,1615896957,938171148,mocap,-2.79314648437,10.2919677734,1.9257989502,0.11693523503,0.0880590839298,0.989227497807,-0.000840954223426
2021/03/16/13:15:57.946939,519440,1615896957,948171139,mocap,-2.79312768555,10.291296875,1.9256484375,0.116628866063,0.087525749061,0.989311036074,-0.000782726800391
2021/03/16/13:15:57.958760,519441,1615896957,958171129,mocap,-2.79310424805,10.2905820313,1.92543688965,0.116562059461,0.0868040141522,0.989382292587,-0.00101660657931
2021/03/16/13:15:57.967144,519442,1615896957,968171120,mocap,-2.79307983398,10.2898193359,1.92524243164,0.11614873764,0.0857928185075,0.989519188291,-0.000919270498144
2021/03/16/13:15:57.978756,519443,1615896957,978171110,mocap,-2.79302490234,10.2890830078,1.92510473633,0.115892198131,0.0850027359622,0.989617503563,-0.000858289482739
2021/03/16/13:15:57.987016,519444,1615896957,988171101,mocap,-2.79293017578,10.2882519531,1.92489086914,0.115782888954,0.0842002897931,0.989698803171,-0.000960235952085
2021/03/16/13:15:57.998856,519445,1615896957,998171091,mocap,-2.79285351563,10.2874306641,1.92474145508,0.115426238785,0.0833393348448,0.989813419832,-0.000863062184864
2021/03/16/13:15:58.006963,519446,1615896958,8171082,mocap,-2.79273046875,10.2865830078,1.92452905273,0.115357089184,0.0825895091844,0.989884211158,-0.000977788107128
2021/03/16/13:15:58.018691,519447,1615896958,18171072,mocap,-2.79258447266,10.2856123047,1.92430664063,0.115023037712,0.0816709783959,0.989999385843,-0.000879527474143
2021/03/16/13:15:58.026655,519448,1615896958,28171062,mocap,-2.79237597656,10.2846865234,1.92405957031,0.114967745117,0.08075515159,0.990081075506,-0.000707045469122
2021/03/16/13:15:58.038539,519449,1615896958,38171053,mocap,-2.79217553711,10.2836464844,1.92381103516,0.114538145018,0.0797706482172,0.99021091471,-7.47913759529e-05
2021/03/16/13:15:58.046962,519450,1615896958,48171043,mocap,-2.79196386719,10.2825908203,1.92355908203,0.114605183095,0.0788262941413,0.99027871328,0.000363425341438
2021/03/16/13:15:58.058643,519451,1615896958,58171034,mocap,-2.7916862793,10.28159375,1.92337084961,0.114382587368,0.0774189163974,0.990415297012,0.000686459424668
2021/03/16/13:15:58.067628,519452,1615896958,68171024,mocap,-2.79137182617,10.2804853516,1.9232199707,0.114439714373,0.0763905657812,0.99048815152,0.00112443619401
2021/03/16/13:15:58.078622,519453,1615896958,78171015,mocap,-2.79094995117,10.2793564453,1.92305786133,0.115363042899,0.0754188651458,0.99045509873,0.00143589300322
2021/03/16/13:15:58.086825,519454,1615896958,88171005,mocap,-2.79048461914,10.2782001953,1.92284545898,0.115884764283,0.0741187630226,0.990492010365,0.0016475259797
2021/03/16/13:15:58.098685,519455,1615896958,98170996,mocap,-2.78996166992,10.277078125,1.92267260742,0.116524633715,0.0733470754617,0.990473611136,0.00205853207221
2021/03/16/13:15:58.106804,519456,1615896958,108170986,mocap,-2.78939941406,10.2758681641,1.92254064941,0.117409704535,0.0723294070956,0.990443371268,0.00231099471465
2021/03/16/13:15:58.117510,519457,1615896958,118170977,mocap,-2.7888046875,10.2747099609,1.92236364746,0.118360820537,0.0713889730077,0.99039652774,0.00300735260072
2021/03/16/13:15:58.127530,519458,1615896958,128171206,mocap,-2.78814672852,10.2736191406,1.92226977539,0.118971329023,0.0705049265751,0.990385559399,0.00336388763825
2021/03/16/13:15:58.137180,519459,1615896958,138171196,mocap,-2.78732641602,10.2723789062,1.92202124023,0.119838327424,0.0698057583529,0.990327661398,0.00412898577933
2021/03/16/13:15:58.146683,519460,1615896958,148171186,mocap,-2.78659790039,10.2712001953,1.92185375977,0.120881413718,0.0693044948512,0.990235390747,0.00429423703384
2021/03/16/13:15:58.158099,519461,1615896958,158171177,mocap,-2.78587719727,10.2700693359,1.92174523926,0.121701253932,0.0683698701562,0.990198589935,0.00459566361656
2021/03/16/13:15:58.168284,519462,1615896958,168171167,mocap,-2.78496484375,10.2688691406,1.92161291504,0.122716165462,0.0674941188181,0.990134871861,0.00426782727249
2021/03/16/13:15:58.176852,519463,1615896958,178171158,mocap,-2.78403515625,10.2676044922,1.92144104004,0.123216984421,0.067404987109,0.990079111421,0.00418254095558
2021/03/16/13:15:58.188241,519464,1615896958,188171148,mocap,-2.78319018555,10.2663857422,1.92132885742,0.122654684012,0.0663775919843,0.990222404152,0.00307128083966
2021/03/16/13:15:58.196870,519465,1615896958,198171139,mocap,-2.78205224609,10.2649755859,1.92104785156,0.124801440855,0.0657945082283,0.989993034011,0.00307906087937
2021/03/16/13:15:58.208035,519466,1615896958,208171129,mocap,-2.78119628906,10.2637626953,1.92104541016,0.12373328374,0.0647919022107,0.990197190409,0.00126766840029
2021/03/16/13:15:58.216818,519467,1615896958,218171120,mocap,-2.78006787109,10.2624169922,1.92079907227,0.123915009293,0.0639844798299,0.990227181975,0.00108876563062
2021/03/16/13:15:58.228204,519468,1615896958,228171110,mocap,-2.7791184082,10.2611025391,1.92072021484,0.124084509777,0.063191131021,0.990257466064,0.000280210771973
2021/03/16/13:15:58.237430,519469,1615896958,238171101,mocap,-2.77791235352,10.2595351562,1.92019604492,0.124813701488,0.0621937795577,0.990228995284,-8.53486719548e-05
2021/03/16/13:15:58.248166,519470,1615896958,248171091,mocap,-2.77696435547,10.2584882812,1.92030737305,0.123693758128,0.0623691074833,0.990358258385,-0.000688183903574
2021/03/16/13:15:58.257715,519471,1615896958,258171082,mocap,-2.77599902344,10.2572148438,1.92025488281,0.123488281787,0.0621988331327,0.990393563742,-0.00159489439649
2021/03/16/13:15:58.266868,519472,1615896958,268171072,mocap,-2.77484887695,10.2558691406,1.92007910156,0.1232620476,0.0619184285021,0.990439196289,-0.00166813991857
2021/03/16/13:15:58.278167,519473,1615896958,278171062,mocap,-2.77380737305,10.2545800781,1.91991491699,0.122706552146,0.0617956371073,0.990514275533,-0.00242362746666
2021/03/16/13:15:58.287132,519474,1615896958,288171053,mocap,-2.77272167969,10.2530107422,1.91961877441,0.123508483178,0.061315237746,0.990443341179,-0.00284312869053
2021/03/16/13:15:58.298136,519475,1615896958,298171043,mocap,-2.77168457031,10.2517119141,1.91969604492,0.122173968072,0.0615089466738,0.99059560684,-0.00324050806918
2021/03/16/13:15:58.306840,519476,1615896958,308171034,mocap,-2.77060791016,10.2501640625,1.91955859375,0.121811609493,0.0610488819354,0.990666011358,-0.00397775812197
2021/03/16/13:15:58.317087,519477,1615896958,318171024,mocap,-2.76952514648,10.2484970703,1.91944921875,0.121988716178,0.0604619221147,0.990679052304,-0.00425729199196
2021/03/16/13:15:58.326780,519478,1615896958,328171015,mocap,-2.76851025391,10.2468535156,1.91931213379,0.121175762478,0.0595495223471,0.990830477154,-0.00502388955591
2021/03/16/13:15:58.339023,519479,1615896958,338171005,mocap,-2.76718676758,10.2448867187,1.91880615234,0.121727513813,0.0582982371068,0.990837530449,-0.00497213694131
2021/03/16/13:15:58.346973,519480,1615896958,348170996,mocap,-2.76614868164,10.2432910156,1.91880163574,0.120992265044,0.058326499216,0.9909255721,-0.00503953222627
2021/03/16/13:15:58.358597,519481,1615896958,358170986,mocap,-2.76493359375,10.2415322266,1.91866101074,0.121330281378,0.0576467385397,0.990921083361,-0.00558750146929
2021/03/16/13:15:58.367262,519482,1615896958,368170977,mocap,-2.76365429687,10.2395712891,1.91817907715,0.122021243867,0.0566501034683,0.990893548973,-0.00561796820563
2021/03/16/13:15:58.378870,519483,1615896958,378171206,mocap,-2.76239892578,10.2377333984,1.9178873291,0.122451847134,0.0564619575373,0.990851396268,-0.00557804089114
2021/03/16/13:15:58.387153,519484,1615896958,388171196,mocap,-2.76115673828,10.2360507813,1.91777966309,0.121943327823,0.0568861167553,0.990890706767,-0.00542217535441
2021/03/16/13:15:58.398717,519485,1615896958,398171186,mocap,-2.75980200195,10.2340332031,1.9172434082,0.122727270493,0.0558459715401,0.990852245957,-0.00557350175391
2021/03/16/13:15:58.406729,519486,1615896958,408171177,mocap,-2.75843212891,10.2321328125,1.91685925293,0.122621845153,0.0555887660773,0.990881563531,-0.00524447518594
2021/03/16/13:15:58.418726,519487,1615896958,418171167,mocap,-2.75717553711,10.2304023438,1.91676171875,0.122681734319,0.0559659523934,0.990853178358,-0.0051945380364
2021/03/16/13:15:58.426722,519488,1615896958,428171158,mocap,-2.75572607422,10.22828125,1.91614501953,0.12343839882,0.0551950054265,0.990803541827,-0.00498324613627
2021/03/16/13:15:58.437740,519489,1615896958,438171148,mocap,-2.75451831055,10.2265,1.91592675781,0.12322983157,0.0561163922709,0.990779688939,-0.00457951827043
2021/03/16/13:15:58.447965,519490,1615896958,448171139,mocap,-2.75304956055,10.2244707031,1.91541125488,0.123767543582,0.0564382876843,0.990697515403,-0.00383982090141
2021/03/16/13:15:58.456700,519491,1615896958,458171129,mocap,-2.75169799805,10.2224902344,1.91484094238,0.123693981329,0.0569689874311,0.990677217257,-0.00360386963313
2021/03/16/13:15:58.467139,519492,1615896958,468171120,mocap,-2.75039111328,10.2204257813,1.91413244629,0.123936700027,0.0575008163762,0.990619569457,-0.0024956801358
2021/03/16/13:15:58.476938,519493,1615896958,478171110,mocap,-2.74895410156,10.2183388672,1.91336962891,0.124250391101,0.0582895192864,0.990535442022,-0.00192272892861
2021/03/16/13:15:58.487616,519494,1615896958,488171101,mocap,-2.74767749023,10.2161767578,1.91258349609,0.124307342463,0.059175858024,0.990476462061,-0.00150711671989
2021/03/16/13:15:58.496747,519495,1615896958,498171091,mocap,-2.7461862793,10.2140029297,1.91174255371,0.124574455177,0.060071757343,0.990389839925,-0.000741470473225
2021/03/16/13:15:58.508314,519496,1615896958,508171082,mocap,-2.74488012695,10.2116728516,1.91089440918,0.124800173117,0.0607735447666,0.990318874087,0.00011982920407
2021/03/16/13:15:58.516943,519497,1615896958,518171072,mocap,-2.74348950195,10.2092148438,1.91004406738,0.124779000171,0.0616149463528,0.99026930106,0.000714474369636
2021/03/16/13:15:58.528714,519498,1615896958,528171062,mocap,-2.74199511719,10.2064697266,1.90889550781,0.126421876984,0.0615749213934,0.990062969654,0.00116318530448
2021/03/16/13:15:58.537008,519499,1615896958,538171053,mocap,-2.74075219727,10.2040634766,1.90827087402,0.125540175262,0.0627264930751,0.990102439383,0.00148863824173
2021/03/16/13:15:58.548385,519500,1615896958,548171043,mocap,-2.7392578125,10.2013154297,1.90727001953,0.126049649319,0.0630963944208,0.990013383813,0.00196131060528
2021/03/16/13:15:58.556959,519501,1615896958,558171034,mocap,-2.73786401367,10.1985097656,1.9063293457,0.126425342088,0.0637680388478,0.989922152623,0.00209958748825
2021/03/16/13:15:58.568310,519502,1615896958,568171024,mocap,-2.73654492188,10.1956298828,1.90536206055,0.126759024507,0.0644892046368,0.989832237797,0.00233122122272
2021/03/16/13:15:58.577360,519503,1615896958,578171015,mocap,-2.73512939453,10.1926865234,1.90452392578,0.127216945123,0.0654188567385,0.989710705072,0.00299153228966
2021/03/16/13:15:58.588750,519504,1615896958,588171005,mocap,-2.73378027344,10.1895507813,1.90368481445,0.127584157461,0.0661991100697,0.989611179395,0.00310974468079
2021/03/16/13:15:58.597065,519505,1615896958,598170996,mocap,-2.73258300781,10.1863730469,1.9030345459,0.127944368719,0.0667491138163,0.989527704114,0.00311615079526
2021/03/16/13:15:58.608662,519506,1615896958,608170986,mocap,-2.73134521484,10.1829570312,1.902359375,0.128147065674,0.0668938719864,0.989491155581,0.00328593047856
2021/03/16/13:15:58.617085,519507,1615896958,618170977,mocap,-2.73008813477,10.1793740234,1.90182580566,0.128399318109,0.0671334331891,0.989441661565,0.00345175485281
2021/03/16/13:15:58.628466,519508,1615896958,628171206,mocap,-2.72901342773,10.1756816406,1.90139343262,0.128496292404,0.067007264841,0.989438574225,0.00316613375314
2021/03/16/13:15:58.636989,519509,1615896958,638171196,mocap,-2.72801318359,10.1717666016,1.90103491211,0.128155347739,0.0665671112914,0.989512554783,0.00315173937353
2021/03/16/13:15:58.648117,519510,1615896958,648171186,mocap,-2.72695800781,10.1678164062,1.9008314209,0.128689505171,0.0660541662837,0.989477903204,0.0030539975138
2021/03/16/13:15:58.657109,519511,1615896958,658171177,mocap,-2.7259284668,10.163703125,1.90059887695,0.128475666236,0.0657524486653,0.989525919637,0.00301094301475
2021/03/16/13:15:58.666722,519512,1615896958,668171167,mocap,-2.72494287109,10.159359375,1.90022912598,0.12953599477,0.0650398914809,0.989436119406,0.00252992344941
2021/03/16/13:15:58.678067,519513,1615896958,678171158,mocap,-2.72410253906,10.1553798828,1.90037255859,0.128943725236,0.0655163889596,0.989482767449,0.00223014556903
2021/03/16/13:15:58.686851,519514,1615896958,688171148,mocap,-2.72328027344,10.1511123047,1.9001817627,0.128118001958,0.0654897886309,0.989592801434,0.00171832006014
2021/03/16/13:15:58.698025,519515,1615896958,698171139,mocap,-2.72237231445,10.1470166016,1.90020043945,0.129100931021,0.0663168456976,0.989410576883,0.00131806856352
2021/03/16/13:15:58.706807,519516,1615896958,708171129,mocap,-2.72150927734,10.1427578125,1.90006091309,0.129207508861,0.0671952267276,0.989337853887,0.000911150790393
2021/03/16/13:15:58.718081,519517,1615896958,718171120,mocap,-2.72076635742,10.1385214844,1.89988806152,0.129338545487,0.0687311081804,0.98921562022,0.000135775404284
2021/03/16/13:15:58.726741,519518,1615896958,728171110,mocap,-2.72007226562,10.1342177734,1.89967871094,0.129058359414,0.0695784831737,0.989192896499,-0.000420794275773
2021/03/16/13:15:58.737750,519519,1615896958,738171101,mocap,-2.71940673828,10.1298544922,1.89943652344,0.129569750996,0.0709471533777,0.98902843712,-0.000964389284533
2021/03/16/13:15:58.748012,519520,1615896958,748171091,mocap,-2.71847607422,10.1254716797,1.8988112793,0.131907980798,0.0731334245185,0.988559306838,-0.00151191643606
2021/03/16/13:15:58.756687,519521,1615896958,758171082,mocap,-2.71800561523,10.1210449219,1.89843725586,0.132378101431,0.0749660471884,0.988356372556,-0.00279633960329
2021/03/16/13:15:58.767842,519522,1615896958,768171072,mocap,-2.71733886719,10.1165439453,1.89796350098,0.132787263383,0.076671661322,0.988169004075,-0.00332126201749
2021/03/16/13:15:58.776660,519523,1615896958,778171062,mocap,-2.71697167969,10.1118632813,1.89745751953,0.132981496864,0.0782087698439,0.988020971952,-0.00372321523911
2021/03/16/13:15:58.788791,519524,1615896958,788171053,mocap,-2.71645727539,10.1073886719,1.8968861084,0.133661253452,0.0806830932665,0.987722668713,-0.00537015149432
2021/03/16/13:15:58.797888,519525,1615896958,798171043,mocap,-2.71607080078,10.1026425781,1.89621899414,0.134224921817,0.0827458130945,0.987471357968,-0.00609275649387
2021/03/16/13:15:58.808717,519526,1615896958,808171034,mocap,-2.71592456055,10.0977158203,1.89553491211,0.134706575783,0.0842975071785,0.987270939493,-0.00664458409492
2021/03/16/13:15:58.817777,519527,1615896958,818171024,mocap,-2.71566601563,10.092921875,1.89476965332,0.135031792216,0.0867434448129,0.987005971513,-0.00782346237537
2021/03/16/13:15:58.826952,519528,1615896958,828171015,mocap,-2.71556689453,10.0878417969,1.89400256348,0.135289454052,0.0886107629614,0.986800807582,-0.00830979720517
2021/03/16/13:15:58.837839,519529,1615896958,838171005,mocap,-2.71573193359,10.0825761719,1.89325805664,0.135671409752,0.0900776023349,0.986613566576,-0.00854198268188
2021/03/16/13:15:58.847882,519530,1615896958,848170996,mocap,-2.71576586914,10.0772578125,1.89239343262,0.13583460593,0.0921744313513,0.986393199323,-0.00901586705777
2021/03/16/13:15:58.858749,519531,1615896958,858170986,mocap,-2.71598266602,10.0718935547,1.89162023926,0.135950906829,0.0938945309836,0.986209265468,-0.00961509021967
2021/03/16/13:15:58.868688,519532,1615896958,868170977,mocap,-2.71615356445,10.0663613281,1.89076806641,0.136579160305,0.0961390657766,0.98589936559,-0.0102886745653
2021/03/16/13:15:58.878815,519533,1615896958,878171206,mocap,-2.71631835938,10.0606904297,1.88983996582,0.136955295957,0.0980276615307,0.985653622078,-0.0109892767451
2021/03/16/13:15:58.886976,519534,1615896958,888171196,mocap,-2.71658203125,10.0549404297,1.88891418457,0.137223192476,0.100108271314,0.985398237561,-0.0117662604531
2021/03/16/13:15:58.897691,519535,1615896958,898171186,mocap,-2.71698022461,10.0490058594,1.8879597168,0.137981101527,0.101846329854,0.98510236207,-0.012723103951
2021/03/16/13:15:58.906796,519536,1615896958,908171177,mocap,-2.71733081055,10.0429707031,1.88700244141,0.138762550754,0.103402006508,0.984820537557,-0.0134715739958
2021/03/16/13:15:58.918694,519537,1615896958,918171167,mocap,-2.71784155273,10.0367578125,1.88604187012,0.139468970267,0.105084870957,0.984534371811,-0.0140585743723
2021/03/16/13:15:58.927063,519538,1615896958,928171158,mocap,-2.71842285156,10.0304355469,1.88514221191,0.139803356589,0.106617821552,0.984308543308,-0.0149783907096
2021/03/16/13:15:58.938551,519539,1615896958,938171148,mocap,-2.71900585938,10.0239824219,1.88420874023,0.140709888034,0.107892167649,0.984024553134,-0.0159901238706
2021/03/16/13:15:58.947195,519540,1615896958,948171139,mocap,-2.71976000977,10.0173789063,1.88334667969,0.14152169828,0.109413039764,0.983730279114,-0.0165867064868
2021/03/16/13:15:58.958435,519541,1615896958,958171129,mocap,-2.72053222656,10.0106582031,1.88253063965,0.141633509307,0.110516540261,0.983582730341,-0.0170605330734
2021/03/16/13:15:58.967105,519542,1615896958,968171120,mocap,-2.72137304688,10.0038447266,1.88170251465,0.142446185043,0.111513860001,0.983336597305,-0.0179689228416
2021/03/16/13:15:58.977780,519543,1615896958,978171110,mocap,-2.72235888672,9.99686621094,1.88098400879,0.142872717062,0.112534308192,0.98314953015,-0.0184503467752
2021/03/16/13:15:58.988594,519544,1615896958,988171101,mocap,-2.72337597656,9.989796875,1.88033691406,0.142932307502,0.113301932521,0.983042132504,-0.0190050949631
2021/03/16/13:15:58.998500,519545,1615896958,998171091,mocap,-2.72444580078,9.9825703125,1.8796192627,0.142949299969,0.113946226637,0.982958061465,-0.0193699294779
2021/03/16/13:15:59.006993,519546,1615896959,8171082,mocap,-2.7256340332,9.97541894531,1.87936560059,0.143534189553,0.115361591177,0.982700975637,-0.0197084818372
2021/03/16/13:15:59.018229,519547,1615896959,18171072,mocap,-2.72684863281,9.9680703125,1.8790411377,0.143980394798,0.11624638757,0.982523501469,-0.0200997521846
2021/03/16/13:15:59.026970,519548,1615896959,28171062,mocap,-2.72835180664,9.96071777344,1.87926928711,0.14568059424,0.116492253502,0.982194096758,-0.0223934606636
2021/03/16/13:15:59.038387,519549,1615896959,38171053,mocap,-2.72950366211,9.95320019531,1.87889611816,0.144370969946,0.118191814036,0.982218969789,-0.0208237452714
2021/03/16/13:15:59.046859,519550,1615896959,48171043,mocap,-2.73089624023,9.94565917969,1.87913574219,0.144293770081,0.119332603275,0.982084789046,-0.021177813777
2021/03/16/13:15:59.058328,519551,1615896959,58171034,mocap,-2.73258666992,9.93807421875,1.88003063965,0.145983391884,0.119690662622,0.981745879803,-0.0231956268769
2021/03/16/13:15:59.067314,519552,1615896959,68171024,mocap,-2.73405517578,9.93010644531,1.8805222168,0.146355521134,0.120665723337,0.981561105455,-0.0236143074151
2021/03/16/13:15:59.076948,519553,1615896959,78171015,mocap,-2.73561328125,9.92232910156,1.88181616211,0.145285792037,0.121407492825,0.981626655185,-0.0236932543974
2021/03/16/13:15:59.088123,519554,1615896959,88171005,mocap,-2.73706591797,9.91433984375,1.8829765625,0.146244826988,0.121864199441,0.981399717268,-0.0248224581018
2021/03/16/13:15:59.096967,519555,1615896959,98170996,mocap,-2.73862304687,9.90633984375,1.8843302002,0.147241996171,0.122784606932,0.981122911934,-0.0253292008636
2021/03/16/13:15:59.107941,519556,1615896959,108170986,mocap,-2.74018041992,9.89823730469,1.88555810547,0.14859962618,0.123483279377,0.980803064137,-0.0263700112729
2021/03/16/13:15:59.116885,519557,1615896959,118170977,mocap,-2.74178393555,9.8901328125,1.88699621582,0.14829973204,0.124085364878,0.980754954903,-0.027013584865
2021/03/16/13:15:59.127960,519558,1615896959,128171206,mocap,-2.74339892578,9.8821640625,1.8886517334,0.148768341898,0.125349830663,0.980497017867,-0.0279463441834
2021/03/16/13:15:59.136965,519559,1615896959,138171196,mocap,-2.74502270508,9.87427734375,1.89040332031,0.14944555129,0.126686610075,0.980198446758,-0.0287665476217
2021/03/16/13:15:59.147076,519560,1615896959,148171186,mocap,-2.74667016602,9.86645800781,1.89229418945,0.150557918817,0.128587919699,0.979760883327,-0.0294291033331
2021/03/16/13:15:59.156787,519561,1615896959,158171177,mocap,-2.74823950195,9.85860644531,1.89394226074,0.15012273797,0.129736074677,0.979650399085,-0.0302787210263
2021/03/16/13:15:59.169157,519562,1615896959,168171167,mocap,-2.74987988281,9.85077050781,1.89565661621,0.150518476959,0.130911120254,0.979416993622,-0.0308029202295
2021/03/16/13:15:59.176848,519563,1615896959,178171158,mocap,-2.7514128418,9.84292089844,1.89720056152,0.151248537002,0.131417616055,0.979195265488,-0.0320924211505
2021/03/16/13:15:59.188003,519564,1615896959,188171148,mocap,-2.75303295898,9.83535449219,1.89898254395,0.15139227495,0.133172519426,0.978915150108,-0.0327197712096
2021/03/16/13:15:59.198813,519565,1615896959,198171139,mocap,-2.75457714844,9.82771484375,1.90044604492,0.151636874131,0.133927443672,0.978751270298,-0.0334014556506
2021/03/16/13:15:59.206631,519566,1615896959,208171129,mocap,-2.75625195313,9.82014453125,1.90190527344,0.152007449576,0.13497006298,0.978538109374,-0.0337637602082
2021/03/16/13:15:59.217849,519567,1615896959,218171120,mocap,-2.75779931641,9.81258496094,1.90316162109,0.152499849645,0.135165412571,0.978413993446,-0.0343534116994
2021/03/16/13:15:59.227648,519568,1615896959,228171110,mocap,-2.75942724609,9.8052265625,1.90448303223,0.152266964999,0.136032469981,0.97832447553,-0.0345131086487
2021/03/16/13:15:59.236944,519569,1615896959,238171101,mocap,-2.76094946289,9.79795703125,1.90561938477,0.152076624445,0.137197989438,0.978193241396,-0.0344585206931
2021/03/16/13:15:59.247925,519570,1615896959,248171091,mocap,-2.76250585938,9.79083105469,1.9066862793,0.151951178698,0.138717653418,0.9779995073,-0.0344268848256
2021/03/16/13:15:59.258801,519571,1615896959,258171082,mocap,-2.76405957031,9.78377246094,1.90778295898,0.15176630638,0.140494714333,0.97777801398,-0.0343273998794
2021/03/16/13:15:59.266818,519572,1615896959,268171072,mocap,-2.76546630859,9.77670507812,1.90876025391,0.150622613062,0.14282177245,0.977654388363,-0.0332665306217
2021/03/16/13:15:59.278685,519573,1615896959,278171062,mocap,-2.76693994141,9.76963476562,1.90977368164,0.150127685231,0.144434028095,0.977498094613,-0.0331356176253
2021/03/16/13:15:59.286834,519574,1615896959,288171053,mocap,-2.7683671875,9.76254199219,1.91091320801,0.151076911325,0.145442264854,0.977186110703,-0.0336096611741
2021/03/16/13:15:59.298721,519575,1615896959,298171043,mocap,-2.76967749023,9.75537792969,1.9118815918,0.149584616861,0.147385226904,0.977147057102,-0.0329494984679
2021/03/16/13:15:59.307074,519576,1615896959,308171034,mocap,-2.77091479492,9.74806640625,1.9128795166,0.149681935685,0.148175432915,0.977020804628,-0.0327063962504
2021/03/16/13:15:59.318500,519577,1615896959,318171024,mocap,-2.77217871094,9.74073339844,1.91395422363,0.149218243495,0.148449889927,0.977050842255,-0.0326833795123
2021/03/16/13:15:59.326807,519578,1615896959,328171015,mocap,-2.77330932617,9.73331347656,1.91503625488,0.148649816307,0.148851468626,0.977080772203,-0.0325518247771
2021/03/16/13:15:59.338365,519579,1615896959,338171005,mocap,-2.77447412109,9.72588183594,1.91617272949,0.148610228081,0.148890789,0.9770755412,-0.0327095943848
2021/03/16/13:15:59.347136,519580,1615896959,348170996,mocap,-2.77548901367,9.71826464844,1.91726599121,0.148379745555,0.148665945588,0.977140148981,-0.0328485201273
2021/03/16/13:15:59.357641,519581,1615896959,358170986,mocap,-2.77647314453,9.71069042969,1.91834240723,0.148280696804,0.148282099688,0.977206132502,-0.0330671319637
2021/03/16/13:15:59.369726,519582,1615896959,368170977,mocap,-2.77746972656,9.70306738281,1.91950402832,0.148792593581,0.147159365413,0.977271951467,-0.0338291573908
2021/03/16/13:15:59.376766,519583,1615896959,378171206,mocap,-2.7782265625,9.69543261719,1.92038867188,0.147961433956,0.147323012135,0.977388467536,-0.0333935213957
2021/03/16/13:15:59.387352,519584,1615896959,388171196,mocap,-2.77912207031,9.68781835937,1.92131835938,0.1478289668,0.147157468037,0.977431429521,-0.0334528001192
2021/03/16/13:15:59.396798,519585,1615896959,398171186,mocap,-2.77987866211,9.68018261719,1.92216186523,0.147750245163,0.146800640731,0.977483993641,-0.0338300518814
2021/03/16/13:15:59.407305,519586,1615896959,408171177,mocap,-2.7805703125,9.67254589844,1.92286010742,0.147970509468,0.146308796935,0.977522073421,-0.0338978489778
2021/03/16/13:15:59.416813,519587,1615896959,418171167,mocap,-2.78130957031,9.66490039063,1.92345617676,0.147961987438,0.146364125786,0.977504756299,-0.0341942132442
2021/03/16/13:15:59.427137,519588,1615896959,428171158,mocap,-2.78193212891,9.65727832031,1.92394702148,0.14801533527,0.146304479416,0.97749750009,-0.0344250931477
2021/03/16/13:15:59.437019,519589,1615896959,438171148,mocap,-2.78247290039,9.649640625,1.92428356934,0.148260365713,0.146799443202,0.977383405886,-0.0345030132581
2021/03/16/13:15:59.446892,519590,1615896959,448171139,mocap,-2.78302612305,9.64200878906,1.9245078125,0.148310515054,0.147454366915,0.977266973076,-0.0347915410097
2021/03/16/13:15:59.458037,519591,1615896959,458171129,mocap,-2.78358886719,9.63429492188,1.92464123535,0.148796986807,0.148257814325,0.977068045415,-0.0348871187123
2021/03/16/13:15:59.467388,519592,1615896959,468171120,mocap,-2.78401489258,9.626546875,1.924609375,0.148977828082,0.148953583466,0.976934240159,-0.0348987270068
2021/03/16/13:15:59.477338,519593,1615896959,478171110,mocap,-2.78444433594,9.61882421875,1.92448718262,0.149264589108,0.149786627261,0.976753963775,-0.0351532646163
2021/03/16/13:15:59.487353,519594,1615896959,488171101,mocap,-2.78482519531,9.61102734375,1.92427697754,0.149475231639,0.151145529458,0.9765077423,-0.035281999042
2021/03/16/13:15:59.497420,519595,1615896959,498171091,mocap,-2.78518481445,9.60306445313,1.92392260742,0.149783655822,0.152137619771,0.97631004122,-0.0351809274571
2021/03/16/13:15:59.508233,519596,1615896959,508171082,mocap,-2.78549243164,9.59503613281,1.92340515137,0.150451671517,0.15321290458,0.976030021457,-0.0354331409481
2021/03/16/13:15:59.516785,519597,1615896959,518171072,mocap,-2.78577905273,9.58696972656,1.92283117676,0.151008905546,0.15422948385,0.975776768255,-0.0356268839277
2021/03/16/13:15:59.527242,519598,1615896959,528171062,mocap,-2.78604833984,9.57881347656,1.9221072998,0.150944990461,0.155287924439,0.975613720625,-0.0357650890096
2021/03/16/13:15:59.537954,519599,1615896959,538171053,mocap,-2.78630102539,9.57046582031,1.92128320313,0.1515589215,0.156226154606,0.975362712077,-0.035928345336
2021/03/16/13:15:59.547125,519600,1615896959,548171043,mocap,-2.78651000977,9.56206445313,1.9202869873,0.1518394573,0.157259751359,0.975157986581,-0.0357917528137
2021/03/16/13:15:59.556998,519601,1615896959,558171034,mocap,-2.78668579102,9.55366601562,1.9192479248,0.152228113841,0.158249394584,0.974921358128,-0.036222330225
2021/03/16/13:15:59.566888,519602,1615896959,568171024,mocap,-2.78687915039,9.54511816406,1.91802954102,0.152253762616,0.15939661509,0.974727761029,-0.0362946923728
2021/03/16/13:15:59.577953,519603,1615896959,578171015,mocap,-2.78698583984,9.53645605469,1.91672058105,0.15269425425,0.160413949871,0.97449522554,-0.0362063125053
2021/03/16/13:15:59.586826,519604,1615896959,588171005,mocap,-2.78707641602,9.52778222656,1.91528393555,0.152952183046,0.161613547545,0.974245641868,-0.03649815773
2021/03/16/13:15:59.598920,519605,1615896959,598170996,mocap,-2.78721191406,9.51895019531,1.91381591797,0.152986891397,0.162499559511,0.974084028337,-0.0367316710892
2021/03/16/13:15:59.606811,519606,1615896959,608170986,mocap,-2.78725805664,9.50999707031,1.91221350098,0.152966480714,0.163322628225,0.973940900997,-0.0369606382926
2021/03/16/13:15:59.619204,519607,1615896959,618170977,mocap,-2.78726513672,9.50096777344,1.91056469727,0.152918602892,0.164227543428,0.973797783224,-0.0369199641337
2021/03/16/13:15:59.627784,519608,1615896959,628171206,mocap,-2.78731469727,9.49193554688,1.90899304199,0.153020083191,0.16509271293,0.973623201099,-0.03724410026
2021/03/16/13:15:59.639208,519609,1615896959,638171196,mocap,-2.78728100586,9.48276660156,1.90728283691,0.152906150601,0.165856600362,0.973509104378,-0.0373004529191
2021/03/16/13:15:59.647066,519610,1615896959,648171186,mocap,-2.78719824219,9.4734453125,1.90562426758,0.152730425498,0.166637531756,0.9733983009,-0.0374313069318
2021/03/16/13:15:59.657250,519611,1615896959,658171177,mocap,-2.78704638672,9.46414648438,1.90395080566,0.152445562948,0.168069315625,0.973206008523,-0.0371904603151
2021/03/16/13:15:59.667809,519612,1615896959,668171167,mocap,-2.78693505859,9.45470507813,1.90247277832,0.152187769187,0.168802998335,0.973129264685,-0.0369304358167
2021/03/16/13:15:59.676810,519613,1615896959,678171158,mocap,-2.78674902344,9.44520703125,1.90107714844,0.152042260552,0.169766551899,0.972987206772,-0.0368559382482
2021/03/16/13:15:59.687126,519614,1615896959,688171148,mocap,-2.78656689453,9.43549902344,1.89986901855,0.151523357702,0.170633463492,0.972930494199,-0.0364847575095
2021/03/16/13:15:59.697511,519615,1615896959,698171139,mocap,-2.78624462891,9.42578808594,1.89884533691,0.150922286508,0.171035008508,0.972956737385,-0.0363962534432
2021/03/16/13:15:59.706832,519616,1615896959,708171129,mocap,-2.78585546875,9.41597949219,1.8979552002,0.150515632357,0.171663215125,0.972924521038,-0.0359812720776
2021/03/16/13:15:59.717605,519617,1615896959,718171120,mocap,-2.78546557617,9.40604003906,1.89718591309,0.150112425241,0.171995443708,0.972934759627,-0.0358019038209
2021/03/16/13:15:59.728839,519618,1615896959,728171110,mocap,-2.78490380859,9.39597363281,1.89644909668,0.149848806469,0.172825731446,0.972851461714,-0.0351659212509
2021/03/16/13:15:59.736734,519619,1615896959,738171101,mocap,-2.78443359375,9.38597265625,1.89615380859,0.149239184027,0.173411135892,0.972845809727,-0.035032537606
2021/03/16/13:15:59.748556,519620,1615896959,748171091,mocap,-2.7839934082,9.37592578125,1.89620410156,0.148671752901,0.173990741353,0.972847226556,-0.0345284094974
2021/03/16/13:15:59.757123,519621,1615896959,758171082,mocap,-2.78351977539,9.36571777344,1.89658081055,0.148018285002,0.175009740862,0.972793492819,-0.0336896261381
2021/03/16/13:15:59.768560,519622,1615896959,768171072,mocap,-2.78301806641,9.35542578125,1.89718249512,0.147359428761,0.175310522043,0.972867023657,-0.0328811684281
2021/03/16/13:15:59.776856,519623,1615896959,778171062,mocap,-2.78250585938,9.34509863281,1.89788647461,0.147217295544,0.175367307151,0.972913087693,-0.0318354825363
2021/03/16/13:15:59.788785,519624,1615896959,788171053,mocap,-2.78191381836,9.33470605469,1.89876464844,0.14658471165,0.175270380883,0.973061565225,-0.0307311063333
2021/03/16/13:15:59.796909,519625,1615896959,798171043,mocap,-2.78133251953,9.32422363281,1.89988391113,0.146256766049,0.174934869542,0.973206820028,-0.0295844240352
2021/03/16/13:15:59.808496,519626,1615896959,808171034,mocap,-2.78080957031,9.3138515625,1.90114697266,0.146104992917,0.174547864181,0.973323233313,-0.0287795386581
2021/03/16/13:15:59.817092,519627,1615896959,818171024,mocap,-2.78027197266,9.30343164062,1.90237988281,0.146147422096,0.173773959157,0.973484950187,-0.0277594354859
2021/03/16/13:15:59.828473,519628,1615896959,828171015,mocap,-2.77968530273,9.29306738281,1.90363024902,0.146305958141,0.17262264893,0.973683446794,-0.0271390991533
2021/03/16/13:15:59.836879,519629,1615896959,838171005,mocap,-2.779109375,9.2828125,1.90482861328,0.14701146301,0.171634739559,0.97376781358,-0.0265592790141
2021/03/16/13:15:59.848121,519630,1615896959,848170996,mocap,-2.77857128906,9.27264453125,1.90599230957,0.147350902322,0.170505578338,0.973928875231,-0.0260403742074
2021/03/16/13:15:59.856922,519631,1615896959,858170986,mocap,-2.7780559082,9.26256640625,1.90706872559,0.147784194353,0.169546284473,0.9740462272,-0.0254527017259
2021/03/16/13:15:59.868263,519632,1615896959,868170977,mocap,-2.77763256836,9.25266699219,1.90814550781,0.148719532354,0.169244567399,0.97396618369,-0.0250730332713
2021/03/16/13:15:59.876885,519633,1615896959,878171206,mocap,-2.77728759766,9.24293457031,1.90931896973,0.149528078142,0.169236718223,0.973850137987,-0.0248235977063
2021/03/16/13:15:59.888150,519634,1615896959,888171196,mocap,-2.77700756836,9.23324804687,1.91047851562,0.150486825226,0.1692017505,0.973711368372,-0.0247114349124
2021/03/16/13:15:59.897018,519635,1615896959,898171186,mocap,-2.77682006836,9.22362890625,1.91163562012,0.151571156614,0.169397990011,0.973512900419,-0.024558586815
2021/03/16/13:15:59.908043,519636,1615896959,908171177,mocap,-2.77669360352,9.21400195313,1.91275427246,0.15263358115,0.169241165537,0.97338475288,-0.0241357398749
2021/03/16/13:15:59.917236,519637,1615896959,918171167,mocap,-2.77671582031,9.20437597656,1.9139230957,0.153831378653,0.169285621742,0.973198582459,-0.0237237028029
2021/03/16/13:15:59.926969,519638,1615896959,928171158,mocap,-2.7767878418,9.19480957031,1.91499230957,0.154692203178,0.168875964214,0.973150258064,-0.0230172597654
2021/03/16/13:15:59.936890,519639,1615896959,938171148,mocap,-2.77700439453,9.18526660156,1.9160916748,0.1553892882,0.168562517844,0.973113814126,-0.0221435121412
2021/03/16/13:15:59.947794,519640,1615896959,948171139,mocap,-2.77744360352,9.17577246094,1.91718530273,0.155983229565,0.168404021887,0.973068333852,-0.0211505327249
2021/03/16/13:15:59.956925,519641,1615896959,958171129,mocap,-2.77800927734,9.1662734375,1.91824182129,0.156158260557,0.168224411505,0.973096265424,-0.0199702461544
2021/03/16/13:15:59.968730,519642,1615896959,968171120,mocap,-2.77856591797,9.15681152344,1.91923364258,0.156606820421,0.167824326882,0.973112680973,-0.0190003934306
2021/03/16/13:15:59.976810,519643,1615896959,978171110,mocap,-2.77926928711,9.1473359375,1.92010913086,0.156687620802,0.167297133132,0.973217660441,-0.0175509961124
2021/03/16/13:15:59.988867,519644,1615896959,988171101,mocap,-2.78010205078,9.13793261719,1.92095947266,0.156423673463,0.166837325371,0.973363534925,-0.0161361967264
2021/03/16/13:15:59.997267,519645,1615896959,998171091,mocap,-2.78098193359,9.12853027344,1.92167016602,0.15624683634,0.166365773161,0.973495596167,-0.0146860528909
2021/03/16/13:16:00.008648,519646,1615896960,8171082,mocap,-2.78197875977,9.11913671875,1.92229699707,0.155977016722,0.1658670056,0.973640556649,-0.0135416844883
2021/03/16/13:16:00.016709,519647,1615896960,18171072,mocap,-2.78304467773,9.10975390625,1.92281164551,0.155324804819,0.165350731385,0.973854345832,-0.0118768283224
2021/03/16/13:16:00.028868,519648,1615896960,28171062,mocap,-2.78411694336,9.10041113281,1.92299511719,0.153763259008,0.165330598897,0.974130118957,-0.00965218170013
2021/03/16/13:16:00.037025,519649,1615896960,38171053,mocap,-2.78539941406,9.09106640625,1.92356225586,0.154537137871,0.164264156628,0.974194279649,-0.0090045798885
2021/03/16/13:16:00.048874,519650,1615896960,48171043,mocap,-2.78661254883,9.08175976562,1.92359960938,0.153106889222,0.163967569215,0.974487274105,-0.00688910933015
2021/03/16/13:16:00.057286,519651,1615896960,58171034,mocap,-2.78790112305,9.07245898438,1.92368286133,0.152134935686,0.163354090332,0.974752816938,-0.00522890515803
2021/03/16/13:16:00.067836,519652,1615896960,68171024,mocap,-2.78920751953,9.06319433594,1.92364367676,0.151620896808,0.163128727262,0.974877643549,-0.00369938235829
2021/03/16/13:16:00.077081,519653,1615896960,78171015,mocap,-2.79051904297,9.05396582031,1.92350708008,0.150531726161,0.163017905261,0.975069262416,-0.00230198372784
2021/03/16/13:16:00.088983,519654,1615896960,88171005,mocap,-2.79188696289,9.0448515625,1.92336181641,0.150505103837,0.16363845425,0.974971497559,-0.00111905165184
2021/03/16/13:16:00.097025,519655,1615896960,98170996,mocap,-2.79324194336,9.03568164063,1.92295715332,0.149506615803,0.164093825843,0.975049219662,0.000107289630851
2021/03/16/13:16:00.108503,519656,1615896960,108170986,mocap,-2.79463183594,9.02638867188,1.9223059082,0.149386111162,0.163808595505,0.975115069605,0.0010658832169
2021/03/16/13:16:00.116831,519657,1615896960,118170977,mocap,-2.79601489258,9.01718164062,1.92174169922,0.149152921174,0.164470426957,0.975037062381,0.00236534047419
2021/03/16/13:16:00.128543,519658,1615896960,128171206,mocap,-2.79744238281,9.00808203125,1.9212175293,0.148488953413,0.165679601276,0.974931323555,0.00319598163755
2021/03/16/13:16:00.136771,519659,1615896960,138171196,mocap,-2.79880859375,8.99870898437,1.9202869873,0.14863298432,0.165441976421,0.974946317356,0.00410634804158
2021/03/16/13:16:00.147405,519660,1615896960,148171186,mocap,-2.8002644043,8.9895,1.91947497559,0.148417793595,0.166586582242,0.974781349925,0.00473084996076
2021/03/16/13:16:00.156821,519661,1615896960,158171177,mocap,-2.8016862793,8.98015820313,1.9185144043,0.147974314775,0.167189099653,0.974741504405,0.0055147522736
2021/03/16/13:16:00.167375,519662,1615896960,168171167,mocap,-2.80317407227,8.97072851562,1.91740527344,0.14792469179,0.167749954998,0.974647773491,0.006321100893
2021/03/16/13:16:00.178345,519663,1615896960,178171158,mocap,-2.80470922852,8.96130273437,1.91619030762,0.147717552639,0.168181984028,0.974600155468,0.00699105215666
2021/03/16/13:16:00.186732,519664,1615896960,188171148,mocap,-2.80618652344,8.95186621094,1.91490820312,0.147461035803,0.168929654809,0.97450666326,0.00740157844994
2021/03/16/13:16:00.197992,519665,1615896960,198171139,mocap,-2.80778051758,8.9423046875,1.91339660645,0.147867444694,0.168762013582,0.974468687373,0.00808570709364
2021/03/16/13:16:00.208771,519666,1615896960,208171129,mocap,-2.8094230957,8.93282519531,1.91192834473,0.14802093645,0.1692911047,0.974351340405,0.00835359212863
2021/03/16/13:16:00.216862,519667,1615896960,218171120,mocap,-2.81101025391,8.92338183594,1.91044458008,0.14775508583,0.170407993036,0.974193140105,0.00879057113971
2021/03/16/13:16:00.226881,519668,1615896960,228171110,mocap,-2.81268969727,8.91393261719,1.90881201172,0.147465113256,0.171045780914,0.974123824266,0.00895320036693
2021/03/16/13:16:00.237934,519669,1615896960,238171101,mocap,-2.81441699219,8.9044609375,1.90709729004,0.147641703502,0.17221164555,0.973888398106,0.00929886224469
2021/03/16/13:16:00.248722,519670,1615896960,248171091,mocap,-2.81620214844,8.89487988281,1.90523706055,0.147410168981,0.172778674913,0.973821508857,0.00945760329382
2021/03/16/13:16:00.257059,519671,1615896960,258171082,mocap,-2.81794116211,8.88541210938,1.90354211426,0.146919815628,0.173732594311,0.973722478627,0.00980172621857
2021/03/16/13:16:00.267812,519672,1615896960,268171072,mocap,-2.81978588867,8.87590039063,1.90199719238,0.147061215122,0.174739123494,0.973519642948,0.00993667653625
2021/03/16/13:16:00.276824,519673,1615896960,278171062,mocap,-2.82162768555,8.86628222656,1.90055712891,0.147410033477,0.175787856146,0.973279064199,0.00983768498589
2021/03/16/13:16:00.288780,519674,1615896960,288171053,mocap,-2.82351196289,8.8565703125,1.89919360352,0.147017229277,0.176460358749,0.973218479591,0.00966787492045
2021/03/16/13:16:00.296852,519675,1615896960,298171043,mocap,-2.82533447266,8.84677636719,1.89806640625,0.147185063133,0.176936607685,0.973110506541,0.00927018585691
2021/03/16/13:16:00.308590,519676,1615896960,308171034,mocap,-2.82726123047,8.83699804687,1.89708117676,0.147472927728,0.177427925986,0.972979472738,0.00905564718673
2021/03/16/13:16:00.316844,519677,1615896960,318171024,mocap,-2.82917529297,8.82715527344,1.8961862793,0.147714494282,0.177987199063,0.972845181726,0.00855786342552
2021/03/16/13:16:00.328527,519678,1615896960,328171015,mocap,-2.83111376953,8.81727734375,1.89546276855,0.147734950413,0.178695291682,0.972718646641,0.0077983753991
2021/03/16/13:16:00.336826,519679,1615896960,338171005,mocap,-2.83306518555,8.80740136719,1.89494250488,0.148243077717,0.179387501031,0.972519363208,0.00708490523658
2021/03/16/13:16:00.348494,519680,1615896960,348170996,mocap,-2.83504272461,8.7974921875,1.89467321777,0.148614853892,0.180406731239,0.972277333858,0.00661949862121
2021/03/16/13:16:00.357026,519681,1615896960,358170986,mocap,-2.83705029297,8.78755664063,1.89493139648,0.148387179208,0.18165875704,0.972082006849,0.00615770057478
2021/03/16/13:16:00.368472,519682,1615896960,368170977,mocap,-2.83909985352,8.77757128906,1.89543273926,0.14874225909,0.182610383908,0.971853468801,0.00547813223936
2021/03/16/13:16:00.376972,519683,1615896960,378171206,mocap,-2.84114892578,8.7674765625,1.89621105957,0.149259723658,0.183142284425,0.971678207626,0.00467866431232
2021/03/16/13:16:00.388724,519684,1615896960,388171196,mocap,-2.84308178711,8.75724511719,1.89710681152,0.149920352092,0.183238147599,0.971562969923,0.00361439783754
2021/03/16/13:16:00.396797,519685,1615896960,398171186,mocap,-2.84502270508,8.74689746094,1.89826245117,0.14975185968,0.184064106608,0.971435631241,0.00275748708994
2021/03/16/13:16:00.408541,519686,1615896960,408171177,mocap,-2.84700439453,8.73665332031,1.89979199219,0.150301846038,0.183704044177,0.971421733719,0.00140749087009
2021/03/16/13:16:00.416744,519687,1615896960,418171167,mocap,-2.84889282227,8.72635644531,1.90155163574,0.150627818928,0.1835348977,0.971404223478,0.000155090324544
2021/03/16/13:16:00.428228,519688,1615896960,428171158,mocap,-2.85078881836,8.71600195312,1.90341381836,0.151274448285,0.18283487446,0.971434940972,-0.00126863833411
2021/03/16/13:16:00.437236,519689,1615896960,438171148,mocap,-2.85272436523,8.70566308594,1.90549914551,0.152935818719,0.180723671301,0.971563759794,-0.00366520640291
2021/03/16/13:16:00.447908,519690,1615896960,448171139,mocap,-2.85445727539,8.69539746094,1.90714233398,0.152344586825,0.179813611363,0.971822388872,-0.00440815160117
2021/03/16/13:16:00.456954,519691,1615896960,458171129,mocap,-2.85613891602,8.68524609375,1.90885192871,0.152527369136,0.178398971839,0.972046434976,-0.00591033337213
2021/03/16/13:16:00.468140,519692,1615896960,468171120,mocap,-2.85795605469,8.67523242188,1.91059301758,0.152741309615,0.17670137185,0.972309747892,-0.00777725096765
2021/03/16/13:16:00.476881,519693,1615896960,478171110,mocap,-2.85964941406,8.66535644531,1.91238708496,0.154129319218,0.174260078776,0.972513165348,-0.00978350265722
2021/03/16/13:16:00.488436,519694,1615896960,488171101,mocap,-2.86123852539,8.65565917969,1.91362390137,0.152793410951,0.173611988105,0.972834612874,-0.0102891667907
