time,.header.seq,.header.stamp.secs,.header.stamp.nsecs,.header.frame_id,.pose.position.x,.pose.position.y,.pose.position.z,.pose.orientation.x,.pose.orientation.y,.pose.orientation.z,.pose.orientation.w
2021/03/16/14:47:19.835350,930138,1615902439,838171005,mocap,-2.83324511719,10.3419492188,1.93102050781,0.143909218574,0.247499767987,0.957837936474,-0.024093644702
2021/03/16/14:47:19.843748,930139,1615902439,848170996,mocap,-2.83330053711,10.3425615234,1.93103369141,0.143684079512,0.248129060278,0.957716474651,-0.0237911006322
2021/03/16/14:47:19.855267,930140,1615902439,858170986,mocap,-2.83340991211,10.3432001953,1.93105639648,0.143569751046,0.248831199248,0.957557160038,-0.0235593676303
2021/03/16/14:47:19.863796,930141,1615902439,868170977,mocap,-2.83338623047,10.3438115234,1.93084130859,0.145192898576,0.248928123274,0.957265342576,-0.0244309835535
2021/03/16/14:47:19.873833,930142,1615902439,878171206,mocap,-2.8336472168,10.3446240234,1.93095703125,0.143984491916,0.250313283365,0.957113597208,-0.0233514861379
2021/03/16/14:47:19.885021,930143,1615902439,888171196,mocap,-2.833765625,10.3453935547,1.93090209961,0.143670920459,0.251181885118,0.956938205789,-0.0231429378411
2021/03/16/14:47:19.894599,930144,1615902439,898171186,mocap,-2.83388574219,10.3462304688,1.93076599121,0.143537603144,0.252597539383,0.956588977683,-0.0229995617345
2021/03/16/14:47:19.905247,930145,1615902439,908171177,mocap,-2.83401733398,10.3471035156,1.93069091797,0.143631472115,0.25363908543,0.956299685141,-0.0229807319795
2021/03/16/14:47:19.913940,930146,1615902439,918171167,mocap,-2.83416748047,10.3479433594,1.93059289551,0.143477720579,0.254722926772,0.956039490935,-0.0227785428837
2021/03/16/14:47:19.925375,930147,1615902439,928171158,mocap,-2.83439013672,10.3489462891,1.93069287109,0.142025861066,0.25710873904,0.955642159198,-0.0217210901481
2021/03/16/14:47:19.934007,930148,1615902439,938171148,mocap,-2.83456884766,10.3498164062,1.93065710449,0.141971448052,0.258144594652,0.955368543908,-0.0218270186493
2021/03/16/14:47:19.945134,930149,1615902439,948171139,mocap,-2.83466113281,10.3505322266,1.93043554688,0.142683974731,0.25828315089,0.95521197327,-0.0223873583308
2021/03/16/14:47:19.953967,930150,1615902439,958171129,mocap,-2.83468774414,10.3512353516,1.9302713623,0.143330754245,0.258621073246,0.955003201095,-0.0232447427374
2021/03/16/14:47:19.965123,930151,1615902439,968171120,mocap,-2.83481469727,10.3520244141,1.9303260498,0.143565214056,0.258877337106,0.954891951188,-0.0235143049811
2021/03/16/14:47:19.974083,930152,1615902439,978171110,mocap,-2.83501513672,10.3528583984,1.9306295166,0.1422246048,0.259680201273,0.954884726011,-0.0230979539471
2021/03/16/14:47:19.985064,930153,1615902439,988171101,mocap,-2.83513793945,10.3535703125,1.93076635742,0.142115793523,0.259730145272,0.954879248572,-0.0234303390175
2021/03/16/14:47:19.994309,930154,1615902439,998171091,mocap,-2.83529418945,10.3542714844,1.93088208008,0.142329050177,0.259854698507,0.954806938754,-0.0237000393942
2021/03/16/14:47:20.003913,930155,1615902440,8171082,mocap,-2.83547021484,10.3550117187,1.93100231934,0.142357542435,0.259831866277,0.954798651685,-0.024109392614
2021/03/16/14:47:20.014923,930156,1615902440,18171072,mocap,-2.83563964844,10.3556240234,1.93099206543,0.143017840924,0.258956696613,0.95492040662,-0.0247860510545
2021/03/16/14:47:20.023962,930157,1615902440,28171062,mocap,-2.83581176758,10.3563369141,1.93101550293,0.143097024358,0.25907590213,0.954870072621,-0.0250214049619
2021/03/16/14:47:20.035019,930158,1615902440,38171053,mocap,-2.83601025391,10.3571542969,1.93106518555,0.142993689205,0.259130889269,0.954869003649,-0.0250833885634
2021/03/16/14:47:20.043882,930159,1615902440,48171043,mocap,-2.83620727539,10.3579384766,1.93114587402,0.14287534167,0.259412739589,0.954808171664,-0.0251600517059
2021/03/16/14:47:20.054859,930160,1615902440,58171034,mocap,-2.83647412109,10.3587851563,1.93120373535,0.141151374435,0.260497405659,0.95479028651,-0.0243492662659
2021/03/16/14:47:20.065031,930161,1615902440,68171024,mocap,-2.83673388672,10.359703125,1.93125732422,0.142112837355,0.261128213761,0.954470099624,-0.0245524299708
2021/03/16/14:47:20.073821,930162,1615902440,78171015,mocap,-2.83698291016,10.3605292969,1.93116162109,0.141586754193,0.261664279256,0.954406470908,-0.0243575853596
2021/03/16/14:47:20.086113,930163,1615902440,88171005,mocap,-2.83717944336,10.3612666016,1.93091674805,0.142203924375,0.261553782405,0.954338231793,-0.0246209051795
2021/03/16/14:47:20.093997,930164,1615902440,98170996,mocap,-2.83745605469,10.3620751953,1.93076269531,0.142275311903,0.262274502587,0.954134367552,-0.0244423877376
2021/03/16/14:47:20.105929,930165,1615902440,108170986,mocap,-2.83776928711,10.3629589844,1.9308371582,0.141084042839,0.263484399838,0.953997009858,-0.0236846372294
2021/03/16/14:47:20.114319,930166,1615902440,118170977,mocap,-2.83801782227,10.3636728516,1.93073193359,0.1406197055,0.263963057332,0.95393985561,-0.0234168392363
2021/03/16/14:47:20.125766,930167,1615902440,128171206,mocap,-2.83824780273,10.3643115234,1.93058679199,0.140418278108,0.264151201516,0.953918837793,-0.0233602184651
2021/03/16/14:47:20.134212,930168,1615902440,138171196,mocap,-2.83843530273,10.3647734375,1.93032519531,0.141245803003,0.263288330779,0.954025741891,-0.0237435879773
2021/03/16/14:47:20.145817,930169,1615902440,148171186,mocap,-2.8386809082,10.3652753906,1.93034094238,0.140930970138,0.262942173598,0.954172418749,-0.02355568275
2021/03/16/14:47:20.154209,930170,1615902440,158171177,mocap,-2.83887792969,10.3656914063,1.9302668457,0.140591024339,0.262132842829,0.954447821079,-0.0234499060681
2021/03/16/14:47:20.165659,930171,1615902440,168171167,mocap,-2.83907666016,10.366046875,1.9302076416,0.140189259465,0.261180222542,0.954770294071,-0.0233568508073
2021/03/16/14:47:20.173915,930172,1615902440,178171158,mocap,-2.83930419922,10.3663525391,1.93028381348,0.139543553094,0.259996084074,0.95519564009,-0.0230415399806
2021/03/16/14:47:20.185644,930173,1615902440,188171148,mocap,-2.83952612305,10.3665742187,1.9303215332,0.139698123324,0.258928491094,0.95546355788,-0.0230186946931
2021/03/16/14:47:20.193926,930174,1615902440,198171139,mocap,-2.83984448242,10.3668066406,1.93048046875,0.138566075709,0.258167129657,0.955861447125,-0.0218649711929
2021/03/16/14:47:20.205565,930175,1615902440,208171129,mocap,-2.84002416992,10.3669277344,1.93053344727,0.137815337093,0.256629777529,0.956390602396,-0.0215662150348
2021/03/16/14:47:20.214187,930176,1615902440,218171120,mocap,-2.84020996094,10.3670185547,1.93061779785,0.137415226163,0.254911115493,0.956913064938,-0.0213251655624
2021/03/16/14:47:20.225742,930177,1615902440,228171110,mocap,-2.84036962891,10.3670488281,1.93057385254,0.137466958053,0.253363378868,0.957319115144,-0.0212120270381
2021/03/16/14:47:20.233927,930178,1615902440,238171101,mocap,-2.84051391602,10.3670527344,1.93059741211,0.137373792606,0.251580189474,0.957802776829,-0.0212059658795
2021/03/16/14:47:20.245772,930179,1615902440,248171091,mocap,-2.84066186523,10.3670419922,1.93060900879,0.13703765657,0.249884318656,0.95829838537,-0.0210408199663
2021/03/16/14:47:20.254155,930180,1615902440,258171082,mocap,-2.84079248047,10.3670263672,1.9305736084,0.136858936282,0.248284603898,0.958741586566,-0.0209514195171
2021/03/16/14:47:20.265452,930181,1615902440,268171072,mocap,-2.84092211914,10.3670146484,1.93054797363,0.136534661194,0.247116549206,0.959090706705,-0.0208974900169
2021/03/16/14:47:20.274021,930182,1615902440,278171062,mocap,-2.84108129883,10.3669892578,1.93056689453,0.136169770362,0.245797042968,0.959486369649,-0.0206765386423
2021/03/16/14:47:20.285624,930183,1615902440,288171053,mocap,-2.84119287109,10.3670185547,1.93051525879,0.135986641345,0.244741790433,0.959782743942,-0.020643951097
2021/03/16/14:47:20.294142,930184,1615902440,298171043,mocap,-2.84131054687,10.367078125,1.93051672363,0.136108310642,0.244076942972,0.959932763432,-0.0207378389919
2021/03/16/14:47:20.305538,930185,1615902440,308171034,mocap,-2.8413034668,10.3670585938,1.93033459473,0.136901033128,0.243145107223,0.960041535604,-0.0214198426759
2021/03/16/14:47:20.314210,930186,1615902440,318171024,mocap,-2.84138696289,10.367125,1.93032263184,0.136959608217,0.242700618691,0.960142791691,-0.0215474538602
2021/03/16/14:47:20.325309,930187,1615902440,328171015,mocap,-2.84156835938,10.3672509766,1.93045544434,0.135978206705,0.243061420814,0.960207196429,-0.0208138298412
2021/03/16/14:47:20.333983,930188,1615902440,338171005,mocap,-2.84154589844,10.3672285156,1.93033288574,0.137048286058,0.242394981186,0.960198855095,-0.0219226107635
2021/03/16/14:47:20.345320,930189,1615902440,348170996,mocap,-2.84163330078,10.3672617187,1.93035424805,0.137108002732,0.242197201576,0.960234446868,-0.022174631265
2021/03/16/14:47:20.354010,930190,1615902440,358170986,mocap,-2.8418137207,10.3673466797,1.9304942627,0.135925458755,0.242541377312,0.960329320781,-0.0215764680783
2021/03/16/14:47:20.365365,930191,1615902440,368170977,mocap,-2.84181640625,10.3672197266,1.93030310059,0.137229487489,0.241826478331,0.960297914426,-0.0227142708287
2021/03/16/14:47:20.374076,930192,1615902440,378171206,mocap,-2.84195385742,10.367171875,1.93039257812,0.137345760568,0.241601103891,0.960329902658,-0.0230546297118
2021/03/16/14:47:20.385298,930193,1615902440,388171196,mocap,-2.84206542969,10.3671074219,1.93035388184,0.137408334284,0.241307904138,0.96038790237,-0.0233349233566
2021/03/16/14:47:20.394121,930194,1615902440,398171186,mocap,-2.84218945313,10.36703125,1.93034924316,0.137414800971,0.241135895308,0.960423006166,-0.0236284879838
2021/03/16/14:47:20.405171,930195,1615902440,408171177,mocap,-2.84232836914,10.3669501953,1.93037634277,0.137251266504,0.241146374003,0.960440840731,-0.0237468682856
2021/03/16/14:47:20.414175,930196,1615902440,418171167,mocap,-2.84247119141,10.36684375,1.93034851074,0.137362187626,0.240898777091,0.960479045457,-0.0240709347474
2021/03/16/14:47:20.424169,930197,1615902440,428171158,mocap,-2.84261645508,10.3667451172,1.93032177734,0.137293894612,0.24080808155,0.960507474993,-0.0242332945805
2021/03/16/14:47:20.436163,930198,1615902440,438171148,mocap,-2.84278442383,10.3666201172,1.93038317871,0.137160907797,0.240514379552,0.960595923091,-0.0243964493506
2021/03/16/14:47:20.444139,930199,1615902440,448171139,mocap,-2.84290014648,10.3665058594,1.93039819336,0.137341342839,0.240395401687,0.960594333067,-0.0246159354845
2021/03/16/14:47:20.455902,930200,1615902440,458171129,mocap,-2.84300024414,10.3663310547,1.930359375,0.137664366776,0.240319074844,0.960561368568,-0.0248418128728
2021/03/16/14:47:20.464031,930201,1615902440,468171120,mocap,-2.84311328125,10.3661386719,1.93038647461,0.137542677309,0.240172646527,0.960612435913,-0.0249574131193
2021/03/16/14:47:20.473841,930202,1615902440,478171110,mocap,-2.84319042969,10.3659638672,1.93042687988,0.137529322003,0.239962975593,0.960664384689,-0.0250479888686
2021/03/16/14:47:20.486035,930203,1615902440,488171101,mocap,-2.8432331543,10.36575,1.93039746094,0.137909582975,0.239666797276,0.960680043226,-0.0251917592519
2021/03/16/14:47:20.494433,930204,1615902440,498171091,mocap,-2.84330517578,10.3655058594,1.93043066406,0.138076463858,0.239468128422,0.960704666711,-0.025228153506
2021/03/16/14:47:20.506107,930205,1615902440,508171082,mocap,-2.8433828125,10.3652402344,1.93045080566,0.137990556054,0.239149718128,0.960796415625,-0.0252244343641
2021/03/16/14:47:20.514035,930206,1615902440,518171072,mocap,-2.84337036133,10.36490625,1.93027355957,0.13760142167,0.238575765089,0.960996928355,-0.0251466562826
2021/03/16/14:47:20.525913,930207,1615902440,528171062,mocap,-2.84340429688,10.3646230469,1.93023474121,0.13786738357,0.238410053319,0.961003115205,-0.0250248496169
2021/03/16/14:47:20.534089,930208,1615902440,538171053,mocap,-2.84345092773,10.3643427734,1.93025231934,0.137972843412,0.238189946101,0.9610464453,-0.0248753138747
2021/03/16/14:47:20.546060,930209,1615902440,548171043,mocap,-2.84347436523,10.3640732422,1.93022924805,0.1384008377,0.237999520397,0.961032730904,-0.0248499381922
2021/03/16/14:47:20.554265,930210,1615902440,558171034,mocap,-2.84355664063,10.3638720703,1.93035241699,0.139278866511,0.238036991093,0.960895847565,-0.0248789008875
2021/03/16/14:47:20.564140,930211,1615902440,568171024,mocap,-2.84359594727,10.3635966797,1.93035961914,0.139308417121,0.237869006243,0.960935685691,-0.0247812477324
2021/03/16/14:47:20.574186,930212,1615902440,578171015,mocap,-2.84363891602,10.3633300781,1.93033703613,0.139520771287,0.237644825028,0.960964613431,-0.0246151999555
2021/03/16/14:47:20.583840,930213,1615902440,588171005,mocap,-2.84365454102,10.3630898438,1.93032763672,0.13991913678,0.23744788683,0.960952495055,-0.0247272731528
2021/03/16/14:47:20.595571,930214,1615902440,598170996,mocap,-2.84370288086,10.3628476563,1.93032946777,0.140067078763,0.237336189499,0.960959883949,-0.0246749180591
2021/03/16/14:47:20.603856,930215,1615902440,608170986,mocap,-2.84374731445,10.3626240234,1.93032910156,0.140385002381,0.237359275249,0.960906222075,-0.0247359064934
2021/03/16/14:47:20.616047,930216,1615902440,618170977,mocap,-2.84379785156,10.3623876953,1.9302557373,0.140559878389,0.237527931238,0.960840235804,-0.0246871130631
2021/03/16/14:47:20.624092,930217,1615902440,628171206,mocap,-2.84385766602,10.3621279297,1.9302175293,0.14048025557,0.237523007779,0.960852185005,-0.024722528883
2021/03/16/14:47:20.635787,930218,1615902440,638171196,mocap,-2.84388549805,10.3619101562,1.93022241211,0.140600914529,0.23760572106,0.96081421224,-0.0247176140291
2021/03/16/14:47:20.643946,930219,1615902440,648171186,mocap,-2.84396069336,10.3616298828,1.9301953125,0.140939352686,0.237643490982,0.96075070124,-0.0248950722695
2021/03/16/14:47:20.655532,930220,1615902440,658171177,mocap,-2.84402124023,10.3613388672,1.93015686035,0.140766454899,0.237624182339,0.960779448436,-0.0249481350063
2021/03/16/14:47:20.664282,930221,1615902440,668171167,mocap,-2.84408007813,10.3610712891,1.93019262695,0.140364076101,0.23757193473,0.960852285809,-0.0249075206211
2021/03/16/14:47:20.675754,930222,1615902440,678171158,mocap,-2.84414501953,10.3608154297,1.93020959473,0.140593036137,0.23771648155,0.960775896766,-0.0251823534285
2021/03/16/14:47:20.683983,930223,1615902440,688171148,mocap,-2.84421142578,10.3605537109,1.93021716309,0.140790104065,0.237945342687,0.96068135391,-0.0255245756772
2021/03/16/14:47:20.695372,930224,1615902440,698171139,mocap,-2.84428100586,10.3602841797,1.93030908203,0.140786530857,0.238207333784,0.960612753912,-0.0256818640503
2021/03/16/14:47:20.704126,930225,1615902440,708171129,mocap,-2.84433984375,10.3600185547,1.93030029297,0.140739963076,0.238360789374,0.960576175586,-0.0258807864095
2021/03/16/14:47:20.715537,930226,1615902440,718171120,mocap,-2.84443359375,10.3597734375,1.93031591797,0.140956228518,0.238584985024,0.960477315611,-0.0263034449727
2021/03/16/14:47:20.723997,930227,1615902440,728171110,mocap,-2.84452368164,10.359453125,1.93040539551,0.140748750792,0.238798584865,0.96044939717,-0.0264947936075
2021/03/16/14:47:20.735389,930228,1615902440,738171101,mocap,-2.84459423828,10.3591337891,1.93041455078,0.140857309767,0.239030963596,0.960366180042,-0.0268369119412
2021/03/16/14:47:20.744181,930229,1615902440,748171091,mocap,-2.84467163086,10.3588701172,1.93041687012,0.140830256847,0.23907250563,0.960351106009,-0.0271465853082
2021/03/16/14:47:20.755116,930230,1615902440,758171082,mocap,-2.84475756836,10.3585507813,1.9304786377,0.140520572696,0.23928420612,0.960342998672,-0.0271728162563
2021/03/16/14:47:20.764201,930231,1615902440,768171072,mocap,-2.84483789063,10.3582412109,1.93051330566,0.140395050584,0.239336149224,0.960345077881,-0.0272903133192
2021/03/16/14:47:20.775372,930232,1615902440,778171062,mocap,-2.84491503906,10.3578935547,1.93050158691,0.140580561541,0.23968625265,0.960223048644,-0.0275553794236
2021/03/16/14:47:20.784297,930233,1615902440,788171053,mocap,-2.844984375,10.3575136719,1.93051757812,0.140513242186,0.23989431022,0.960174746293,-0.0277706560883
2021/03/16/14:47:20.795184,930234,1615902440,798171043,mocap,-2.84506494141,10.3571220703,1.9305559082,0.140072932381,0.239986364946,0.96021314007,-0.0278719759486
2021/03/16/14:47:20.804506,930235,1615902440,808171034,mocap,-2.8451315918,10.3567246094,1.93055200195,0.140202344919,0.240230264961,0.960123841908,-0.0281945490389
2021/03/16/14:47:20.814996,930236,1615902440,818171024,mocap,-2.84528173828,10.3562714844,1.93055358887,0.138432838074,0.240564636772,0.960317039218,-0.0274991612078
2021/03/16/14:47:20.823892,930237,1615902440,828171015,mocap,-2.84527856445,10.3558515625,1.93058251953,0.140198996489,0.240383310443,0.960070831745,-0.0287069591694
2021/03/16/14:47:20.835060,930238,1615902440,838171005,mocap,-2.84536035156,10.3554042969,1.93059069824,0.140164317078,0.240254293943,0.960098831037,-0.0290184452423
2021/03/16/14:47:20.844328,930239,1615902440,848170996,mocap,-2.84542919922,10.3548847656,1.93053588867,0.139904191566,0.240270827748,0.960126969191,-0.0292053277618
2021/03/16/14:47:20.855163,930240,1615902440,858170986,mocap,-2.84547827148,10.3543046875,1.93051721191,0.139993268049,0.24044886674,0.960066726459,-0.0292933531158
2021/03/16/14:47:20.863918,930241,1615902440,868170977,mocap,-2.84553125,10.3537470703,1.9305300293,0.139792974435,0.240552739441,0.960069147727,-0.0293179145844
2021/03/16/14:47:20.876083,930242,1615902440,878171206,mocap,-2.84559179687,10.3531513672,1.93053161621,0.139657749139,0.240525818321,0.960091388954,-0.0294546547418
2021/03/16/14:47:20.883890,930243,1615902440,888171196,mocap,-2.84563232422,10.3524882813,1.93056518555,0.139434897142,0.240291750128,0.960180356473,-0.0295205926053
2021/03/16/14:47:20.895616,930244,1615902440,898171186,mocap,-2.84570410156,10.3517919922,1.9306595459,0.139070396716,0.24007801852,0.960288487664,-0.0294616716712
2021/03/16/14:47:20.903955,930245,1615902440,908171177,mocap,-2.84570776367,10.3511113281,1.93066918945,0.139003519325,0.239867331846,0.960352254219,-0.0294148705249
2021/03/16/14:47:20.915955,930246,1615902440,918171167,mocap,-2.84568359375,10.3503867188,1.93069250488,0.138733068476,0.239783392667,0.960413107414,-0.0293891880012
2021/03/16/14:47:20.924231,930247,1615902440,928171158,mocap,-2.84569140625,10.3496962891,1.93082421875,0.138158393967,0.239641211601,0.960537524835,-0.029189406591
2021/03/16/14:47:20.934844,930248,1615902440,938171148,mocap,-2.84563574219,10.3489873047,1.93085375977,0.138132204006,0.23978005997,0.960510849248,-0.0290505017744
2021/03/16/14:47:20.944111,930249,1615902440,948171139,mocap,-2.8455300293,10.3482363281,1.93084667969,0.137944302454,0.239929024904,0.960508948807,-0.0287749034291
2021/03/16/14:47:20.955792,930250,1615902440,958171129,mocap,-2.84540014648,10.3475478516,1.93091577148,0.137645647607,0.240063255445,0.960525067529,-0.0285467392149
2021/03/16/14:47:20.964065,930251,1615902440,968171120,mocap,-2.84523339844,10.3467490234,1.9308828125,0.137833872228,0.240383970219,0.960423021682,-0.0283723782533
2021/03/16/14:47:20.975687,930252,1615902440,978171110,mocap,-2.84503686523,10.3459912109,1.93087536621,0.137651418991,0.240427833153,0.960441981076,-0.0282441906686
2021/03/16/14:47:20.983798,930253,1615902440,988171101,mocap,-2.84479931641,10.3451894531,1.93091442871,0.13731059788,0.240814212084,0.960400291636,-0.0280284735931
2021/03/16/14:47:20.995759,930254,1615902440,998171091,mocap,-2.84453808594,10.3443671875,1.93091711426,0.137591151131,0.241447308228,0.960204317707,-0.027920138387
2021/03/16/14:47:21.004091,930255,1615902441,8171082,mocap,-2.84426049805,10.3435205078,1.93091467285,0.137430616699,0.241731963484,0.960158567371,-0.0278210809931
2021/03/16/14:47:21.015303,930256,1615902441,18171072,mocap,-2.84393188477,10.3426035156,1.9309543457,0.137153002997,0.241952210428,0.960146733695,-0.0276844775817
2021/03/16/14:47:21.024373,930257,1615902441,28171062,mocap,-2.843578125,10.3415986328,1.93096691895,0.137119711971,0.242168757906,0.960102486095,-0.0274897661458
2021/03/16/14:47:21.035453,930258,1615902441,38171053,mocap,-2.84327026367,10.3407441406,1.93114624023,0.136183084076,0.24285643146,0.960084676286,-0.0266895135931
2021/03/16/14:47:21.044103,930259,1615902441,48171043,mocap,-2.84283911133,10.3396806641,1.93107714844,0.136424375916,0.243189069537,0.959965594291,-0.0267116695421
2021/03/16/14:47:21.055660,930260,1615902441,58171034,mocap,-2.84233740234,10.3385488281,1.93100817871,0.135947005808,0.243333489351,0.960005928918,-0.026378771697
2021/03/16/14:47:21.063969,930261,1615902441,68171024,mocap,-2.84179980469,10.33746875,1.93096118164,0.135647319852,0.243617733217,0.959983243324,-0.0261222002636
2021/03/16/14:47:21.073832,930262,1615902441,78171015,mocap,-2.84123974609,10.3362939453,1.93086999512,0.136381709381,0.244189563501,0.959731112315,-0.026223830586
2021/03/16/14:47:21.085499,930263,1615902441,88171005,mocap,-2.84065917969,10.3350556641,1.93084143066,0.136362172536,0.244272699196,0.959713606149,-0.0261918014157
2021/03/16/14:47:21.094012,930264,1615902441,98170996,mocap,-2.84004125977,10.3337851563,1.93077380371,0.136166167443,0.244516586508,0.959683157856,-0.0260509989296
2021/03/16/14:47:21.105514,930265,1615902441,108170986,mocap,-2.83919873047,10.332359375,1.93044763184,0.137917899135,0.244131482775,0.959502513314,-0.0270814041965
2021/03/16/14:47:21.114289,930266,1615902441,118170977,mocap,-2.83857250977,10.3310087891,1.93053222656,0.136542131323,0.244479286957,0.959633252242,-0.0262708594916
2021/03/16/14:47:21.125345,930267,1615902441,128171206,mocap,-2.83782177734,10.3294931641,1.93036352539,0.136255049218,0.244398052174,0.959700625761,-0.0260548431796
2021/03/16/14:47:21.134113,930268,1615902441,138171196,mocap,-2.83706054688,10.3279609375,1.9302199707,0.136823685363,0.244431742724,0.959605992495,-0.0262437322669
2021/03/16/14:47:21.145341,930269,1615902441,148171186,mocap,-2.83632348633,10.3264208984,1.93017724609,0.136557390518,0.244270049585,0.959687109512,-0.0261703800014
2021/03/16/14:47:21.154415,930270,1615902441,158171177,mocap,-2.83548364258,10.3247382812,1.93002490234,0.13638191949,0.244137703535,0.959752359947,-0.0259259320289
2021/03/16/14:47:21.165225,930271,1615902441,168171167,mocap,-2.83462475586,10.3230576172,1.92986682129,0.136664525902,0.243693145635,0.959818126033,-0.0261845304475
2021/03/16/14:47:21.173833,930272,1615902441,178171158,mocap,-2.83376025391,10.3212949219,1.92963391113,0.136593433037,0.243689642201,0.95983724486,-0.0258855208095
2021/03/16/14:47:21.185344,930273,1615902441,188171148,mocap,-2.83278759766,10.3195136719,1.92942224121,0.137588672419,0.24297521365,0.959852847032,-0.0267379705855
2021/03/16/14:47:21.194513,930274,1615902441,198171139,mocap,-2.83198242187,10.3178017578,1.92933410645,0.136889414395,0.243580053893,0.959828403517,-0.0256802557806
2021/03/16/14:47:21.204243,930275,1615902441,208171129,mocap,-2.83100854492,10.3159228516,1.92900134277,0.137198126224,0.243823984201,0.959733200612,-0.0252731232556
2021/03/16/14:47:21.216278,930276,1615902441,218171120,mocap,-2.83006347656,10.3141113281,1.92876318359,0.137045273427,0.243792421558,0.959763996649,-0.025237463552
2021/03/16/14:47:21.223923,930277,1615902441,228171110,mocap,-2.82898632813,10.3121533203,1.92822033691,0.138623344831,0.243680727065,0.959554654177,-0.0256540408148
2021/03/16/14:47:21.236073,930278,1615902441,238171101,mocap,-2.82804614258,10.3102568359,1.9279342041,0.137820025136,0.244603035192,0.959468532874,-0.0243953772869
2021/03/16/14:47:21.244095,930279,1615902441,248171091,mocap,-2.82698022461,10.3081914062,1.9273918457,0.137988875935,0.244741197875,0.959420790496,-0.0239286326594
2021/03/16/14:47:21.256072,930280,1615902441,258171082,mocap,-2.82589892578,10.3061123047,1.92663684082,0.137518546546,0.244741290244,0.959496961291,-0.0235783178205
2021/03/16/14:47:21.263966,930281,1615902441,268171072,mocap,-2.82486328125,10.3041201172,1.92603747559,0.139275397912,0.245166727333,0.959138651945,-0.0234239700951
2021/03/16/14:47:21.275165,930282,1615902441,278171062,mocap,-2.82376806641,10.3018789062,1.92512634277,0.139661905884,0.245104055792,0.959109498231,-0.0229677472067
2021/03/16/14:47:21.283953,930283,1615902441,288171053,mocap,-2.82256884766,10.2996445312,1.92384899902,0.141354289796,0.244615521711,0.958972153906,-0.0235502064669
2021/03/16/14:47:21.296246,930284,1615902441,298171043,mocap,-2.82157910156,10.2975664063,1.92274780273,0.141304603106,0.245006239689,0.958897293395,-0.0228238694332
2021/03/16/14:47:21.304014,930285,1615902441,308171034,mocap,-2.82050341797,10.2953691406,1.92135546875,0.141991840221,0.24523837433,0.958744174375,-0.0224957854255
2021/03/16/14:47:21.315926,930286,1615902441,318171024,mocap,-2.81951293945,10.2932060547,1.9198302002,0.142177543071,0.245809379798,0.958580763464,-0.0220501981253
2021/03/16/14:47:21.324880,930287,1615902441,328171015,mocap,-2.81850195313,10.2910742187,1.91822619629,0.143121342706,0.246697350098,0.958224902895,-0.0214879930027
2021/03/16/14:47:21.335884,930288,1615902441,338171005,mocap,-2.81753588867,10.2889521484,1.91665539551,0.143468578576,0.247675241999,0.957924671046,-0.0213088365065
2021/03/16/14:47:21.344115,930289,1615902441,348170996,mocap,-2.8166394043,10.2868183594,1.91527294922,0.144065943586,0.249062810109,0.957491830039,-0.0205456921034
2021/03/16/14:47:21.354585,930290,1615902441,358170986,mocap,-2.8157902832,10.2845166016,1.91390222168,0.144265342315,0.250307469724,0.957154371166,-0.0197280688602
2021/03/16/14:47:21.363940,930291,1615902441,368170977,mocap,-2.81485668945,10.2820478516,1.91251574707,0.14549539873,0.250983266334,0.95679049675,-0.0197593075071
2021/03/16/14:47:21.375581,930292,1615902441,378171206,mocap,-2.81409790039,10.2795507813,1.91153503418,0.144519924914,0.251704273725,0.956778878393,-0.018251530818
2021/03/16/14:47:21.384032,930293,1615902441,388171196,mocap,-2.81326049805,10.2768525391,1.91050817871,0.145486910663,0.251964218662,0.956574334823,-0.0176956280234
2021/03/16/14:47:21.396254,930294,1615902441,398171186,mocap,-2.81249462891,10.2740146484,1.90961071777,0.146501731017,0.251744527456,0.956481877119,-0.0174459711487
2021/03/16/14:47:21.404362,930295,1615902441,408171177,mocap,-2.8117109375,10.2710859375,1.90892297363,0.146942010513,0.25165963558,0.956445436826,-0.0169587624481
2021/03/16/14:47:21.414478,930296,1615902441,418171167,mocap,-2.81101489258,10.2680878906,1.90855712891,0.147750487582,0.251175871733,0.956454979363,-0.0165638516351
2021/03/16/14:47:21.424203,930297,1615902441,428171158,mocap,-2.81024389648,10.2649003906,1.90824438477,0.148309878892,0.250488308915,0.956553600772,-0.0162787271057
2021/03/16/14:47:21.434695,930298,1615902441,438171148,mocap,-2.80956835938,10.2615585937,1.9081817627,0.149317431571,0.249112327387,0.956759472618,-0.0160830588613
2021/03/16/14:47:21.443923,930299,1615902441,448171139,mocap,-2.8089128418,10.2581464844,1.90834777832,0.15013320664,0.247656797194,0.957009490408,-0.0160924979503
2021/03/16/14:47:21.454627,930300,1615902441,458171129,mocap,-2.80819360352,10.2545517578,1.90840466309,0.151731809436,0.245626870908,0.957272059448,-0.0165860559409
2021/03/16/14:47:21.464141,930301,1615902441,468171120,mocap,-2.80762670898,10.2508925781,1.90875134277,0.152681094002,0.243825973048,0.95757969303,-0.016688473748
2021/03/16/14:47:21.474722,930302,1615902441,478171110,mocap,-2.8070769043,10.2471542969,1.90915454102,0.153247014861,0.241868465656,0.957987233912,-0.0165970699555
2021/03/16/14:47:21.484118,930303,1615902441,488171101,mocap,-2.80653369141,10.2434042969,1.9095177002,0.153957200491,0.239958002195,0.958354743255,-0.0165384238207
2021/03/16/14:47:21.494479,930304,1615902441,498171091,mocap,-2.80606933594,10.2396201172,1.90995019531,0.154590373505,0.237921863734,0.958757952591,-0.016679344322
2021/03/16/14:47:21.504505,930305,1615902441,508171082,mocap,-2.80568334961,10.2357939453,1.91032543945,0.155011663484,0.236507112001,0.959044390508,-0.0164207225706
2021/03/16/14:47:21.513993,930306,1615902441,518171072,mocap,-2.80532714844,10.2320039063,1.91072143555,0.155323429774,0.235116603092,0.959334703773,-0.0164842297233
2021/03/16/14:47:21.524802,930307,1615902441,528171062,mocap,-2.80499804688,10.2281660156,1.9109206543,0.15586774286,0.234039424726,0.959509959964,-0.0164752941659
2021/03/16/14:47:21.534119,930308,1615902441,538171053,mocap,-2.80471142578,10.2243740234,1.91114489746,0.1558597885,0.233480178128,0.959654152669,-0.0160822830782
2021/03/16/14:47:21.545402,930309,1615902441,548171043,mocap,-2.80446582031,10.2205810547,1.91114440918,0.156063917143,0.233317024176,0.95966273165,-0.0159580639248
2021/03/16/14:47:21.554306,930310,1615902441,558171034,mocap,-2.80423168945,10.2167431641,1.91108007812,0.156196423577,0.233315776451,0.959649789393,-0.0154499631403
2021/03/16/14:47:21.564420,930311,1615902441,568171024,mocap,-2.80403271484,10.2128789062,1.91093249512,0.156209948234,0.23389695076,0.959514618944,-0.0149116332902
2021/03/16/14:47:21.574224,930312,1615902441,578171015,mocap,-2.80386157227,10.2089707031,1.9106862793,0.155849903838,0.234565211729,0.959419384902,-0.0142975317629
2021/03/16/14:47:21.585323,930313,1615902441,588171005,mocap,-2.80374072266,10.2050087891,1.91029223633,0.156374414001,0.235787272228,0.959036753791,-0.0141391188915
2021/03/16/14:47:21.594106,930314,1615902441,598170996,mocap,-2.80367724609,10.2009619141,1.90988928223,0.155978312633,0.23707860546,0.958794483722,-0.0133279146678
2021/03/16/14:47:21.604122,930315,1615902441,608170986,mocap,-2.80360888672,10.196859375,1.90938354492,0.156104763321,0.238149697656,0.958514578238,-0.0128774379765
2021/03/16/14:47:21.615160,930316,1615902441,618170977,mocap,-2.80364697266,10.1925986328,1.90882751465,0.155849524884,0.239672167676,0.95818583072,-0.0121695267179
2021/03/16/14:47:21.625240,930317,1615902441,628171206,mocap,-2.80365551758,10.1882099609,1.90819055176,0.155918425388,0.241247737439,0.957786013313,-0.0116159868834
2021/03/16/14:47:21.634151,930318,1615902441,638171196,mocap,-2.80375097656,10.1837373047,1.90752270508,0.155310228499,0.242727360733,0.957521103036,-0.0107471342171
2021/03/16/14:47:21.645314,930319,1615902441,648171186,mocap,-2.80384057617,10.1791386719,1.90676379395,0.155187487871,0.244562105672,0.957081626033,-0.0100495780339
2021/03/16/14:47:21.654302,930320,1615902441,658171177,mocap,-2.80400610352,10.1744072266,1.90598779297,0.154697861345,0.245802760526,0.956852861244,-0.00906501141735
2021/03/16/14:47:21.664248,930321,1615902441,668171167,mocap,-2.80423730469,10.1694375,1.90527124023,0.153886225903,0.247076210907,0.956664696387,-0.00806409767635
2021/03/16/14:47:21.673815,930322,1615902441,678171158,mocap,-2.80451611328,10.1643564453,1.90441625977,0.153735191011,0.248152233647,0.956416372399,-0.00732656609669
2021/03/16/14:47:21.684281,930323,1615902441,688171148,mocap,-2.8047644043,10.1591376953,1.90362988281,0.153088344692,0.249199394047,0.956255493273,-0.00624849822019
2021/03/16/14:47:21.695122,930324,1615902441,698171139,mocap,-2.80505249023,10.1537041016,1.90286096191,0.152526713793,0.249847053419,0.95618091876,-0.00548644486531
2021/03/16/14:47:21.705317,930325,1615902441,708171129,mocap,-2.80539868164,10.1480947266,1.90205175781,0.152027463774,0.250251880381,0.956159451505,-0.00455463519636
2021/03/16/14:47:21.713877,930326,1615902441,718171120,mocap,-2.80580053711,10.1423359375,1.90134350586,0.15116079726,0.250553705934,0.956222363615,-0.00347067229685
2021/03/16/14:47:21.726176,930327,1615902441,728171110,mocap,-2.80611450195,10.1364160156,1.90055102539,0.15086920372,0.250795260104,0.95620758268,-0.00269898687121
2021/03/16/14:47:21.734352,930328,1615902441,738171101,mocap,-2.80649536133,10.1303203125,1.89993652344,0.149958423111,0.250838660221,0.956341958455,-0.00158022039234
2021/03/16/14:47:21.746181,930329,1615902441,748171091,mocap,-2.80689135742,10.1240595703,1.89909997559,0.149663983291,0.251240241494,0.956283799054,-0.000562679124379
2021/03/16/14:47:21.753913,930330,1615902441,758171082,mocap,-2.80734912109,10.1177363281,1.89842456055,0.149467798043,0.25075409304,0.956442235186,1.22768679475e-05
2021/03/16/14:47:21.765944,930331,1615902441,768171072,mocap,-2.80773999023,10.1112421875,1.89784387207,0.148673319269,0.250641059663,0.956595154099,0.00100760149843
2021/03/16/14:47:21.774419,930332,1615902441,778171062,mocap,-2.80821875,10.1046259766,1.89716650391,0.148728874962,0.250719114407,0.956565151765,0.00166286372362
2021/03/16/14:47:21.785820,930333,1615902441,788171053,mocap,-2.80868920898,10.0979384766,1.89654553223,0.148099182764,0.250197055364,0.956798174756,0.00230584540363
2021/03/16/14:47:21.793949,930334,1615902441,798171043,mocap,-2.80914599609,10.0911513672,1.89592260742,0.147941935748,0.25023647534,0.95681064165,0.00287775669553
2021/03/16/14:47:21.805874,930335,1615902441,808171034,mocap,-2.80962280273,10.0842890625,1.89523693848,0.147701230978,0.250525154589,0.956769557129,0.00367495150153
2021/03/16/14:47:21.813962,930336,1615902441,818171024,mocap,-2.810171875,10.0773271484,1.89457165527,0.147271874857,0.250574796127,0.956819993661,0.00433089625869
2021/03/16/14:47:21.825786,930337,1615902441,828171015,mocap,-2.81070361328,10.0702900391,1.89404577637,0.146814623218,0.250777789546,0.956835536018,0.00465981351357
2021/03/16/14:47:21.833877,930338,1615902441,838171005,mocap,-2.81124389648,10.0632294922,1.89347143555,0.146730725795,0.251343333197,0.956695871561,0.00544254722878
2021/03/16/14:47:21.845799,930339,1615902441,848170996,mocap,-2.8117878418,10.0560351562,1.89288757324,0.146842971068,0.252096847387,0.956478309491,0.00579300451835
2021/03/16/14:47:21.853964,930340,1615902441,858170986,mocap,-2.81232519531,10.0487929687,1.89239868164,0.146349892041,0.252627728624,0.956412111204,0.00606745760471
2021/03/16/14:47:21.865521,930341,1615902441,868170977,mocap,-2.81289453125,10.0415146484,1.89200500488,0.146317168354,0.253366230347,0.956217423676,0.00671545849232
2021/03/16/14:47:21.874266,930342,1615902441,878171206,mocap,-2.81345458984,10.0341640625,1.89152258301,0.146349758743,0.254261700965,0.955972514065,0.00702128494058
2021/03/16/14:47:21.885406,930343,1615902441,888171196,mocap,-2.81400463867,10.026765625,1.89112463379,0.146545495536,0.254931125178,0.955763876836,0.00706762668993
2021/03/16/14:47:21.894295,930344,1615902441,898171186,mocap,-2.81454833984,10.0193027344,1.89086877441,0.146823721159,0.256055384987,0.955416785111,0.00756297067661
2021/03/16/14:47:21.905331,930345,1615902441,908171177,mocap,-2.81507373047,10.0117265625,1.89051721191,0.147096811284,0.257056722837,0.955102931912,0.00792146363109
2021/03/16/14:47:21.913981,930346,1615902441,918171167,mocap,-2.81566064453,10.0041865234,1.89040319824,0.146898300274,0.257991842931,0.954878117188,0.00829873368696
2021/03/16/14:47:21.925587,930347,1615902441,928171158,mocap,-2.81617675781,9.996546875,1.89042248535,0.147247702227,0.259155437622,0.954507130505,0.00852693650424
2021/03/16/14:47:21.934090,930348,1615902441,938171148,mocap,-2.81666821289,9.98882910156,1.89057348633,0.148484445567,0.260494459963,0.95395004022,0.00862134042851
2021/03/16/14:47:21.945652,930349,1615902441,948171139,mocap,-2.81730981445,9.98117382812,1.89128588867,0.147935052074,0.262320311387,0.953528529873,0.00930668441541
2021/03/16/14:47:21.954064,930350,1615902441,958171129,mocap,-2.81786132812,9.97334179687,1.89213635254,0.148885128393,0.263817038144,0.95296729456,0.00933402442184
2021/03/16/14:47:21.965412,930351,1615902441,968171120,mocap,-2.81829736328,9.96535742187,1.89298400879,0.150839160097,0.264465233263,0.95248562051,0.00876531409233
2021/03/16/14:47:21.973948,930352,1615902441,978171110,mocap,-2.81878222656,9.95732910156,1.89406591797,0.151410418653,0.265209147333,0.952187374004,0.00884313562674
2021/03/16/14:47:21.985398,930353,1615902441,988171101,mocap,-2.8191472168,9.94915527344,1.89507873535,0.152959274444,0.265836645235,0.951772785911,0.00793052751655
2021/03/16/14:47:21.994142,930354,1615902441,998171091,mocap,-2.81970532227,9.94109082031,1.89653015137,0.153527533733,0.26657676882,0.951476555499,0.00764667072871
2021/03/16/14:47:22.005391,930355,1615902442,8171082,mocap,-2.82019921875,9.93300488281,1.89800866699,0.154912864879,0.267403302612,0.951025722484,0.00689594278666
2021/03/16/14:47:22.014005,930356,1615902442,18171072,mocap,-2.82081201172,9.92484570312,1.89968359375,0.154845068152,0.268124078969,0.950833732454,0.00690641301878
2021/03/16/14:47:22.025502,930357,1615902442,28171062,mocap,-2.8213112793,9.91651660156,1.90113562012,0.156044475355,0.267156191566,0.950918919886,0.0055584562132
2021/03/16/14:47:22.034075,930358,1615902442,38171053,mocap,-2.82188916016,9.90822363281,1.90266394043,0.156232190586,0.266376797245,0.951111864081,0.00459759362828
2021/03/16/14:47:22.045293,930359,1615902442,48171043,mocap,-2.822453125,9.89985351563,1.90405236816,0.15730686972,0.265241263103,0.951257870212,0.00317734185174
2021/03/16/14:47:22.054149,930360,1615902442,58171034,mocap,-2.82301416016,9.89165820313,1.90555566406,0.156807169012,0.264755180721,0.951477510825,0.00259944881362
2021/03/16/14:47:22.065180,930361,1615902442,68171024,mocap,-2.82352539062,9.88329296875,1.90651098633,0.158206672839,0.262424272245,0.951895006149,0.000220980652266
2021/03/16/14:47:22.073967,930362,1615902442,78171015,mocap,-2.82415332031,9.87515429687,1.90758984375,0.157472300715,0.26191585595,0.952156567661,-0.0006578066484
2021/03/16/14:47:22.084711,930363,1615902442,88171005,mocap,-2.82469848633,9.86711523437,1.90859375,0.157227526132,0.261102129441,0.952419011723,-0.00179260175758
2021/03/16/14:47:22.093916,930364,1615902442,98170996,mocap,-2.82519360352,9.85908398437,1.90927026367,0.157820728984,0.260490075249,0.952483876147,-0.00346370057655
2021/03/16/14:47:22.106062,930365,1615902442,108170986,mocap,-2.82581152344,9.85128125,1.91006176758,0.157063734165,0.260572248702,0.952583464009,-0.00422257214136
2021/03/16/14:47:22.114318,930366,1615902442,118170977,mocap,-2.82629321289,9.84345605469,1.91067980957,0.15653541725,0.260484011106,0.952690424107,-0.00507026412289
2021/03/16/14:47:22.125879,930367,1615902442,128171206,mocap,-2.82675488281,9.83568066406,1.91124914551,0.15637313228,0.260675457343,0.952656216327,-0.00647131278119
2021/03/16/14:47:22.134092,930368,1615902442,138171196,mocap,-2.82717578125,9.82796679687,1.9116550293,0.156929427845,0.26045297642,0.952609649852,-0.00850052891524
2021/03/16/14:47:22.145943,930369,1615902442,148171186,mocap,-2.82763378906,9.82033886719,1.91227319336,0.155859143439,0.261234663403,0.95256229894,-0.00945744959059
2021/03/16/14:47:22.154037,930370,1615902442,158171177,mocap,-2.82806396484,9.81269433594,1.91282116699,0.155347575054,0.261242241864,0.952630806049,-0.0106851624069
2021/03/16/14:47:22.166006,930371,1615902442,168171167,mocap,-2.82849414063,9.80505859375,1.91329101563,0.155061324486,0.261432482142,0.952607405156,-0.0121725964561
2021/03/16/14:47:22.173815,930372,1615902442,178171158,mocap,-2.82892236328,9.79742578125,1.9139095459,0.153839469719,0.262046580751,0.95262839716,-0.0128118939083
2021/03/16/14:47:22.186075,930373,1615902442,188171148,mocap,-2.82922460938,9.78969042969,1.91430236816,0.15438437933,0.261456786284,0.952674102441,-0.0147601366867
2021/03/16/14:47:22.194335,930374,1615902442,198171139,mocap,-2.82958569336,9.78205957031,1.91494702148,0.154012739079,0.261505588493,0.952698487079,-0.0161400306081
2021/03/16/14:47:22.204826,930375,1615902442,208171129,mocap,-2.82993310547,9.7744765625,1.91579272461,0.152968297998,0.261887029802,0.952740748135,-0.0173477466575
2021/03/16/14:47:22.214277,930376,1615902442,218171120,mocap,-2.8301496582,9.76672363281,1.91642993164,0.153405337038,0.261360925483,0.952776336997,-0.019352457619
2021/03/16/14:47:22.225349,930377,1615902442,228171110,mocap,-2.8304309082,9.75896386719,1.9171809082,0.152743352464,0.260617106842,0.953058678243,-0.0206723409871
2021/03/16/14:47:22.234058,930378,1615902442,238171101,mocap,-2.83078271484,9.75121191406,1.91806176758,0.151279183943,0.260049856148,0.953423062606,-0.021751984656
2021/03/16/14:47:22.245901,930379,1615902442,248171091,mocap,-2.83104052734,9.74334375,1.9188704834,0.150447646594,0.259139721845,0.953774215471,-0.0229532333037
2021/03/16/14:47:22.253873,930380,1615902442,258171082,mocap,-2.83120605469,9.73546191406,1.91955883789,0.150596955524,0.257885318366,0.954047827247,-0.0246670206909
2021/03/16/14:47:22.264526,930381,1615902442,268171072,mocap,-2.83143261719,9.727609375,1.92032678223,0.150191666272,0.256738408641,0.954382543665,-0.0261117390076
2021/03/16/14:47:22.273895,930382,1615902442,278171062,mocap,-2.83167407227,9.71971875,1.92118249512,0.148549637896,0.255582688623,0.954932484512,-0.0267291892215
2021/03/16/14:47:22.285706,930383,1615902442,288171053,mocap,-2.83181225586,9.71175195313,1.92186535645,0.148083841879,0.254430759896,0.955278566698,-0.0279109033747
2021/03/16/14:47:22.294280,930384,1615902442,298171043,mocap,-2.83192895508,9.70382519531,1.92245947266,0.14761421832,0.253272920212,0.955623447624,-0.0290979399195
2021/03/16/14:47:22.305778,930385,1615902442,308171034,mocap,-2.8319074707,9.6958359375,1.92285131836,0.148368076757,0.251913859269,0.955809697215,-0.0308890908394
2021/03/16/14:47:22.314150,930386,1615902442,318171024,mocap,-2.83192456055,9.68789160156,1.92329956055,0.148083170362,0.250897288824,0.956077801403,-0.0322048525067
2021/03/16/14:47:22.325503,930387,1615902442,328171015,mocap,-2.83187329102,9.67983984375,1.9234987793,0.148045700817,0.250317903814,0.95618867958,-0.0335653462437
2021/03/16/14:47:22.333950,930388,1615902442,338171005,mocap,-2.83180639648,9.67183691406,1.92364331055,0.148046875853,0.249571574307,0.956336395874,-0.0348833959105
2021/03/16/14:47:22.345620,930389,1615902442,348170996,mocap,-2.83169897461,9.66381933594,1.92368823242,0.148040122794,0.249081073873,0.956424107939,-0.0359953815955
2021/03/16/14:47:22.353988,930390,1615902442,358170986,mocap,-2.83155395508,9.6557421875,1.92357177734,0.148156875639,0.248709643513,0.956455867398,-0.0372185731125
2021/03/16/14:47:22.365283,930391,1615902442,368170977,mocap,-2.83140039062,9.64764648438,1.92332983398,0.148762885114,0.248476331503,0.956370051334,-0.0385413711853
2021/03/16/14:47:22.373758,930392,1615902442,378171206,mocap,-2.83118212891,9.63948730469,1.92297705078,0.148792176269,0.248259879974,0.956385180324,-0.0394373389838
2021/03/16/14:47:22.385261,930393,1615902442,388171196,mocap,-2.83096777344,9.63134960938,1.92251428223,0.148738127796,0.247828499547,0.956472233586,-0.0402351745982
2021/03/16/14:47:22.394088,930394,1615902442,398171186,mocap,-2.83074023437,9.62310644531,1.92189147949,0.148830185006,0.24795456729,0.95638338075,-0.0412180877493
2021/03/16/14:47:22.405378,930395,1615902442,408171177,mocap,-2.83048803711,9.61482226562,1.92121325684,0.149186498476,0.247982639301,0.956281516235,-0.0421148057198
2021/03/16/14:47:22.414060,930396,1615902442,418171167,mocap,-2.8301875,9.60655371094,1.92041906738,0.149403789672,0.248150292927,0.956166752763,-0.0429544047828
2021/03/16/14:47:22.425371,930397,1615902442,428171158,mocap,-2.82984936523,9.59820703125,1.91950378418,0.149993419292,0.248680742531,0.955900614308,-0.0437479262023
2021/03/16/14:47:22.433846,930398,1615902442,438171148,mocap,-2.82949121094,9.58968945313,1.9183984375,0.15029286872,0.248773956515,0.955788626974,-0.0446281125019
2021/03/16/14:47:22.445128,930399,1615902442,448171139,mocap,-2.82913623047,9.58117285156,1.9172824707,0.150721227185,0.249181796737,0.95558780886,-0.0452049587723
2021/03/16/14:47:22.454423,930400,1615902442,458171129,mocap,-2.82876049805,9.57260253906,1.9160847168,0.151020950147,0.249149674059,0.955512449274,-0.0459681465646
2021/03/16/14:47:22.464575,930401,1615902442,468171120,mocap,-2.82834716797,9.56395703125,1.91472058105,0.151417966532,0.24948910574,0.95532905855,-0.0466281237716
2021/03/16/14:47:22.475036,930402,1615902442,478171110,mocap,-2.82795898437,9.55522070313,1.91336413574,0.151770585023,0.249815779605,0.955156381596,-0.0472656996822
2021/03/16/14:47:22.484307,930403,1615902442,488171101,mocap,-2.82763037109,9.54648339844,1.91202331543,0.151173272393,0.250394463108,0.955099054899,-0.0472761293121
2021/03/16/14:47:22.496122,930404,1615902442,498171091,mocap,-2.82718579102,9.53767480469,1.91042724609,0.152448961834,0.250664798532,0.95476319283,-0.0485151376483
2021/03/16/14:47:22.503832,930405,1615902442,508171082,mocap,-2.82681762695,9.52883496094,1.90899401855,0.151514311054,0.251618995164,0.954679050814,-0.0481580345618
2021/03/16/14:47:22.516095,930406,1615902442,518171072,mocap,-2.82640722656,9.51993066406,1.9074967041,0.151825546035,0.252542395227,0.954370966255,-0.0484501305982
2021/03/16/14:47:22.524057,930407,1615902442,528171062,mocap,-2.82597412109,9.51102441406,1.90584094238,0.152424749343,0.253201547807,0.954061111014,-0.049224772059
2021/03/16/14:47:22.535984,930408,1615902442,538171053,mocap,-2.82562084961,9.50204199219,1.9044309082,0.151559239158,0.254526175063,0.953873824835,-0.0486924146333
2021/03/16/14:47:22.544190,930409,1615902442,548171043,mocap,-2.82520068359,9.49297363281,1.90302722168,0.151312709225,0.255496219851,0.953652907963,-0.048705991564
2021/03/16/14:47:22.555997,930410,1615902442,558171034,mocap,-2.82480200195,9.48377636719,1.90157507324,0.151859894003,0.256633704363,0.95323415819,-0.0492173304804
2021/03/16/14:47:22.563991,930411,1615902442,568171024,mocap,-2.82441723633,9.47460546875,1.90037780762,0.151338965712,0.257814112286,0.953003414404,-0.0491211955154
2021/03/16/14:47:22.575878,930412,1615902442,578171015,mocap,-2.82406274414,9.46532324219,1.89938415527,0.150637939543,0.258707249679,0.952883979153,-0.0488967132705
2021/03/16/14:47:22.584107,930413,1615902442,588171005,mocap,-2.82370874023,9.45596679687,1.89850598145,0.150154888353,0.259772770948,0.952677082124,-0.0487647892858
2021/03/16/14:47:22.594833,930414,1615902442,598170996,mocap,-2.82333740234,9.44654101562,1.89771130371,0.149392362359,0.260886514936,0.952512865017,-0.0483671756867
2021/03/16/14:47:22.604041,930415,1615902442,608170986,mocap,-2.82295092773,9.43706054687,1.89712988281,0.148857853438,0.262035657708,0.952295231385,-0.048087737716
2021/03/16/14:47:22.616058,930416,1615902442,618170977,mocap,-2.82249291992,9.42750585937,1.89664562988,0.148257815883,0.263059447916,0.952117770753,-0.0478653754887
2021/03/16/14:47:22.623849,930417,1615902442,628171206,mocap,-2.82209448242,9.41788867187,1.8963326416,0.146853678553,0.264016548011,0.952105555425,-0.0471621604309
2021/03/16/14:47:22.635535,930418,1615902442,638171196,mocap,-2.82164086914,9.40820410156,1.89613903809,0.146296576803,0.264751652512,0.952018862002,-0.0465182809271
2021/03/16/14:47:22.643983,930419,1615902442,648171186,mocap,-2.82112597656,9.39845507813,1.89609924316,0.146311862822,0.265451322607,0.95182661829,-0.046416844466
2021/03/16/14:47:22.655652,930420,1615902442,658171177,mocap,-2.82078735352,9.38870410156,1.89672180176,0.144650028154,0.266784382584,0.951770202631,-0.0451214934996
2021/03/16/14:47:22.664047,930421,1615902442,668171167,mocap,-2.82035375977,9.37880078125,1.89745043945,0.144343112385,0.267340498911,0.951693178546,-0.0444322472021
2021/03/16/14:47:22.675541,930422,1615902442,678171158,mocap,-2.81996240234,9.36879101562,1.89853186035,0.143295793269,0.267034143275,0.951989435467,-0.0433035306076
2021/03/16/14:47:22.683813,930423,1615902442,688171148,mocap,-2.81959179688,9.35874707031,1.89977746582,0.141921078576,0.266792827272,0.952327817012,-0.0418536228399
2021/03/16/14:47:22.695252,930424,1615902442,698171139,mocap,-2.81910571289,9.34857519531,1.90096704102,0.141447301045,0.266219859613,0.952606404036,-0.0407514976328
2021/03/16/14:47:22.703976,930425,1615902442,708171129,mocap,-2.81857202148,9.33836914062,1.90222106934,0.141300563259,0.265431178891,0.95288269684,-0.039937583555
2021/03/16/14:47:22.715346,930426,1615902442,718171120,mocap,-2.81809179688,9.328359375,1.90373486328,0.140733580155,0.264784000431,0.953194021634,-0.0387897515447
2021/03/16/14:47:22.724023,930427,1615902442,728171110,mocap,-2.81762939453,9.31834765625,1.90533776855,0.14085194593,0.263702532186,0.953507502989,-0.0380150557428
2021/03/16/14:47:22.734423,930428,1615902442,738171101,mocap,-2.81711254883,9.30821972656,1.90685339355,0.140797134774,0.262541742533,0.953867318361,-0.0372172801431
2021/03/16/14:47:22.744151,930429,1615902442,748171091,mocap,-2.81660058594,9.29815039063,1.90821899414,0.140746937041,0.261177278026,0.954279669202,-0.0364286323564
2021/03/16/14:47:22.754463,930430,1615902442,758171082,mocap,-2.81611206055,9.288234375,1.90968969727,0.140549077553,0.259910222672,0.954700286018,-0.0352136202328
2021/03/16/14:47:22.764202,930431,1615902442,768171072,mocap,-2.81557373047,9.27831445313,1.9108203125,0.141819266248,0.25870556238,0.954843862937,-0.0350990023075
2021/03/16/14:47:22.774056,930432,1615902442,778171062,mocap,-2.81509448242,9.26854589844,1.91195629883,0.142359336868,0.257733325698,0.955053270637,-0.0343597835708
2021/03/16/14:47:22.784042,930433,1615902442,788171053,mocap,-2.81463525391,9.25902539063,1.91300585937,0.142509903771,0.257085521872,0.955212862461,-0.0341519542763
2021/03/16/14:47:22.794284,930434,1615902442,798171043,mocap,-2.81429003906,9.24932128906,1.91404150391,0.143199079073,0.256635446526,0.955280929907,-0.0327202765039
2021/03/16/14:47:22.804024,930435,1615902442,808171034,mocap,-2.81392675781,9.23978613281,1.91506091309,0.143950735158,0.256252282954,0.955293245019,-0.03205876673
2021/03/16/14:47:22.815149,930436,1615902442,818171024,mocap,-2.81364599609,9.23025878906,1.91600769043,0.144588799955,0.255751415232,0.955357711528,-0.0312560071043
2021/03/16/14:47:22.824113,930437,1615902442,828171015,mocap,-2.81332885742,9.2209296875,1.91692663574,0.145692833726,0.255144387036,0.955362172394,-0.0309527601516
2021/03/16/14:47:22.835079,930438,1615902442,838171005,mocap,-2.81308911133,9.21148339844,1.91781481934,0.146034447971,0.254121058874,0.955606248246,-0.0302180768961
2021/03/16/14:47:22.844474,930439,1615902442,848170996,mocap,-2.81293017578,9.201984375,1.91865869141,0.14706422566,0.253293416855,0.955700045808,-0.0291886410974
2021/03/16/14:47:22.854102,930440,1615902442,858170986,mocap,-2.81288647461,9.19253125,1.91951428223,0.147475423035,0.2521414931,0.95597214776,-0.0281586019642
2021/03/16/14:47:22.866292,930441,1615902442,868170977,mocap,-2.81287695312,9.18303417969,1.92031469727,0.148218049911,0.250987531927,0.956191250922,-0.0271103113839
2021/03/16/14:47:22.873842,930442,1615902442,878171206,mocap,-2.81294580078,9.17370605469,1.92122607422,0.148687397702,0.249558930111,0.956517256683,-0.0262134699066
2021/03/16/14:47:22.885999,930443,1615902442,888171196,mocap,-2.81311621094,9.16423144531,1.92187878418,0.149195310193,0.248187412009,0.956828193143,-0.0249713099837
2021/03/16/14:47:22.894120,930444,1615902442,898171186,mocap,-2.81329418945,9.1548125,1.92256237793,0.14914101444,0.246525973906,0.957295229569,-0.0238275155129
2021/03/16/14:47:22.903823,930445,1615902442,908171177,mocap,-2.81354614258,9.14537207031,1.92307202148,0.149903929038,0.244259980844,0.957782917282,-0.0227540437433
2021/03/16/14:47:22.915833,930446,1615902442,918171167,mocap,-2.81388818359,9.13607714844,1.92353417969,0.150076364968,0.24244654722,0.958240453566,-0.0217252177375
2021/03/16/14:47:22.923907,930447,1615902442,928171158,mocap,-2.81429150391,9.1267109375,1.92390161133,0.149927710025,0.240851736485,0.958689191648,-0.0206678469057
2021/03/16/14:47:22.935017,930448,1615902442,938171148,mocap,-2.81475341797,9.117453125,1.92421850586,0.14956280245,0.238897615734,0.959253393847,-0.0197945789033
2021/03/16/14:47:22.946174,930449,1615902442,948171139,mocap,-2.81525097656,9.10818066406,1.92440942383,0.149440526407,0.237201562268,0.959713613912,-0.0187810920513
2021/03/16/14:47:22.953965,930450,1615902442,958171129,mocap,-2.81585766602,9.09894042969,1.92459118652,0.148733462556,0.235408364932,0.960284344515,-0.0177548754076
2021/03/16/14:47:22.965893,930451,1615902442,968171120,mocap,-2.81647216797,9.08969140625,1.92468615723,0.148059357604,0.233770218984,0.960809776688,-0.0165672205904
2021/03/16/14:47:22.974209,930452,1615902442,978171110,mocap,-2.81709985352,9.08054589844,1.92473632813,0.147672672559,0.231996540512,0.961313453262,-0.0157105031394
2021/03/16/14:47:22.984962,930453,1615902442,988171101,mocap,-2.81780322266,9.07144238281,1.9246619873,0.147054279358,0.230623746736,0.961754211466,-0.0147164310026
2021/03/16/14:47:22.994106,930454,1615902442,998171091,mocap,-2.81852539063,9.06224023438,1.92444909668,0.146353192406,0.229104859264,0.962237912574,-0.0137808620259
2021/03/16/14:47:23.004550,930455,1615902443,8171082,mocap,-2.81921044922,9.05312109375,1.92419372559,0.145083410643,0.227750023891,0.962768732678,-0.0125332665637
2021/03/16/14:47:23.015729,930456,1615902443,18171072,mocap,-2.82002392578,9.04404980469,1.92377429199,0.144650982917,0.226573202446,0.963120609078,-0.0118047082678
2021/03/16/14:47:23.025593,930457,1615902443,28171062,mocap,-2.82075756836,9.03503710938,1.92332067871,0.144294755498,0.225619902656,0.963405463756,-0.0111625482777
2021/03/16/14:47:23.034072,930458,1615902443,38171053,mocap,-2.82152075195,9.0259609375,1.92276428223,0.143029218607,0.224969235741,0.96375904037,-0.00999968313681
2021/03/16/14:47:23.044544,930459,1615902443,48171043,mocap,-2.82228881836,9.01698535156,1.92210644531,0.142741770185,0.224350172952,0.963952452068,-0.00935150796712
2021/03/16/14:47:23.054658,930460,1615902443,58171034,mocap,-2.82305126953,9.00798339844,1.92129296875,0.14199807836,0.224155338201,0.964114975699,-0.00855887800503
2021/03/16/14:47:23.063972,930461,1615902443,68171024,mocap,-2.82378198242,8.99905664062,1.92047412109,0.141616264577,0.223857671827,0.964246356441,-0.00784515779377
2021/03/16/14:47:23.074147,930462,1615902443,78171015,mocap,-2.82460498047,8.99006054688,1.91947253418,0.141412674756,0.224163125046,0.964211708653,-0.00700950718761
2021/03/16/14:47:23.086187,930463,1615902443,88171005,mocap,-2.82536157227,8.98110839844,1.91845214844,0.140822803631,0.224134086942,0.964309204537,-0.00637270728917
2021/03/16/14:47:23.094326,930464,1615902443,98170996,mocap,-2.82618408203,8.97215136719,1.91736120605,0.140734818662,0.224639518299,0.964208123262,-0.00578758882961
2021/03/16/14:47:23.105537,930465,1615902443,108170986,mocap,-2.82699487305,8.96313476562,1.91617248535,0.140078253167,0.224981312345,0.964227997286,-0.00508589646929
2021/03/16/14:47:23.114401,930466,1615902443,118170977,mocap,-2.82781494141,8.95412988281,1.91486218262,0.140045112588,0.225207798009,0.964181549227,-0.00477020148717
2021/03/16/14:47:23.125201,930467,1615902443,128171206,mocap,-2.82871289062,8.94501855469,1.91349902344,0.139552218453,0.225744304018,0.964131072773,-0.00399547594611
2021/03/16/14:47:23.134038,930468,1615902443,138171196,mocap,-2.82952709961,8.93599707031,1.91213635254,0.139240540036,0.226201016262,0.964070461988,-0.00365024137888
2021/03/16/14:47:23.144433,930469,1615902443,148171186,mocap,-2.83047753906,8.92686621094,1.91062561035,0.139095523638,0.226467724486,0.964029509105,-0.00345050441354
2021/03/16/14:47:23.155424,930470,1615902443,158171177,mocap,-2.83136157227,8.91771582031,1.90897338867,0.13863723311,0.227525882338,0.963847870329,-0.00299741303552
2021/03/16/14:47:23.164295,930471,1615902443,168171167,mocap,-2.83239428711,8.9086484375,1.90736828613,0.138221124566,0.228313025968,0.963722225833,-0.00274777503728
2021/03/16/14:47:23.175264,930472,1615902443,178171158,mocap,-2.83330883789,8.89953222656,1.90563781738,0.138197877625,0.229312816965,0.963489052479,-0.0024116608689
2021/03/16/14:47:23.184147,930473,1615902443,188171148,mocap,-2.83444750977,8.89042480469,1.90408972168,0.13807105678,0.230522826077,0.963218656302,-0.00233027536366
2021/03/16/14:47:23.195073,930474,1615902443,198171139,mocap,-2.83549487305,8.88124023437,1.90245483398,0.137541238069,0.231933655865,0.962956285076,-0.0020902999562
2021/03/16/14:47:23.204000,930475,1615902443,208171129,mocap,-2.83671533203,8.87207617187,1.90092700195,0.136766467878,0.233732707958,0.962631593106,-0.00209057641472
2021/03/16/14:47:23.214437,930476,1615902443,218171120,mocap,-2.83790112305,8.86280078125,1.89951599121,0.136519967006,0.234972936912,0.962364091505,-0.00231792618745
2021/03/16/14:47:23.225363,930477,1615902443,228171110,mocap,-2.83913110352,8.85344238281,1.89830578613,0.136019317321,0.236428510528,0.962078549026,-0.00227152714204
2021/03/16/14:47:23.235211,930478,1615902443,238171101,mocap,-2.84034155273,8.84408105469,1.89729943848,0.135577011505,0.23775110559,0.961814495685,-0.00248480438396
2021/03/16/14:47:23.245028,930479,1615902443,248171091,mocap,-2.84161938477,8.83460449219,1.89636938477,0.1354588435,0.238949484425,0.961533191235,-0.00282203276504
2021/03/16/14:47:23.254132,930480,1615902443,258171082,mocap,-2.84292895508,8.82501757812,1.8956965332,0.135120809486,0.240132829917,0.961284063229,-0.00339656057765
2021/03/16/14:47:23.266392,930481,1615902443,268171072,mocap,-2.84424780273,8.81538867188,1.89516137695,0.135241504198,0.241125475534,0.961017357214,-0.00372621440491
2021/03/16/14:47:23.274012,930482,1615902443,278171062,mocap,-2.84558081055,8.80569921875,1.89488464355,0.134740011277,0.241950022449,0.960877532949,-0.00443550396571
2021/03/16/14:47:23.284113,930483,1615902443,288171053,mocap,-2.84701416016,8.79593652344,1.89508068848,0.134225622,0.243093823595,0.960657063323,-0.00518367434938
2021/03/16/14:47:23.295892,930484,1615902443,298171043,mocap,-2.84854663086,8.78607421875,1.89579211426,0.133432950022,0.244209897278,0.96048318001,-0.00540790431551
2021/03/16/14:47:23.304025,930485,1615902443,308171034,mocap,-2.85010131836,8.77609472656,1.89682958984,0.13254492008,0.24448168455,0.960533398273,-0.00601216320408
2021/03/16/14:47:23.315970,930486,1615902443,318171024,mocap,-2.85162011719,8.76596875,1.89814562988,0.132442653465,0.244042288803,0.96065042441,-0.00728463298149
2021/03/16/14:47:23.324063,930487,1615902443,328171015,mocap,-2.85305908203,8.75567285156,1.89945568848,0.131834607081,0.242929530182,0.961004107578,-0.00871710327438
2021/03/16/14:47:23.335945,930488,1615902443,338171005,mocap,-2.85452416992,8.74541796875,1.90099560547,0.131686635666,0.241607920594,0.961342524638,-0.01023729534
2021/03/16/14:47:23.343902,930489,1615902443,348170996,mocap,-2.85588232422,8.73514453125,1.90268334961,0.131318828886,0.240361927647,0.961685742231,-0.011918234306
2021/03/16/14:47:23.355903,930490,1615902443,358170986,mocap,-2.85729980469,8.72497558594,1.90448425293,0.131068100799,0.238770366628,0.962095299702,-0.0135087445756
2021/03/16/14:47:23.363948,930491,1615902443,368170977,mocap,-2.85862817383,8.71485742187,1.90630505371,0.130692737235,0.237249636799,0.962500417697,-0.0149985744128
2021/03/16/14:47:23.375766,930492,1615902443,378171206,mocap,-2.85996557617,8.70477441406,1.90802978516,0.130219134909,0.2351838744,0.963045777052,-0.0165632570716
2021/03/16/14:47:23.383872,930493,1615902443,388171196,mocap,-2.86120361328,8.69470996094,1.90963110352,0.129963088011,0.233212599686,0.963527855473,-0.0183182466545
2021/03/16/14:47:23.395872,930494,1615902443,398171186,mocap,-2.86227075195,8.68492675781,1.91119519043,0.12915029796,0.230726136859,0.964196996102,-0.020243425099
2021/03/16/14:47:23.403954,930495,1615902443,408171177,mocap,-2.86342480469,8.675203125,1.91254724121,0.128715854236,0.22894642004,0.964643071421,-0.0218978164413
2021/03/16/14:47:23.415422,930496,1615902443,418171167,mocap,-2.86444995117,8.66560351562,1.91373120117,0.128351675154,0.227578251907,0.964988520028,-0.0230467958742
2021/03/16/14:47:23.423999,930497,1615902443,428171158,mocap,-2.86551318359,8.65634765625,1.91488232422,0.127591786745,0.226696300919,0.965262951306,-0.0244246724777
2021/03/16/14:47:23.435716,930498,1615902443,438171148,mocap,-2.86644165039,8.64722167969,1.91585827637,0.127540609506,0.22659023451,0.965270299486,-0.0253674557848
2021/03/16/14:47:23.444032,930499,1615902443,448171139,mocap,-2.86739599609,8.63831445313,1.9168137207,0.126899117835,0.227204191963,0.965193758349,-0.0259978586808
